[
    {
        "name": "Андау",
        "latitude": 47.77441,
        "longitude": 17.03293
    },
    {
        "name": "До",
        "latitude": 47.77377,
        "longitude": 16.47984
    },
    {
        "name": "Апеллон",
        "latitude": 47.74394,
        "longitude": 16.8302
    },
    {
        "name": "Плохой сфус",
        "latitude": 47.77439,
        "longitude": 16.32841
    },
    {
        "name": "Плохой Тацманнсдорф",
        "latitude": 47.33126,
        "longitude": 16.23067
    },
    {
        "name": "Badersdorf",
        "latitude": 47.2,
        "longitude": 16.36667
    },
    {
        "name": "Бернштейн",
        "latitude": 47.4,
        "longitude": 16.25
    },
    {
        "name": "Боксдорф",
        "latitude": 47.14256,
        "longitude": 16.17784
    },
    {
        "name": "Breitenbrunn",
        "latitude": 47.94452,
        "longitude": 16.73149
    },
    {
        "name": "Брукнеодорф",
        "latitude": 48.01667,
        "longitude": 16.78333
    },
    {
        "name": "Немецкий Джарндорф",
        "latitude": 48.01667,
        "longitude": 17.1
    },
    {
        "name": "Немецкий Калтенбрунн",
        "latitude": 47.09455,
        "longitude": 16.13145
    },
    {
        "name": "Deutschkreutz",
        "latitude": 47.6,
        "longitude": 16.63333
    },
    {
        "name": "Доннерскирхен",
        "latitude": 47.89425,
        "longitude": 16.64635
    },
    {
        "name": "Драссбург",
        "latitude": 47.74645,
        "longitude": 16.48679
    },
    {
        "name": "Эмбер",
        "latitude": 47.10764,
        "longitude": 16.46044
    },
    {
        "name": "Edelstal",
        "latitude": 48.1,
        "longitude": 16.98333
    },
    {
        "name": "Железный город",
        "latitude": 47.84565,
        "longitude": 16.52327
    },
    {
        "name": "Эйзенштадт Сити",
        "latitude": 47.8445,
        "longitude": 16.52575
    },
    {
        "name": "Железный город окружающая среда",
        "latitude": 47.83333,
        "longitude": 16.58333
    },
    {
        "name": "Эльтендорф",
        "latitude": 47.0087,
        "longitude": 16.20239
    },
    {
        "name": "Форхтенштейн",
        "latitude": 47.71161,
        "longitude": 16.34525
    },
    {
        "name": "Фрауэенкирхен",
        "latitude": 47.83678,
        "longitude": 16.92581
    },
    {
        "name": "Гаттендорф",
        "latitude": 48.01667,
        "longitude": 16.98333
    },
    {
        "name": "Цели",
        "latitude": 47.89689,
        "longitude": 16.91113
    },
    {
        "name": "Граф шахмат",
        "latitude": 47.36667,
        "longitude": 16.06667
    },
    {
        "name": "Grosshöflein",
        "latitude": 47.83586,
        "longitude": 16.48035
    },
    {
        "name": "Grosspetersdorf",
        "latitude": 47.23895,
        "longitude": 16.31783
    },
    {
        "name": "Güssing",
        "latitude": 47.05936,
        "longitude": 16.32431
    },
    {
        "name": "Гюттенбах",
        "latitude": 47.1571,
        "longitude": 16.2923
    },
    {
        "name": "Хакерберг",
        "latitude": 47.2,
        "longitude": 16.11667
    },
    {
        "name": "Halbturn",
        "latitude": 47.87019,
        "longitude": 16.97542
    },
    {
        "name": "Ханнерсдорф",
        "latitude": 47.22895,
        "longitude": 16.3825
    },
    {
        "name": "Heiligenbrunn",
        "latitude": 47.02705,
        "longitude": 16.41688
    },
    {
        "name": "HEILIGENKREUZ в Лафництале",
        "latitude": 46.98917,
        "longitude": 16.26083
    },
    {
        "name": "Сено рва",
        "latitude": 47.11783,
        "longitude": 16.19041
    },
    {
        "name": "Страх",
        "latitude": 47.78652,
        "longitude": 16.4546
    },
    {
        "name": "Horitschon",
        "latitude": 47.58729,
        "longitude": 16.54696
    },
    {
        "name": "Краеугольный камень",
        "latitude": 47.88049,
        "longitude": 16.44447
    },
    {
        "name": "Илмитц",
        "latitude": 47.76148,
        "longitude": 16.80024
    },
    {
        "name": "Инценхоф",
        "latitude": 47.01667,
        "longitude": 16.31667
    },
    {
        "name": "Уколоть",
        "latitude": 47.2388,
        "longitude": 16.27659
    },
    {
        "name": "Дженерсдорф",
        "latitude": 46.93848,
        "longitude": 16.14158
    },
    {
        "name": "Jois",
        "latitude": 47.96165,
        "longitude": 16.79604
    },
    {
        "name": "Kaisersdorf",
        "latitude": 47.53741,
        "longitude": 16.39198
    },
    {
        "name": "Кетен",
        "latitude": 47.24859,
        "longitude": 16.15213
    },
    {
        "name": "Киттис",
        "latitude": 48.0925,
        "longitude": 17.06389
    },
    {
        "name": "Маленький Höflein в Бургенланде",
        "latitude": 47.84151,
        "longitude": 16.50413
    },
    {
        "name": "Министр",
        "latitude": 47.03299,
        "longitude": 16.32448
    },
    {
        "name": "Клингенбах",
        "latitude": 47.75202,
        "longitude": 16.54069
    },
    {
        "name": "Kobersdorf",
        "latitude": 47.59572,
        "longitude": 16.39173
    },
    {
        "name": "Kohfidisch",
        "latitude": 47.17472,
        "longitude": 16.35701
    },
    {
        "name": "Кенигсдорф",
        "latitude": 47.0,
        "longitude": 16.16667
    },
    {
        "name": "Крендорф",
        "latitude": 47.78552,
        "longitude": 16.41495
    },
    {
        "name": "Кукмиран",
        "latitude": 47.07544,
        "longitude": 16.21033
    },
    {
        "name": "Лакенбах",
        "latitude": 47.59042,
        "longitude": 16.46533
    },
    {
        "name": "Лакдорф",
        "latitude": 47.58996,
        "longitude": 16.50404
    },
    {
        "name": "Leithaprodersdorf",
        "latitude": 47.93348,
        "longitude": 16.47915
    },
    {
        "name": "Litzelsdorf",
        "latitude": 47.20826,
        "longitude": 16.1717
    },
    {
        "name": "Локенхаус",
        "latitude": 47.40753,
        "longitude": 16.41623
    },
    {
        "name": "Loipersbach Im Burgenland",
        "latitude": 47.69656,
        "longitude": 16.47919
    },
    {
        "name": "Лоретто",
        "latitude": 47.91559,
        "longitude": 16.5179
    },
    {
        "name": "Lutzmannsburg",
        "latitude": 47.46373,
        "longitude": 16.63665
    },
    {
        "name": "Mannersdorf и Der Rabnitz",
        "latitude": 47.42815,
        "longitude": 16.52678
    },
    {
        "name": "Мариасдорф",
        "latitude": 47.3658,
        "longitude": 16.23136
    },
    {
        "name": "Маркт Алхау",
        "latitude": 47.28333,
        "longitude": 16.08333
    },
    {
        "name": "Рынок Neuhodis",
        "latitude": 47.29565,
        "longitude": 16.39564
    },
    {
        "name": "Рынок Санкт Мартин",
        "latitude": 47.56205,
        "longitude": 16.42508
    },
    {
        "name": "Марц",
        "latitude": 47.71667,
        "longitude": 16.41667
    },
    {
        "name": "Матчсбург",
        "latitude": 47.73333,
        "longitude": 16.4
    },
    {
        "name": "Мисчендорф",
        "latitude": 47.19277,
        "longitude": 16.31444
    },
    {
        "name": "Mitterpullendorf",
        "latitude": 47.49325,
        "longitude": 16.52129
    },
    {
        "name": "Могерсдорф",
        "latitude": 46.94917,
        "longitude": 16.23222
    },
    {
        "name": "Слияние",
        "latitude": 47.8802,
        "longitude": 16.94126
    },
    {
        "name": "Мёрбиш я вижу",
        "latitude": 47.75,
        "longitude": 16.66667
    },
    {
        "name": "Мосендорф",
        "latitude": 47.05843,
        "longitude": 16.47728
    },
    {
        "name": "Мюлграбен",
        "latitude": 46.88972,
        "longitude": 16.04083
    },
    {
        "name": "Мюллендорф",
        "latitude": 47.83943,
        "longitude": 16.46258
    },
    {
        "name": "Дразнить рынок",
        "latitude": 47.59964,
        "longitude": 16.5467
    },
    {
        "name": "Нойберг в Бургенланде",
        "latitude": 47.16894,
        "longitude": 16.26054
    },
    {
        "name": "Neudörfl",
        "latitude": 47.79655,
        "longitude": 16.2977
    },
    {
        "name": "Нейфельд на Лейте",
        "latitude": 47.86558,
        "longitude": 16.37856
    },
    {
        "name": "Neuhaus am klausenbach",
        "latitude": 46.86667,
        "longitude": 16.03333
    },
    {
        "name": "Neusiedl я вижу",
        "latitude": 47.94901,
        "longitude": 16.8417
    },
    {
        "name": "Neustift на Lafnice",
        "latitude": 47.36667,
        "longitude": 16.03333
    },
    {
        "name": "Neustift -Güssing",
        "latitude": 47.02474,
        "longitude": 16.26041
    },
    {
        "name": "Нейтральный",
        "latitude": 47.54548,
        "longitude": 16.44619
    },
    {
        "name": "Никельсдорф",
        "latitude": 47.94056,
        "longitude": 17.06944
    },
    {
        "name": "Никич",
        "latitude": 47.53615,
        "longitude": 16.66017
    },
    {
        "name": "Обердорф Im Burgenland",
        "latitude": 47.21667,
        "longitude": 16.21667
    },
    {
        "name": "Оберлоисдорф",
        "latitude": 47.44736,
        "longitude": 16.50764
    },
    {
        "name": "Oberpullendorf",
        "latitude": 47.50352,
        "longitude": 16.50447
    },
    {
        "name": "Главный стрелок",
        "latitude": 47.35138,
        "longitude": 16.20732
    },
    {
        "name": "Оберварт",
        "latitude": 47.28971,
        "longitude": 16.20595
    },
    {
        "name": "Оггау",
        "latitude": 47.83333,
        "longitude": 16.66667
    },
    {
        "name": "Олбендорф",
        "latitude": 47.18333,
        "longitude": 16.2
    },
    {
        "name": "Ollersdorf im Burgenland",
        "latitude": 47.18333,
        "longitude": 16.16667
    },
    {
        "name": "Ослип",
        "latitude": 47.82906,
        "longitude": 16.61957
    },
    {
        "name": "На",
        "latitude": 48.05,
        "longitude": 17.03333
    },
    {
        "name": "Памеры",
        "latitude": 47.70092,
        "longitude": 16.90779
    },
    {
        "name": "Парндорф",
        "latitude": 47.99963,
        "longitude": 16.86049
    },
    {
        "name": "Pilgersdorf",
        "latitude": 47.44106,
        "longitude": 16.3492
    },
    {
        "name": "Пинкфельд",
        "latitude": 47.36667,
        "longitude": 16.11667
    },
    {
        "name": "Пирингсдорф",
        "latitude": 47.44826,
        "longitude": 16.41516
    },
    {
        "name": "Podersdorf я вижу",
        "latitude": 47.85412,
        "longitude": 16.83706
    },
    {
        "name": "Политический район Гюссинг",
        "latitude": 47.10164,
        "longitude": 16.30363
    },
    {
        "name": "Политический район Дженерсдорф",
        "latitude": 46.96667,
        "longitude": 16.15
    },
    {
        "name": "Политический район имеет значение",
        "latitude": 47.73823,
        "longitude": 16.39486
    },
    {
        "name": "Политический район neusiedl я вижу",
        "latitude": 47.88853,
        "longitude": 16.92465
    },
    {
        "name": "Политический район Оберпуллендорфа",
        "latitude": 47.50184,
        "longitude": 16.50593
    },
    {
        "name": "Политический район Оберварта",
        "latitude": 47.28854,
        "longitude": 16.20861
    },
    {
        "name": "Pöttelsdorf",
        "latitude": 47.75369,
        "longitude": 16.43864
    },
    {
        "name": "Петтшинг",
        "latitude": 47.80445,
        "longitude": 16.37109
    },
    {
        "name": "Potzneusiedl",
        "latitude": 48.04504,
        "longitude": 16.9477
    },
    {
        "name": "Purbach am neusiedler видит",
        "latitude": 47.91289,
        "longitude": 16.69561
    },
    {
        "name": "Набег",
        "latitude": 47.56581,
        "longitude": 16.53056
    },
    {
        "name": "Словарный запас",
        "latitude": 47.30467,
        "longitude": 16.44095
    },
    {
        "name": "Ридлингсдорф",
        "latitude": 47.35,
        "longitude": 16.13333
    },
    {
        "name": "Ритцинг",
        "latitude": 47.61316,
        "longitude": 16.49546
    },
    {
        "name": "Рор в Бургенланде",
        "latitude": 47.11667,
        "longitude": 16.16667
    },
    {
        "name": "Рорбах недалеко от Магиалсбурга",
        "latitude": 47.7052,
        "longitude": 16.43005
    },
    {
        "name": "Гонтурм в Пинке",
        "latitude": 47.25,
        "longitude": 16.25
    },
    {
        "name": "Рудерсдорф",
        "latitude": 47.05,
        "longitude": 16.11667
    },
    {
        "name": "Ржавчина",
        "latitude": 47.80122,
        "longitude": 16.67158
    },
    {
        "name": "Город Ржавчина",
        "latitude": 47.80174,
        "longitude": 16.6721
    },
    {
        "name": "Sankt Andrä Am Zicksee",
        "latitude": 47.7841,
        "longitude": 16.94195
    },
    {
        "name": "Sankt Georgen Am Leithage горы",
        "latitude": 47.85,
        "longitude": 16.55
    },
    {
        "name": "Sankt Margarethen в Бургенланде",
        "latitude": 47.80335,
        "longitude": 16.60875
    },
    {
        "name": "Sankt Martin A Der Raab",
        "latitude": 46.9225,
        "longitude": 16.13611
    },
    {
        "name": "Sankt Michael -Burgenland",
        "latitude": 47.12852,
        "longitude": 16.27148
    },
    {
        "name": "Schachendorf",
        "latitude": 47.26667,
        "longitude": 16.43333
    },
    {
        "name": "Шандорф",
        "latitude": 47.24183,
        "longitude": 16.42267
    },
    {
        "name": "Schattendorf",
        "latitude": 47.70973,
        "longitude": 16.50979
    },
    {
        "name": "Защищает на горах",
        "latitude": 47.85233,
        "longitude": 16.62334
    },
    {
        "name": "Зигендорф в Бургенланде",
        "latitude": 47.78098,
        "longitude": 16.54232
    },
    {
        "name": "Зигграбен",
        "latitude": 47.65128,
        "longitude": 16.37993
    },
    {
        "name": "Беззаботный",
        "latitude": 47.77533,
        "longitude": 16.39503
    },
    {
        "name": "Stadtschlaing",
        "latitude": 47.31667,
        "longitude": 16.28333
    },
    {
        "name": "Стегербах",
        "latitude": 47.16667,
        "longitude": 16.16667
    },
    {
        "name": "Стейнбрунн",
        "latitude": 47.83333,
        "longitude": 16.41667
    },
    {
        "name": "Стинац",
        "latitude": 47.20266,
        "longitude": 16.13312
    },
    {
        "name": "останавливаться",
        "latitude": 47.52845,
        "longitude": 16.4776
    },
    {
        "name": "Stotzing",
        "latitude": 47.90688,
        "longitude": 16.5458
    },
    {
        "name": "Кормозит",
        "latitude": 47.04498,
        "longitude": 16.41426
    },
    {
        "name": "Взволнованный",
        "latitude": 47.76667,
        "longitude": 16.98333
    },
    {
        "name": "Тобадж",
        "latitude": 47.08333,
        "longitude": 16.3
    },
    {
        "name": "Торговидный в Вульке",
        "latitude": 47.8135,
        "longitude": 16.5576
    },
    {
        "name": "Тшаниграбен",
        "latitude": 47.01667,
        "longitude": 16.3
    },
    {
        "name": "Unterfrauenhaid",
        "latitude": 47.57116,
        "longitude": 16.49885
    },
    {
        "name": "Суб -кабинг",
        "latitude": 47.38333,
        "longitude": 16.31667
    },
    {
        "name": "Пропущенная",
        "latitude": 47.25,
        "longitude": 16.23333
    },
    {
        "name": "Уоллн в Бургенланде",
        "latitude": 47.72847,
        "longitude": 16.93706
    },
    {
        "name": "Вайхзельбаум",
        "latitude": 46.9425,
        "longitude": 16.1875
    },
    {
        "name": "Weden-Am-Eee",
        "latitude": 47.92532,
        "longitude": 16.86899
    },
    {
        "name": "Вайден возле Рехница",
        "latitude": 47.3,
        "longitude": 16.35
    },
    {
        "name": "Вайнграбен",
        "latitude": 47.51393,
        "longitude": 16.36375
    },
    {
        "name": "Вепперсдорф",
        "latitude": 47.57954,
        "longitude": 16.42679
    },
    {
        "name": "луга",
        "latitude": 47.73776,
        "longitude": 16.33798
    },
    {
        "name": "Висфлек",
        "latitude": 47.38458,
        "longitude": 16.14552
    },
    {
        "name": "Слабая ложь",
        "latitude": 47.91667,
        "longitude": 16.43333
    },
    {
        "name": "Winden-Am-Eee",
        "latitude": 47.95,
        "longitude": 16.75
    },
    {
        "name": "Вольфау",
        "latitude": 47.25,
        "longitude": 16.1
    },
    {
        "name": "Вёртерберг",
        "latitude": 47.21667,
        "longitude": 16.1
    },
    {
        "name": "Вулькапродерсдорф",
        "latitude": 47.79753,
        "longitude": 16.50447
    },
    {
        "name": "Загерсдорф",
        "latitude": 47.76471,
        "longitude": 16.51382
    },
    {
        "name": "Циллингталь",
        "latitude": 47.81442,
        "longitude": 16.40928
    },
    {
        "name": "Цурндорф",
        "latitude": 47.98314,
        "longitude": 17.00315
    },
    {
        "name": "Альбек",
        "latitude": 46.81666667,
        "longitude": 14.1
    },
    {
        "name": "Альтхофен",
        "latitude": 46.87298,
        "longitude": 14.47449
    },
    {
        "name": "Анабихль",
        "latitude": 46.65,
        "longitude": 14.31667
    },
    {
        "name": "Арнольдштейн",
        "latitude": 46.54611,
        "longitude": 13.71
    },
    {
        "name": "Арриах",
        "latitude": 46.72921,
        "longitude": 13.85046
    },
    {
        "name": "Ауэн",
        "latitude": 46.59963,
        "longitude": 13.84389
    },
    {
        "name": "Бад-Блайберг",
        "latitude": 46.62416667,
        "longitude": 13.68777778
    },
    {
        "name": "Бад-Айзенкаппель",
        "latitude": 46.48333333,
        "longitude": 14.6
    },
    {
        "name": "Бад-Кляйнкирхгайм",
        "latitude": 46.81361111,
        "longitude": 13.79277778
    },
    {
        "name": "Бад-Санкт-Леонхард в Лавантале",
        "latitude": 46.96278,
        "longitude": 14.79167
    },
    {
        "name": "Бальдрамсдорф",
        "latitude": 46.80111,
        "longitude": 13.45333
    },
    {
        "name": "Гора в Драутале",
        "latitude": 46.74915,
        "longitude": 13.13536
    },
    {
        "name": "Блайбург",
        "latitude": 46.59,
        "longitude": 14.79889
    },
    {
        "name": "Боденсдорф",
        "latitude": 46.69111,
        "longitude": 13.97111
    },
    {
        "name": "Брюкль",
        "latitude": 46.75167,
        "longitude": 14.53667
    },
    {
        "name": "Деллах",
        "latitude": 46.66175,
        "longitude": 13.07965
    },
    {
        "name": "Деллах в Драутале",
        "latitude": 46.7375,
        "longitude": 13.07833
    },
    {
        "name": "Немецкий Гриффен",
        "latitude": 46.85606,
        "longitude": 14.07501
    },
    {
        "name": "Герман-Гриффен",
        "latitude": 46.855,
        "longitude": 14.07388889
    },
    {
        "name": "Диекс",
        "latitude": 46.75,
        "longitude": 14.6
    },
    {
        "name": "Дэбрия",
        "latitude": 46.78049,
        "longitude": 13.65738
    },
    {
        "name": "Драшен",
        "latitude": 46.76909,
        "longitude": 14.06758
    },
    {
        "name": "Эбенталь",
        "latitude": 46.60806,
        "longitude": 14.36417
    },
    {
        "name": "Эберндорф",
        "latitude": 46.59139,
        "longitude": 14.64361
    },
    {
        "name": "Эберштейн",
        "latitude": 46.80806,
        "longitude": 14.56
    },
    {
        "name": "Эбриах",
        "latitude": 46.46667,
        "longitude": 14.51667
    },
    {
        "name": "Айзенкаппель-Феллах",
        "latitude": 46.48638889,
        "longitude": 14.59611111
    },
    {
        "name": "ФАК-АМ-Эй",
        "latitude": 46.56806,
        "longitude": 13.90972
    },
    {
        "name": "Фефферниц",
        "latitude": 46.68333333,
        "longitude": 13.7
    },
    {
        "name": "Файстриц на Драу",
        "latitude": 46.70157,
        "longitude": 13.66479
    },
    {
        "name": "Файстриц на Гейле",
        "latitude": 46.5775,
        "longitude": 13.60667
    },
    {
        "name": "Файстриц в Розентале",
        "latitude": 46.51667,
        "longitude": 14.16667
    },
    {
        "name": "Файстриц-об-Блайбург",
        "latitude": 46.55,
        "longitude": 14.76667
    },
    {
        "name": "Feld-Am-Eee",
        "latitude": 46.77639,
        "longitude": 13.74778
    },
    {
        "name": "Фельдкирхенский район",
        "latitude": 46.72127,
        "longitude": 14.09683
    },
    {
        "name": "Фельдкирхен в Каринтии",
        "latitude": 46.72368,
        "longitude": 14.0958
    },
    {
        "name": "Задерживать",
        "latitude": 46.52694,
        "longitude": 14.30194
    },
    {
        "name": "Ферндорф",
        "latitude": 46.73651,
        "longitude": 13.62661
    },
    {
        "name": "Финкенштейн",
        "latitude": 46.56155,
        "longitude": 13.87086
    },
    {
        "name": "Финкенштейн-ам-Факер-Зее",
        "latitude": 46.57904,
        "longitude": 13.93496
    },
    {
        "name": "Флаттах",
        "latitude": 46.93861,
        "longitude": 13.13444
    },
    {
        "name": "Федерла и",
        "latitude": 46.59998,
        "longitude": 13.96128
    },
    {
        "name": "Франшах-Санкт-Гертрауд",
        "latitude": 46.86111111,
        "longitude": 14.86027778
    },
    {
        "name": "Фрауэнштайн",
        "latitude": 46.81417,
        "longitude": 14.29417
    },
    {
        "name": "Фрезах",
        "latitude": 46.71556,
        "longitude": 13.69083
    },
    {
        "name": "Резак",
        "latitude": 46.70516,
        "longitude": 14.04513
    },
    {
        "name": "Фризах",
        "latitude": 46.95528,
        "longitude": 14.40583
    },
    {
        "name": "Фюрниц",
        "latitude": 46.56188,
        "longitude": 13.81732
    },
    {
        "name": "Гайлиц",
        "latitude": 46.56083,
        "longitude": 13.70444
    },
    {
        "name": "Галисия",
        "latitude": 46.55,
        "longitude": 14.51667
    },
    {
        "name": "Геммерсдорф",
        "latitude": 46.7574,
        "longitude": 14.9022
    },
    {
        "name": "Герламос",
        "latitude": 46.76391,
        "longitude": 13.272
    },
    {
        "name": "Гитшталь",
        "latitude": 46.67972222,
        "longitude": 13.26055556
    },
    {
        "name": "Гланегг",
        "latitude": 46.72259,
        "longitude": 14.19893
    },
    {
        "name": "Глобасниц",
        "latitude": 46.55694,
        "longitude": 14.70278
    },
    {
        "name": "Глина",
        "latitude": 46.87398,
        "longitude": 14.11915
    },
    {
        "name": "Гмюнд",
        "latitude": 46.90722,
        "longitude": 13.52944
    },
    {
        "name": "Гмюнд в Каринтии",
        "latitude": 46.91472,
        "longitude": 13.5467
    },
    {
        "name": "Гнесау",
        "latitude": 46.77544,
        "longitude": 13.96251
    },
    {
        "name": "Глюс",
        "latitude": 46.61278,
        "longitude": 13.465
    },
    {
        "name": "Графенштейн",
        "latitude": 46.61393,
        "longitude": 14.46719
    },
    {
        "name": "Грайфенбург",
        "latitude": 46.75027,
        "longitude": 13.17982
    },
    {
        "name": "Грис",
        "latitude": 46.8316,
        "longitude": 14.85103
    },
    {
        "name": "Гриффен",
        "latitude": 46.70444,
        "longitude": 14.73278
    },
    {
        "name": "Гроскирххайм",
        "latitude": 46.9727,
        "longitude": 12.89589
    },
    {
        "name": "Гурк",
        "latitude": 46.87389,
        "longitude": 14.29167
    },
    {
        "name": "Потрошение",
        "latitude": 46.88536,
        "longitude": 14.51071
    },
    {
        "name": "Святая кровь",
        "latitude": 47.03979,
        "longitude": 12.84345
    },
    {
        "name": "Хермагор",
        "latitude": 46.62722,
        "longitude": 13.36722
    },
    {
        "name": "Хермагорский район",
        "latitude": 46.63137,
        "longitude": 13.13246
    },
    {
        "name": "Озеро Хермагор-Прессеггер",
        "latitude": 46.62722222,
        "longitude": 13.36722222
    },
    {
        "name": "Химмельберг",
        "latitude": 46.75667,
        "longitude": 14.03056
    },
    {
        "name": "Хоэнтурн",
        "latitude": 46.55774,
        "longitude": 13.66038
    },
    {
        "name": "Heigendorph",
        "latitude": 46.63333,
        "longitude": 14.4
    },
    {
        "name": "Хюттенберг",
        "latitude": 46.94139,
        "longitude": 14.55
    },
    {
        "name": "ирландский",
        "latitude": 46.75694,
        "longitude": 13.02528
    },
    {
        "name": "Каппель-Ам-Крапфельд",
        "latitude": 46.83861,
        "longitude": 14.48639
    },
    {
        "name": "Koychi-Am-Eee",
        "latitude": 46.59306,
        "longitude": 14.18889
    },
    {
        "name": "Кирхбах",
        "latitude": 46.6416,
        "longitude": 13.18454
    },
    {
        "name": "Клагенфурт",
        "latitude": 46.63873,
        "longitude": 14.2973
    },
    {
        "name": "Cagenfurt-Rheath-Wyrterze",
        "latitude": 46.63333,
        "longitude": 14.3
    },
    {
        "name": "Клагенфурт-Ландский округ",
        "latitude": 46.56722,
        "longitude": 14.29295
    },
    {
        "name": "Клебла-Линд",
        "latitude": 46.76722222,
        "longitude": 13.35805556
    },
    {
        "name": "Маленький Санкт-Пол",
        "latitude": 46.83611,
        "longitude": 14.54139
    },
    {
        "name": "Кляйнедлинг",
        "latitude": 46.81417,
        "longitude": 14.82778
    },
    {
        "name": "Котшай",
        "latitude": 46.68167,
        "longitude": 13.00694
    },
    {
        "name": "Kötshah-Mauen",
        "latitude": 46.66666667,
        "longitude": 13.0
    },
    {
        "name": "Взгляд",
        "latitude": 46.56139,
        "longitude": 14.23389
    },
    {
        "name": "Кремс",
        "latitude": 46.9225,
        "longitude": 13.5675
    },
    {
        "name": "Крумпендорф",
        "latitude": 46.63333,
        "longitude": 14.21667
    },
    {
        "name": "Кюнсдорф",
        "latitude": 46.62194,
        "longitude": 14.63639
    },
    {
        "name": "Ламниц",
        "latitude": 46.86666667,
        "longitude": 12.98333333
    },
    {
        "name": "Национальная крона",
        "latitude": 46.61667,
        "longitude": 13.88333
    },
    {
        "name": "Лаунсдорф",
        "latitude": 46.77056,
        "longitude": 14.45194
    },
    {
        "name": "Сценическая монета",
        "latitude": 46.64019,
        "longitude": 14.94733
    },
    {
        "name": "Леденицен",
        "latitude": 46.56639,
        "longitude": 13.96139
    },
    {
        "name": "Лендорф",
        "latitude": 46.83528,
        "longitude": 13.43028
    },
    {
        "name": "Губа",
        "latitude": 46.48333,
        "longitude": 14.63333
    },
    {
        "name": "Лезахталь",
        "latitude": 46.69388889,
        "longitude": 12.81583333
    },
    {
        "name": "Либенфельс",
        "latitude": 46.73778,
        "longitude": 14.28667
    },
    {
        "name": "Линд",
        "latitude": 46.62244,
        "longitude": 13.84715
    },
    {
        "name": "Лоберсберг",
        "latitude": 46.865,
        "longitude": 12.91111111
    },
    {
        "name": "Людмансдорф",
        "latitude": 46.54139,
        "longitude": 14.13425
    },
    {
        "name": "Лурнфельд",
        "latitude": 46.83333333,
        "longitude": 13.36666667
    },
    {
        "name": "Магдаленсберг",
        "latitude": 46.70111111,
        "longitude": 14.43111111
    },
    {
        "name": "Мальниц",
        "latitude": 46.98972222,
        "longitude": 13.17
    },
    {
        "name": "Мальта",
        "latitude": 46.96666667,
        "longitude": 13.51666667
    },
    {
        "name": "Мария Рейн",
        "latitude": 46.55389,
        "longitude": 14.29556
    },
    {
        "name": "Мария Саал",
        "latitude": 46.68083,
        "longitude": 14.34861
    },
    {
        "name": "Мария Ворт",
        "latitude": 46.61639,
        "longitude": 14.16306
    },
    {
        "name": "Платные мосты",
        "latitude": 46.72037,
        "longitude": 14.19399
    },
    {
        "name": "Метниц",
        "latitude": 46.98056,
        "longitude": 14.21667
    },
    {
        "name": "Михельдорф",
        "latitude": 46.91667,
        "longitude": 14.41667
    },
    {
        "name": "Мильстат",
        "latitude": 46.80417,
        "longitude": 13.58056
    },
    {
        "name": "Monlbling",
        "latitude": 46.85,
        "longitude": 14.43333
    },
    {
        "name": "Мост Мёлль",
        "latitude": 46.83639,
        "longitude": 13.37278
    },
    {
        "name": "Моосбург",
        "latitude": 46.6575,
        "longitude": 14.17472
    },
    {
        "name": "Мертвый",
        "latitude": 46.92389,
        "longitude": 12.91778
    },
    {
        "name": "Мюльдорф",
        "latitude": 46.86028,
        "longitude": 13.35361
    },
    {
        "name": "Ной-Феферниц",
        "latitude": 46.68772,
        "longitude": 13.67914
    },
    {
        "name": "Нойгауз",
        "latitude": 46.63333,
        "longitude": 14.88333
    },
    {
        "name": "Нидердорф",
        "latitude": 46.61667,
        "longitude": 14.4
    },
    {
        "name": "Почти до Гайале",
        "latitude": 46.59,
        "longitude": 13.62277778
    },
    {
        "name": "Обердёрфль",
        "latitude": 46.55528,
        "longitude": 14.10806
    },
    {
        "name": "Обердраубург",
        "latitude": 46.74306,
        "longitude": 12.97028
    },
    {
        "name": "Обермиллштатт",
        "latitude": 46.8106,
        "longitude": 13.5908
    },
    {
        "name": "Оберфеллах",
        "latitude": 46.93667,
        "longitude": 13.20417
    },
    {
        "name": "Оссиах",
        "latitude": 46.67435,
        "longitude": 13.98358
    },
    {
        "name": "Патернион",
        "latitude": 46.71417,
        "longitude": 13.63611
    },
    {
        "name": "Пишельдорф",
        "latitude": 46.68333,
        "longitude": 14.45
    },
    {
        "name": "Киска",
        "latitude": 46.55,
        "longitude": 13.7333
    },
    {
        "name": "Поггерсдорф",
        "latitude": 46.65,
        "longitude": 14.45
    },
    {
        "name": "Панлерхах-Виртерз",
        "latitude": 46.63639,
        "longitude": 14.14639
    },
    {
        "name": "Прейтенегг",
        "latitude": 46.94,
        "longitude": 14.92583
    },
    {
        "name": "Приэль",
        "latitude": 46.82758,
        "longitude": 14.8333
    },
    {
        "name": "Пусарниц",
        "latitude": 46.83333,
        "longitude": 13.4
    },
    {
        "name": "Радентейн",
        "latitude": 46.80056,
        "longitude": 13.71167
    },
    {
        "name": "Дождь",
        "latitude": 46.60528,
        "longitude": 14.38611
    },
    {
        "name": "Рейнгерсдорф",
        "latitude": 46.86001,
        "longitude": 12.94923
    },
    {
        "name": "Чтение",
        "latitude": 46.81667,
        "longitude": 14.85
    },
    {
        "name": "Райхенау",
        "latitude": 46.85416667,
        "longitude": 13.89305556
    },
    {
        "name": "Райхенфельс",
        "latitude": 47.00718,
        "longitude": 14.74425
    },
    {
        "name": "Райссек",
        "latitude": 46.87694444,
        "longitude": 13.30555556
    },
    {
        "name": "Реннвег-ам-Кахберг",
        "latitude": 47.01667,
        "longitude": 13.61667
    },
    {
        "name": "Риттерсдорф",
        "latitude": 46.75111,
        "longitude": 13.03444
    },
    {
        "name": "Розегг",
        "latitude": 46.58833,
        "longitude": 14.01718
    },
    {
        "name": "Панель",
        "latitude": 46.65833,
        "longitude": 14.77639
    },
    {
        "name": "Заксенбург",
        "latitude": 46.82917,
        "longitude": 13.355
    },
    {
        "name": "Святой Андрей",
        "latitude": 46.76829,
        "longitude": 14.81991
    },
    {
        "name": "Санкт-Эгиден-ан-дер-Драу",
        "latitude": 46.57722,
        "longitude": 14.06167
    },
    {
        "name": "Санкт-Георген-ам-Ленгензее",
        "latitude": 46.78061,
        "longitude": 14.43033
    },
    {
        "name": "Санкт-Георген-ин-Лавантталь",
        "latitude": 46.71666667,
        "longitude": 14.91666667
    },
    {
        "name": "Сент-Джеймс",
        "latitude": 46.54777778,
        "longitude": 14.05722222
    },
    {
        "name": "Святой Иаков в Долине Роз",
        "latitude": 46.54777778,
        "longitude": 14.05722222
    },
    {
        "name": "Сен-Кантиан Клопейнер-Зее",
        "latitude": 46.61444444,
        "longitude": 14.57583333
    },
    {
        "name": "Санкт-Леонхард",
        "latitude": 46.62528,
        "longitude": 13.85865
    },
    {
        "name": "Святая Магдалина",
        "latitude": 46.61667,
        "longitude": 13.88333
    },
    {
        "name": "Святая Маргарита в Долине Роз",
        "latitude": 46.54417,
        "longitude": 14.42444
    },
    {
        "name": "Святой Мартин",
        "latitude": 46.61667,
        "longitude": 14.28333
    },
    {
        "name": "Санкт-Пауль-им-Лавантталь",
        "latitude": 46.70056,
        "longitude": 14.87556
    },
    {
        "name": "Святой Петр",
        "latitude": 46.62978,
        "longitude": 14.34016
    },
    {
        "name": "Святой Рупрехт",
        "latitude": 46.6,
        "longitude": 14.31667
    },
    {
        "name": "Святой Стефан",
        "latitude": 46.8075,
        "longitude": 14.85167
    },
    {
        "name": "Святой Стефан в Гайтале",
        "latitude": 46.61666667,
        "longitude": 13.51666667
    },
    {
        "name": "Санкт-Урбан",
        "latitude": 46.75027778,
        "longitude": 14.16916667
    },
    {
        "name": "Санкт-Файт-ан-дер-Глан",
        "latitude": 46.76806,
        "longitude": 14.36028
    },
    {
        "name": "Санкт-Файт в районе Глан",
        "latitude": 46.83333,
        "longitude": 14.4
    },
    {
        "name": "Шиффлинг-ам-Зее",
        "latitude": 46.60444,
        "longitude": 14.0975
    },
    {
        "name": "Шлирен",
        "latitude": 46.62039,
        "longitude": 13.93301
    },
    {
        "name": "Зеебах",
        "latitude": 46.61667,
        "longitude": 13.86667
    },
    {
        "name": "Морское дно",
        "latitude": 46.81909,
        "longitude": 13.5143
    },
    {
        "name": "Зайтенберг",
        "latitude": 46.74801,
        "longitude": 14.08825
    },
    {
        "name": "Сирниц",
        "latitude": 46.82361,
        "longitude": 14.05944
    },
    {
        "name": "Ситтерсдорф",
        "latitude": 46.54444,
        "longitude": 14.60583
    },
    {
        "name": "Шпитталь-ан-дер-Драу",
        "latitude": 46.8,
        "longitude": 13.5
    },
    {
        "name": "Округ Шпитталь-ан-дер-Драу",
        "latitude": 46.85,
        "longitude": 13.33333
    },
    {
        "name": "Св. Агатена и Перау",
        "latitude": 46.60627,
        "longitude": 13.85615
    },
    {
        "name": "Св. Андрея",
        "latitude": 46.76473,
        "longitude": 14.82442
    },
    {
        "name": "Святая Маргарита в Долине Роз",
        "latitude": 46.52498,
        "longitude": 14.416
    },
    {
        "name": "Св. Пол им Лаванталь",
        "latitude": 46.69869,
        "longitude": 14.84877
    },
    {
        "name": "Санкт-Стефан-им-Гайльталь",
        "latitude": 46.60796,
        "longitude": 13.50973
    },
    {
        "name": "Санкт-Урбан",
        "latitude": 46.76128,
        "longitude": 14.16658
    },
    {
        "name": "Св. Файт-ан-дер-Глан",
        "latitude": 46.73536,
        "longitude": 14.35404
    },
    {
        "name": "Санкт-Файтер Форштадт",
        "latitude": 46.6317,
        "longitude": 14.30579
    },
    {
        "name": "Ларек",
        "latitude": 46.89056,
        "longitude": 13.03694
    },
    {
        "name": "Штайндорф-ам-Оссиахер-Зее",
        "latitude": 46.69833,
        "longitude": 14.00917
    },
    {
        "name": "Стейнфельд",
        "latitude": 46.75812,
        "longitude": 13.24934
    },
    {
        "name": "Штойерберг",
        "latitude": 46.78804,
        "longitude": 14.1129
    },
    {
        "name": "Стокенбой",
        "latitude": 46.72611,
        "longitude": 13.52306
    },
    {
        "name": "Страсбург",
        "latitude": 46.89555556,
        "longitude": 14.33083333
    },
    {
        "name": "Страсбург город",
        "latitude": 46.89444,
        "longitude": 14.32861
    },
    {
        "name": "Суетшах",
        "latitude": 46.52694444,
        "longitude": 14.15638889
    },
    {
        "name": "Техельсберг",
        "latitude": 46.65861111,
        "longitude": 14.10194444
    },
    {
        "name": "Тимениц",
        "latitude": 46.68333,
        "longitude": 14.41667
    },
    {
        "name": "Требезинг",
        "latitude": 46.88639,
        "longitude": 13.51028
    },
    {
        "name": "Встретиться",
        "latitude": 46.66833333,
        "longitude": 13.85555556
    },
    {
        "name": "Трейбах",
        "latitude": 46.86667,
        "longitude": 14.46667
    },
    {
        "name": "Чахорич",
        "latitude": 46.55352,
        "longitude": 14.21461
    },
    {
        "name": "Умберг",
        "latitude": 46.64833,
        "longitude": 13.9575
    },
    {
        "name": "Нижний Феллах",
        "latitude": 46.62504,
        "longitude": 13.82681
    },
    {
        "name": "Фельден-ам-Вёртер-Зе",
        "latitude": 46.6125,
        "longitude": 14.04194444
    },
    {
        "name": "Фельден-ам-Вёртерзее",
        "latitude": 46.61301,
        "longitude": 14.0413
    },
    {
        "name": "Взвешивание",
        "latitude": 46.59194,
        "longitude": 14.26917
    },
    {
        "name": "Виктрингер пригород",
        "latitude": 46.61773,
        "longitude": 14.30931
    },
    {
        "name": "Филлах",
        "latitude": 46.61028,
        "longitude": 13.85583
    },
    {
        "name": "Филлах, центр города",
        "latitude": 46.61275,
        "longitude": 13.84638
    },
    {
        "name": "Район Филлах-Ланд",
        "latitude": 46.65308,
        "longitude": 13.77287
    },
    {
        "name": "пригород Филлаха",
        "latitude": 46.62368,
        "longitude": 14.28892
    },
    {
        "name": "Фёлькендорф",
        "latitude": 46.60806,
        "longitude": 13.83153
    },
    {
        "name": "Фелькермаркт",
        "latitude": 46.66222,
        "longitude": 14.63444
    },
    {
        "name": "Фолькермаркт (район)",
        "latitude": 46.59641,
        "longitude": 14.66664
    },
    {
        "name": "пригород Фёлькермаркт",
        "latitude": 46.62418,
        "longitude": 14.32081
    },
    {
        "name": "Вайерн",
        "latitude": 46.73028,
        "longitude": 14.08194
    },
    {
        "name": "Вармбад-Юдендорф",
        "latitude": 46.60126,
        "longitude": 13.82241
    },
    {
        "name": "Вайсензее",
        "latitude": 46.71666667,
        "longitude": 13.3
    },
    {
        "name": "Вайсенштайн",
        "latitude": 46.68222222,
        "longitude": 13.72361111
    },
    {
        "name": "Вайтенсфельд",
        "latitude": 46.84743,
        "longitude": 14.19213
    },
    {
        "name": "Вайтенсфельд в Гурктале",
        "latitude": 46.84861111,
        "longitude": 14.19166667
    },
    {
        "name": "Вернберг",
        "latitude": 46.61667,
        "longitude": 13.93333
    },
    {
        "name": "Винклерн",
        "latitude": 46.87361,
        "longitude": 12.87472
    },
    {
        "name": "Вельфниц",
        "latitude": 46.66639,
        "longitude": 14.25806
    },
    {
        "name": "Вольфсберг",
        "latitude": 46.84056,
        "longitude": 14.84417
    },
    {
        "name": "Вольфсбергский округ",
        "latitude": 46.83333,
        "longitude": 14.83333
    },
    {
        "name": "Вудматх",
        "latitude": 46.59634,
        "longitude": 13.98067
    },
    {
        "name": "Целль",
        "latitude": 46.47222222,
        "longitude": 14.38888889
    },
    {
        "name": "Абсдорф",
        "latitude": 48.40021,
        "longitude": 15.97874
    },
    {
        "name": "Генеалогия",
        "latitude": 48.08026,
        "longitude": 16.38611
    },
    {
        "name": "Адерклаа",
        "latitude": 48.28333,
        "longitude": 16.53333
    },
    {
        "name": "Аггсбах",
        "latitude": 48.29404,
        "longitude": 15.40382
    },
    {
        "name": "Алланд",
        "latitude": 48.05829,
        "longitude": 16.07901
    },
    {
        "name": "Аллентштайг",
        "latitude": 48.69725,
        "longitude": 15.32756
    },
    {
        "name": "Альхартсберг",
        "latitude": 48.02633,
        "longitude": 14.79009
    },
    {
        "name": "Альтенбург",
        "latitude": 48.64765,
        "longitude": 15.59295
    },
    {
        "name": "Альтендорф",
        "latitude": 47.65,
        "longitude": 16.01667
    },
    {
        "name": "Альтенмаркт в Триестинге",
        "latitude": 48.01553,
        "longitude": 15.99661
    },
    {
        "name": "Альтленгбах",
        "latitude": 48.15355,
        "longitude": 15.92606
    },
    {
        "name": "Альтлихтенварт",
        "latitude": 48.64442,
        "longitude": 16.79664
    },
    {
        "name": "Альтдыня",
        "latitude": 48.46222,
        "longitude": 14.96552
    },
    {
        "name": "Амштеттен",
        "latitude": 48.1229,
        "longitude": 14.87206
    },
    {
        "name": "Андлерсдорф",
        "latitude": 48.18333,
        "longitude": 16.66667
    },
    {
        "name": "Гнев в марте",
        "latitude": 48.37778,
        "longitude": 16.82806
    },
    {
        "name": "Арбесбах",
        "latitude": 48.49337,
        "longitude": 14.95308
    },
    {
        "name": "Ардаггерская епархия",
        "latitude": 48.15,
        "longitude": 14.83333
    },
    {
        "name": "Ашбах Маркт",
        "latitude": 48.07234,
        "longitude": 14.75395
    },
    {
        "name": "Рынок Аспанг",
        "latitude": 47.55,
        "longitude": 16.08333
    },
    {
        "name": "Аспарн на Зае",
        "latitude": 48.58333,
        "longitude": 16.5
    },
    {
        "name": "Асперхофен",
        "latitude": 48.24583,
        "longitude": 15.92606
    },
    {
        "name": "Аценбругг",
        "latitude": 48.29119,
        "longitude": 15.90614
    },
    {
        "name": "Au на Лейтаберге",
        "latitude": 47.92296,
        "longitude": 16.55794
    },
    {
        "name": "Ауэрсталь",
        "latitude": 48.37373,
        "longitude": 16.63596
    },
    {
        "name": "Бад-Дойч-Альтенбург",
        "latitude": 48.13425,
        "longitude": 16.90624
    },
    {
        "name": "Бад-Эрлах",
        "latitude": 47.72722,
        "longitude": 16.21444
    },
    {
        "name": "Бад Фишау",
        "latitude": 47.83137,
        "longitude": 16.16707
    },
    {
        "name": "Бад-Пиварарт",
        "latitude": 48.45194,
        "longitude": 16.59833
    },
    {
        "name": "Бад-Шонау",
        "latitude": 47.49473,
        "longitude": 16.2341
    },
    {
        "name": "Бад-Траунштайн",
        "latitude": 48.4385,
        "longitude": 15.11712
    },
    {
        "name": "Бад-Фёслау",
        "latitude": 47.96533,
        "longitude": 16.21359
    },
    {
        "name": "Баден",
        "latitude": 48.00543,
        "longitude": 16.23264
    },
    {
        "name": "Голова медведя",
        "latitude": 48.39046,
        "longitude": 15.00479
    },
    {
        "name": "Бехамберг",
        "latitude": 48.01667,
        "longitude": 14.48333
    },
    {
        "name": "Берг",
        "latitude": 48.10147,
        "longitude": 17.03842
    },
    {
        "name": "Горная страна",
        "latitude": 48.15595,
        "longitude": 15.18553
    },
    {
        "name": "Берндорф",
        "latitude": 47.94567,
        "longitude": 16.10973
    },
    {
        "name": "Бернхардсталь",
        "latitude": 48.69158,
        "longitude": 16.86951
    },
    {
        "name": "Бибербах",
        "latitude": 48.03006,
        "longitude": 14.70795
    },
    {
        "name": "Бидермансдорф",
        "latitude": 48.08393,
        "longitude": 16.34542
    },
    {
        "name": "Бизамберг",
        "latitude": 48.33333,
        "longitude": 16.35
    },
    {
        "name": "Бишофштеттен",
        "latitude": 48.12222,
        "longitude": 15.46909
    },
    {
        "name": "Слепой рынок",
        "latitude": 48.12749,
        "longitude": 14.98647
    },
    {
        "name": "Бокфлис",
        "latitude": 48.36,
        "longitude": 16.60389
    },
    {
        "name": "Бехаймкирхен",
        "latitude": 48.19779,
        "longitude": 15.76178
    },
    {
        "name": "Брайтенау",
        "latitude": 47.73355,
        "longitude": 16.14338
    },
    {
        "name": "Брайтенфурт недалеко от Вены",
        "latitude": 48.13333,
        "longitude": 16.15
    },
    {
        "name": "Бромберг",
        "latitude": 47.66539,
        "longitude": 16.2099
    },
    {
        "name": "Брук-ан-дер-Лейта",
        "latitude": 48.01667,
        "longitude": 16.76667
    },
    {
        "name": "Брунн в горах",
        "latitude": 48.10697,
        "longitude": 16.28466
    },
    {
        "name": "Брунн на канатной дороге Шнебергбан",
        "latitude": 47.82376,
        "longitude": 16.15934
    },
    {
        "name": "Ну в дикой природе",
        "latitude": 48.69425,
        "longitude": 15.52008
    },
    {
        "name": "Бухбах",
        "latitude": 47.69648,
        "longitude": 15.98425
    },
    {
        "name": "Немецкий Ваграм",
        "latitude": 48.29972,
        "longitude": 16.56667
    },
    {
        "name": "Доберсберг",
        "latitude": 48.9151,
        "longitude": 15.32188
    },
    {
        "name": "Дорфштеттен",
        "latitude": 48.32573,
        "longitude": 14.98218
    },
    {
        "name": "Дразенхофен",
        "latitude": 48.75,
        "longitude": 16.65
    },
    {
        "name": "слюни пускают",
        "latitude": 48.539,
        "longitude": 16.90264
    },
    {
        "name": "Дросс",
        "latitude": 48.46393,
        "longitude": 15.57561
    },
    {
        "name": "Дюрнкрут",
        "latitude": 48.47315,
        "longitude": 16.85062
    },
    {
        "name": "Дюрнштайн",
        "latitude": 48.39582,
        "longitude": 15.51973
    },
    {
        "name": "Эбенфурт",
        "latitude": 47.87738,
        "longitude": 16.36731
    },
    {
        "name": "Эбенталь",
        "latitude": 48.43333,
        "longitude": 16.78333
    },
    {
        "name": "Эбергассинг",
        "latitude": 48.04567,
        "longitude": 16.51709
    },
    {
        "name": "Эбрайхсдорф",
        "latitude": 47.95579,
        "longitude": 16.40705
    },
    {
        "name": "Эхсенбах",
        "latitude": 48.71667,
        "longitude": 15.21667
    },
    {
        "name": "Эккартсау",
        "latitude": 48.14507,
        "longitude": 16.79737
    },
    {
        "name": "Эдлиц",
        "latitude": 47.59797,
        "longitude": 16.14052
    },
    {
        "name": "Эггенбург",
        "latitude": 48.63892,
        "longitude": 15.81903
    },
    {
        "name": "Эггендорф",
        "latitude": 47.85809,
        "longitude": 16.32182
    },
    {
        "name": "Эггерн",
        "latitude": 48.90829,
        "longitude": 15.14877
    },
    {
        "name": "Эйхграбен",
        "latitude": 48.17204,
        "longitude": 15.98391
    },
    {
        "name": "Эйскарн",
        "latitude": 48.91675,
        "longitude": 15.1032
    },
    {
        "name": "Эммерсдорф-ан-дер-Донау",
        "latitude": 48.2414,
        "longitude": 15.33721
    },
    {
        "name": "Энгельхартштеттен",
        "latitude": 48.1816,
        "longitude": 16.88367
    },
    {
        "name": "Эннсдорф",
        "latitude": 48.21181,
        "longitude": 14.5029
    },
    {
        "name": "Энценрайт",
        "latitude": 47.66839,
        "longitude": 15.95249
    },
    {
        "name": "Энцерсдорф-ан-дер-Фиша",
        "latitude": 48.08502,
        "longitude": 16.60832
    },
    {
        "name": "Энцерсфельд",
        "latitude": 48.36338,
        "longitude": 16.42387
    },
    {
        "name": "Эрлауф",
        "latitude": 48.18333,
        "longitude": 15.18333
    },
    {
        "name": "Эрнстбрунн",
        "latitude": 48.53333,
        "longitude": 16.35
    },
    {
        "name": "Эрнстофен",
        "latitude": 48.12915,
        "longitude": 14.48058
    },
    {
        "name": "Эрперсдорф",
        "latitude": 48.3421,
        "longitude": 15.91747
    },
    {
        "name": "Эртль",
        "latitude": 47.97704,
        "longitude": 14.63134
    },
    {
        "name": "Эшенау",
        "latitude": 48.04825,
        "longitude": 15.56694
    },
    {
        "name": "Юратсфельд",
        "latitude": 48.08181,
        "longitude": 14.93154
    },
    {
        "name": "Фалькенштейн",
        "latitude": 48.71667,
        "longitude": 16.58333
    },
    {
        "name": "Фальбах",
        "latitude": 48.65,
        "longitude": 16.41667
    },
    {
        "name": "Файстриц в переходном периоде",
        "latitude": 47.6,
        "longitude": 16.05
    },
    {
        "name": "Феликсдорф",
        "latitude": 47.88159,
        "longitude": 16.24208
    },
    {
        "name": "Рок на Ваграме",
        "latitude": 48.43333,
        "longitude": 15.81667
    },
    {
        "name": "Фершниц",
        "latitude": 48.09419,
        "longitude": 14.98454
    },
    {
        "name": "Рынок Фишаменд",
        "latitude": 48.11667,
        "longitude": 16.6
    },
    {
        "name": "Франкенфельс",
        "latitude": 47.98234,
        "longitude": 15.32593
    },
    {
        "name": "Фросдорф",
        "latitude": 47.73333,
        "longitude": 16.25
    },
    {
        "name": "Далее в Триестинге",
        "latitude": 47.97326,
        "longitude": 15.97326
    },
    {
        "name": "Фюрт возле Геттвейга",
        "latitude": 48.37385,
        "longitude": 15.61408
    },
    {
        "name": "Гааден",
        "latitude": 48.05364,
        "longitude": 16.20003
    },
    {
        "name": "Габлиц",
        "latitude": 48.22856,
        "longitude": 16.15437
    },
    {
        "name": "Гайнфарн",
        "latitude": 47.9628,
        "longitude": 16.19368
    },
    {
        "name": "Игры",
        "latitude": 47.929,
        "longitude": 15.08818
    },
    {
        "name": "Гензерндорф",
        "latitude": 48.33925,
        "longitude": 16.72016
    },
    {
        "name": "Гарс-ам-Камп",
        "latitude": 48.58899,
        "longitude": 15.65363
    },
    {
        "name": "Гастерн",
        "latitude": 48.89446,
        "longitude": 15.22027
    },
    {
        "name": "Гаубич",
        "latitude": 48.65,
        "longitude": 16.38333
    },
    {
        "name": "Гавайнсталь",
        "latitude": 48.48003,
        "longitude": 16.5879
    },
    {
        "name": "Гедерсдорф",
        "latitude": 48.43319,
        "longitude": 15.68865
    },
    {
        "name": "Хороший",
        "latitude": 48.79725,
        "longitude": 15.67268
    },
    {
        "name": "Герасдорф под Веной",
        "latitude": 48.29447,
        "longitude": 16.46765
    },
    {
        "name": "Герерсдорф",
        "latitude": 48.20088,
        "longitude": 15.55613
    },
    {
        "name": "Герольдинг",
        "latitude": 48.25,
        "longitude": 15.41667
    },
    {
        "name": "Гфёль",
        "latitude": 48.51667,
        "longitude": 15.48333
    },
    {
        "name": "Гисхюбль",
        "latitude": 48.0978,
        "longitude": 16.23479
    },
    {
        "name": "Глинцендорф",
        "latitude": 48.24605,
        "longitude": 16.6406
    },
    {
        "name": "Глоггниц",
        "latitude": 47.67487,
        "longitude": 15.93893
    },
    {
        "name": "Гмюнд",
        "latitude": 48.7683,
        "longitude": 14.9808
    },
    {
        "name": "Гнадендорф",
        "latitude": 48.61667,
        "longitude": 16.4
    },
    {
        "name": "Гнейксендорф",
        "latitude": 48.43751,
        "longitude": 15.6181
    },
    {
        "name": "Геллерсдорф",
        "latitude": 48.49357,
        "longitude": 16.11943
    },
    {
        "name": "Гёпфриц-ан-дер-Вильд",
        "latitude": 48.72497,
        "longitude": 15.40236
    },
    {
        "name": "Гестлинг на Иббсе",
        "latitude": 47.80664,
        "longitude": 14.93797
    },
    {
        "name": "Гётцендорф-ан-дер-Лейта",
        "latitude": 48.01667,
        "longitude": 16.58333
    },
    {
        "name": "Графенегг",
        "latitude": 48.4304,
        "longitude": 15.74907
    },
    {
        "name": "Графеншлаг",
        "latitude": 48.5,
        "longitude": 15.16667
    },
    {
        "name": "Графенвёрт",
        "latitude": 48.4079,
        "longitude": 15.77826
    },
    {
        "name": "Граматнойзидль",
        "latitude": 48.0304,
        "longitude": 16.48936
    },
    {
        "name": "Гринсфурт",
        "latitude": 48.10846,
        "longitude": 14.8439
    },
    {
        "name": "Грестен",
        "latitude": 47.98521,
        "longitude": 15.02552
    },
    {
        "name": "Гримменштейн",
        "latitude": 47.61635,
        "longitude": 16.12724
    },
    {
        "name": "Гросс-Энгерсдорф",
        "latitude": 48.35873,
        "longitude": 16.5661
    },
    {
        "name": "Гросс-Энцерсдорф",
        "latitude": 48.20278,
        "longitude": 16.55083
    },
    {
        "name": "Гросс-Герунгс",
        "latitude": 48.57422,
        "longitude": 14.95789
    },
    {
        "name": "Гросс-Швайнбарт",
        "latitude": 48.41472,
        "longitude": 16.63194
    },
    {
        "name": "Гросс-Зигхартс",
        "latitude": 48.7918,
        "longitude": 15.40429
    },
    {
        "name": "Гросеберсдорф",
        "latitude": 48.36405,
        "longitude": 16.47076
    },
    {
        "name": "Гросхаррас",
        "latitude": 48.66389,
        "longitude": 16.24556
    },
    {
        "name": "Гросхофен",
        "latitude": 48.25834,
        "longitude": 16.6194
    },
    {
        "name": "Великий Крут",
        "latitude": 48.64389,
        "longitude": 16.72361
    },
    {
        "name": "Великий магл",
        "latitude": 48.49917,
        "longitude": 16.23056
    },
    {
        "name": "Гросриденталь",
        "latitude": 48.48333,
        "longitude": 15.86667
    },
    {
        "name": "Гроссрусбах",
        "latitude": 48.47412,
        "longitude": 16.41649
    },
    {
        "name": "Гросвайкерсдорф",
        "latitude": 48.47123,
        "longitude": 15.98251
    },
    {
        "name": "Грюнбах-ам-Шнеберг",
        "latitude": 47.79747,
        "longitude": 15.98785
    },
    {
        "name": "глотать",
        "latitude": 48.31385,
        "longitude": 16.24852
    },
    {
        "name": "Гумпольдскирхен",
        "latitude": 48.04538,
        "longitude": 16.2771
    },
    {
        "name": "Гюнсельсдорф",
        "latitude": 47.94395,
        "longitude": 16.26062
    },
    {
        "name": "Гюнтерсдорф",
        "latitude": 48.65,
        "longitude": 16.05
    },
    {
        "name": "Гунтрамсдорф",
        "latitude": 48.04687,
        "longitude": 16.31384
    },
    {
        "name": "Гутенбрунн",
        "latitude": 48.3652,
        "longitude": 15.11899
    },
    {
        "name": "Гутенштейн",
        "latitude": 47.876,
        "longitude": 15.88881
    },
    {
        "name": "Хааг",
        "latitude": 48.11362,
        "longitude": 14.56753
    },
    {
        "name": "Хадерсдорф-ам-Камп",
        "latitude": 48.45,
        "longitude": 15.71667
    },
    {
        "name": "Хадрес",
        "latitude": 48.70965,
        "longitude": 16.13038
    },
    {
        "name": "Хафнербах",
        "latitude": 48.21667,
        "longitude": 15.48333
    },
    {
        "name": "Хагенбрунн",
        "latitude": 48.33333,
        "longitude": 16.4
    },
    {
        "name": "Хайдерсхофен",
        "latitude": 48.07579,
        "longitude": 14.46131
    },
    {
        "name": "Хайнбург на Дунае",
        "latitude": 48.14627,
        "longitude": 16.94504
    },
    {
        "name": "Хайнфельд",
        "latitude": 48.0339,
        "longitude": 15.77414
    },
    {
        "name": "Хардегг",
        "latitude": 48.85,
        "longitude": 15.85
    },
    {
        "name": "Харингзее",
        "latitude": 48.1927,
        "longitude": 16.78741
    },
    {
        "name": "Харланд",
        "latitude": 48.16162,
        "longitude": 15.63835
    },
    {
        "name": "Хармансдорф",
        "latitude": 48.39724,
        "longitude": 16.3722
    },
    {
        "name": "Харт",
        "latitude": 48.1532,
        "longitude": 15.61569
    },
    {
        "name": "Хаугшлаг",
        "latitude": 48.98333,
        "longitude": 15.05
    },
    {
        "name": "Хаугсдорф",
        "latitude": 48.70762,
        "longitude": 16.07656
    },
    {
        "name": "Хаунольдштайн",
        "latitude": 48.2,
        "longitude": 15.45
    },
    {
        "name": "Хаусбрунн",
        "latitude": 48.62602,
        "longitude": 16.82844
    },
    {
        "name": "Хаускирхен",
        "latitude": 48.6,
        "longitude": 16.76667
    },
    {
        "name": "управление домом",
        "latitude": 48.38333,
        "longitude": 16.1
    },
    {
        "name": "Хаусменинг",
        "latitude": 48.07074,
        "longitude": 14.81438
    },
    {
        "name": "Хайденрайхштайн",
        "latitude": 48.86667,
        "longitude": 15.11667
    },
    {
        "name": "Хайлигенайх",
        "latitude": 48.29964,
        "longitude": 15.89413
    },
    {
        "name": "Святой Крест",
        "latitude": 48.05559,
        "longitude": 16.12493
    },
    {
        "name": "Хеннерсдорф",
        "latitude": 48.11173,
        "longitude": 16.36311
    },
    {
        "name": "Хернштейн",
        "latitude": 47.89465,
        "longitude": 16.10561
    },
    {
        "name": "Херрнбаумгартен",
        "latitude": 48.69606,
        "longitude": 16.68283
    },
    {
        "name": "Герцогенбург",
        "latitude": 48.28137,
        "longitude": 15.69431
    },
    {
        "name": "Химберг",
        "latitude": 48.08333,
        "longitude": 16.43333
    },
    {
        "name": "Хинтербрюль",
        "latitude": 48.08611,
        "longitude": 16.24809
    },
    {
        "name": "Позади",
        "latitude": 48.16513,
        "longitude": 15.96654
    },
    {
        "name": "Хиршбах",
        "latitude": 48.74329,
        "longitude": 15.12521
    },
    {
        "name": "Хиртенберг",
        "latitude": 47.93095,
        "longitude": 16.17908
    },
    {
        "name": "Хохлайтен",
        "latitude": 48.45317,
        "longitude": 16.5309
    },
    {
        "name": "Хохволькерсдорф",
        "latitude": 47.66127,
        "longitude": 16.28072
    },
    {
        "name": "Хоф-ам-Лайтаберге",
        "latitude": 47.95,
        "longitude": 16.58333
    },
    {
        "name": "Хофамт Приэль",
        "latitude": 48.19581,
        "longitude": 15.07746
    },
    {
        "name": "Хёфляйн",
        "latitude": 48.06667,
        "longitude": 16.78333
    },
    {
        "name": "Хёфлинг",
        "latitude": 48.05444,
        "longitude": 15.03672
    },
    {
        "name": "Хофштеттен",
        "latitude": 48.09711,
        "longitude": 15.51149
    },
    {
        "name": "Хоэнау",
        "latitude": 48.6042,
        "longitude": 16.9047
    },
    {
        "name": "Хоэнберг",
        "latitude": 47.90679,
        "longitude": 15.61998
    },
    {
        "name": "Хоэнайх",
        "latitude": 48.77195,
        "longitude": 15.02857
    },
    {
        "name": "Хоэнрупперсдорф",
        "latitude": 48.46439,
        "longitude": 16.65244
    },
    {
        "name": "Холлабрунн",
        "latitude": 48.55,
        "longitude": 16.08333
    },
    {
        "name": "Холленштейн на Иббсе",
        "latitude": 47.80305,
        "longitude": 14.77312
    },
    {
        "name": "Холлентон",
        "latitude": 47.58938,
        "longitude": 16.26131
    },
    {
        "name": "Рог",
        "latitude": 48.66274,
        "longitude": 15.65663
    },
    {
        "name": "Хундсхайм",
        "latitude": 48.11749,
        "longitude": 16.93581
    },
    {
        "name": "Хюрм",
        "latitude": 48.15601,
        "longitude": 15.41262
    },
    {
        "name": "Каюты",
        "latitude": 48.17856,
        "longitude": 15.98579
    },
    {
        "name": "Джайдхоф",
        "latitude": 48.53333,
        "longitude": 15.48333
    },
    {
        "name": "Япония",
        "latitude": 48.7925,
        "longitude": 15.56831
    },
    {
        "name": "Каждый",
        "latitude": 48.49807,
        "longitude": 16.87225
    },
    {
        "name": "Кальтенлейтен",
        "latitude": 48.11646,
        "longitude": 16.19956
    },
    {
        "name": "Часовня",
        "latitude": 48.25817,
        "longitude": 15.75731
    },
    {
        "name": "Карлштеттен",
        "latitude": 48.2592,
        "longitude": 15.56544
    },
    {
        "name": "Коробка возле Бёхаймкирхена",
        "latitude": 48.1532,
        "longitude": 15.77946
    },
    {
        "name": "Кацельсдорф",
        "latitude": 47.78055,
        "longitude": 16.26985
    },
    {
        "name": "Каумберг",
        "latitude": 48.02415,
        "longitude": 15.89842
    },
    {
        "name": "Вызывание",
        "latitude": 48.93,
        "longitude": 15.23932
    },
    {
        "name": "Кематен на Иббсе",
        "latitude": 48.02541,
        "longitude": 14.76468
    },
    {
        "name": "Кирлинг",
        "latitude": 48.30997,
        "longitude": 16.27616
    },
    {
        "name": "Килб",
        "latitude": 48.10101,
        "longitude": 15.4085
    },
    {
        "name": "Кирхберг-ам-Ваграм",
        "latitude": 48.43182,
        "longitude": 15.89692
    },
    {
        "name": "Кирхберг-ам-Вальде",
        "latitude": 48.72477,
        "longitude": 15.08826
    },
    {
        "name": "Кирхберг-ам-Векзель",
        "latitude": 47.60738,
        "longitude": 15.99103
    },
    {
        "name": "Кирхберг-ан-дер-Пилах",
        "latitude": 48.0269,
        "longitude": 15.42875
    },
    {
        "name": "Кирхшлаг",
        "latitude": 48.39345,
        "longitude": 15.22285
    },
    {
        "name": "Кирхшлаг в Баклигенском валу",
        "latitude": 47.5,
        "longitude": 16.28333
    },
    {
        "name": "Кирхштеттен",
        "latitude": 48.18333,
        "longitude": 15.81667
    },
    {
        "name": "Кирнберг-ан-дер-Манк",
        "latitude": 48.07246,
        "longitude": 15.32232
    },
    {
        "name": "Клаузен-Леопольдсдорф",
        "latitude": 48.08771,
        "longitude": 16.01686
    },
    {
        "name": "Кляйн Нойзидль",
        "latitude": 48.09379,
        "longitude": 16.60661
    },
    {
        "name": "Кляйн-Пёхларн",
        "latitude": 48.21667,
        "longitude": 15.21667
    },
    {
        "name": "Кляйнцель",
        "latitude": 47.97993,
        "longitude": 15.7362
    },
    {
        "name": "Клостернойбург",
        "latitude": 48.30521,
        "longitude": 16.32522
    },
    {
        "name": "Кенигштеттен",
        "latitude": 48.30198,
        "longitude": 16.14492
    },
    {
        "name": "Корнойбург",
        "latitude": 48.35,
        "longitude": 16.33333
    },
    {
        "name": "Коттингбрунн",
        "latitude": 47.95096,
        "longitude": 16.22715
    },
    {
        "name": "Кремс на Дунае",
        "latitude": 48.40921,
        "longitude": 15.61415
    },
    {
        "name": "Кремс на Дунае",
        "latitude": 48.4104,
        "longitude": 15.60574
    },
    {
        "name": "Критцендорф",
        "latitude": 48.32932,
        "longitude": 16.30011
    },
    {
        "name": "Крумау-ам-Камп",
        "latitude": 48.58879,
        "longitude": 15.44914
    },
    {
        "name": "Рынок Крумбаха",
        "latitude": 47.51667,
        "longitude": 16.18333
    },
    {
        "name": "Крумнуссбаум",
        "latitude": 48.20877,
        "longitude": 15.16212
    },
    {
        "name": "Лаа ан дер Тайя",
        "latitude": 48.71667,
        "longitude": 16.38333
    },
    {
        "name": "Бенд-им-Вальде",
        "latitude": 48.15486,
        "longitude": 16.17359
    },
    {
        "name": "Ладендорф",
        "latitude": 48.53333,
        "longitude": 16.48333
    },
    {
        "name": "Ландегг",
        "latitude": 47.9,
        "longitude": 16.4
    },
    {
        "name": "Кузнечик",
        "latitude": 48.83207,
        "longitude": 15.7156
    },
    {
        "name": "Лангенлебарн-Оберайген",
        "latitude": 48.33023,
        "longitude": 16.11059
    },
    {
        "name": "Лангенлойс",
        "latitude": 48.46667,
        "longitude": 15.66667
    },
    {
        "name": "Лангенрор",
        "latitude": 48.30489,
        "longitude": 16.01034
    },
    {
        "name": "Лангенцерсдорф",
        "latitude": 48.30432,
        "longitude": 16.36143
    },
    {
        "name": "Длинный удар",
        "latitude": 48.57448,
        "longitude": 14.88459
    },
    {
        "name": "Ланцендорф",
        "latitude": 48.11056,
        "longitude": 16.445
    },
    {
        "name": "Ланценкирхен",
        "latitude": 47.73621,
        "longitude": 16.21985
    },
    {
        "name": "Лесси",
        "latitude": 48.22479,
        "longitude": 16.8223
    },
    {
        "name": "Лаксенбург",
        "latitude": 48.06833,
        "longitude": 16.35607
    },
    {
        "name": "тела",
        "latitude": 48.24628,
        "longitude": 15.2746
    },
    {
        "name": "Лейцерсдорф",
        "latitude": 48.41918,
        "longitude": 16.24513
    },
    {
        "name": "Ленгенфельд",
        "latitude": 48.47187,
        "longitude": 15.5987
    },
    {
        "name": "Леобендорф",
        "latitude": 48.38333,
        "longitude": 16.31667
    },
    {
        "name": "Леоберсдорф",
        "latitude": 47.92796,
        "longitude": 16.21651
    },
    {
        "name": "Леопольдсдорф",
        "latitude": 48.11557,
        "longitude": 16.39126
    },
    {
        "name": "Леопольдсдорф-им-Мархфельде",
        "latitude": 48.22261,
        "longitude": 16.68858
    },
    {
        "name": "Лерхенфельд",
        "latitude": 48.41234,
        "longitude": 15.63183
    },
    {
        "name": "Лихтенегг",
        "latitude": 47.6,
        "longitude": 16.2
    },
    {
        "name": "Лихтенворт",
        "latitude": 47.82756,
        "longitude": 16.29873
    },
    {
        "name": "Лилиенфельд",
        "latitude": 48.01312,
        "longitude": 15.59664
    },
    {
        "name": "Литшау",
        "latitude": 48.94409,
        "longitude": 15.04483
    },
    {
        "name": "Озеро",
        "latitude": 47.99578,
        "longitude": 15.40163
    },
    {
        "name": "Лоосдорф",
        "latitude": 48.2,
        "longitude": 15.4
    },
    {
        "name": "Лунц-ам-Зее",
        "latitude": 47.8612,
        "longitude": 15.02998
    },
    {
        "name": "Майлберг",
        "latitude": 48.67379,
        "longitude": 16.18132
    },
    {
        "name": "Майсау",
        "latitude": 48.573,
        "longitude": 15.83005
    },
    {
        "name": "Недостаток",
        "latitude": 48.11024,
        "longitude": 15.33915
    },
    {
        "name": "Маннерсдорф-ам-Лайтагебирге",
        "latitude": 47.96667,
        "longitude": 16.6
    },
    {
        "name": "Маннсдорф на Дунае",
        "latitude": 48.152,
        "longitude": 16.66506
    },
    {
        "name": "Маннсворт",
        "latitude": 48.14547,
        "longitude": 16.51374
    },
    {
        "name": "Марбах на Дунае",
        "latitude": 48.21667,
        "longitude": 15.15
    },
    {
        "name": "Марчегг",
        "latitude": 48.26217,
        "longitude": 16.91045
    },
    {
        "name": "Маргаретен-ам-Мос",
        "latitude": 48.03333,
        "longitude": 16.6
    },
    {
        "name": "Мария Элленд",
        "latitude": 48.1,
        "longitude": 16.68333
    },
    {
        "name": "Мария Энцерсдорф",
        "latitude": 48.1,
        "longitude": 16.28333
    },
    {
        "name": "Мария Лаах ам Йауэрлинг",
        "latitude": 48.30412,
        "longitude": 15.34472
    },
    {
        "name": "Мария Ланцендорф",
        "latitude": 48.09923,
        "longitude": 16.41984
    },
    {
        "name": "Мария Таферл",
        "latitude": 48.22702,
        "longitude": 15.15954
    },
    {
        "name": "Мария-Анцбах",
        "latitude": 48.19012,
        "longitude": 15.93155
    },
    {
        "name": "Маркерсдорф-ан-дер-Пилах",
        "latitude": 48.18333,
        "longitude": 15.5
    },
    {
        "name": "Маркграфнойзидль",
        "latitude": 48.26667,
        "longitude": 16.63333
    },
    {
        "name": "Маркт Пистинг",
        "latitude": 47.87358,
        "longitude": 16.1251
    },
    {
        "name": "Мартинсберг",
        "latitude": 48.37549,
        "longitude": 15.14997
    },
    {
        "name": "Мацен",
        "latitude": 48.4,
        "longitude": 16.7
    },
    {
        "name": "Матцендорф",
        "latitude": 47.89137,
        "longitude": 16.21393
    },
    {
        "name": "Стена возле Амштеттена",
        "latitude": 48.09643,
        "longitude": 14.8006
    },
    {
        "name": "Мауэрбах",
        "latitude": 48.24514,
        "longitude": 16.16793
    },
    {
        "name": "Маутерн",
        "latitude": 48.39319,
        "longitude": 15.57793
    },
    {
        "name": "Молоко",
        "latitude": 48.22737,
        "longitude": 15.33186
    },
    {
        "name": "Михельхаузен",
        "latitude": 48.29085,
        "longitude": 15.93893
    },
    {
        "name": "Мизенбах",
        "latitude": 47.84035,
        "longitude": 15.98236
    },
    {
        "name": "Омела Брук",
        "latitude": 48.57,
        "longitude": 16.57667
    },
    {
        "name": "Миттербах на Эрлауфзее",
        "latitude": 47.81396,
        "longitude": 15.29537
    },
    {
        "name": "Миттерндорф-ан-дер-Фиша",
        "latitude": 47.99739,
        "longitude": 16.47357
    },
    {
        "name": "Мёдлинг",
        "latitude": 48.08605,
        "longitude": 16.28921
    },
    {
        "name": "Мёллерсдорф",
        "latitude": 48.02575,
        "longitude": 16.30508
    },
    {
        "name": "Менихкирхен",
        "latitude": 47.51062,
        "longitude": 16.03425
    },
    {
        "name": "Моосбрунн",
        "latitude": 48.01667,
        "longitude": 16.45
    },
    {
        "name": "Мукендорф на Дунае",
        "latitude": 48.33183,
        "longitude": 16.1554
    },
    {
        "name": "Муггендорф",
        "latitude": 47.91059,
        "longitude": 15.93533
    },
    {
        "name": "Мюльдорф",
        "latitude": 48.37432,
        "longitude": 15.34672
    },
    {
        "name": "Мюнхендорф",
        "latitude": 48.03333,
        "longitude": 16.38333
    },
    {
        "name": "Нидлинг",
        "latitude": 48.24005,
        "longitude": 15.55591
    },
    {
        "name": "Ной-Гунтрамсдорф",
        "latitude": 48.0642,
        "longitude": 16.31573
    },
    {
        "name": "Нойдорф возле Штааца",
        "latitude": 48.72083,
        "longitude": 16.49139
    },
    {
        "name": "Нойфурт",
        "latitude": 48.07894,
        "longitude": 14.8118
    },
    {
        "name": "Нойхофен-ан-дер-Иббс",
        "latitude": 48.05795,
        "longitude": 14.85489
    },
    {
        "name": "Нойленгбах",
        "latitude": 48.19745,
        "longitude": 15.90219
    },
    {
        "name": "Ноймаркт-ан-дер-Иббс",
        "latitude": 48.14103,
        "longitude": 15.05758
    },
    {
        "name": "Нойнкирхен",
        "latitude": 47.72096,
        "longitude": 16.08107
    },
    {
        "name": "Нойзидль",
        "latitude": 47.88769,
        "longitude": 15.96313
    },
    {
        "name": "Нойзидль-ан-дер-Зайя",
        "latitude": 48.5992,
        "longitude": 16.7799
    },
    {
        "name": "Нидерхоллабрунн",
        "latitude": 48.43333,
        "longitude": 16.3
    },
    {
        "name": "Нидерляйс",
        "latitude": 48.55,
        "longitude": 16.4
    },
    {
        "name": "Нохлинг",
        "latitude": 48.22433,
        "longitude": 14.98123
    },
    {
        "name": "Обер-Графендорф",
        "latitude": 48.1504,
        "longitude": 15.54531
    },
    {
        "name": "Оберхаузен",
        "latitude": 48.1769,
        "longitude": 16.58506
    },
    {
        "name": "Оберндорф-ан-дер-Мельк",
        "latitude": 48.06386,
        "longitude": 15.2243
    },
    {
        "name": "Оберндорф на равнине",
        "latitude": 48.2704,
        "longitude": 15.68985
    },
    {
        "name": "Оберсдорф",
        "latitude": 48.36667,
        "longitude": 16.51667
    },
    {
        "name": "Оберзибенбрунн",
        "latitude": 48.26537,
        "longitude": 16.71076
    },
    {
        "name": "Оберваграмма",
        "latitude": 48.20157,
        "longitude": 15.64917
    },
    {
        "name": "Обервальтерсдорф",
        "latitude": 47.97567,
        "longitude": 16.32191
    },
    {
        "name": "Обервёлблинг",
        "latitude": 48.31719,
        "longitude": 15.59166
    },
    {
        "name": "Олинг",
        "latitude": 48.1,
        "longitude": 14.8
    },
    {
        "name": "Ойенхаузен",
        "latitude": 47.98533,
        "longitude": 16.29187
    },
    {
        "name": "Оппониц",
        "latitude": 47.87776,
        "longitude": 14.82283
    },
    {
        "name": "Орт-ан-дер-Донау",
        "latitude": 48.14524,
        "longitude": 16.70089
    },
    {
        "name": "Оттеншлаг",
        "latitude": 48.42393,
        "longitude": 15.21924
    },
    {
        "name": "Оттенталь",
        "latitude": 48.761,
        "longitude": 16.57914
    },
    {
        "name": "Оттерталь",
        "latitude": 47.61667,
        "longitude": 15.93333
    },
    {
        "name": "Парбасдорф",
        "latitude": 48.28333,
        "longitude": 16.6
    },
    {
        "name": "Паудорф",
        "latitude": 48.35416,
        "longitude": 15.61853
    },
    {
        "name": "Пайербах",
        "latitude": 47.69209,
        "longitude": 15.8634
    },
    {
        "name": "Деньги",
        "latitude": 48.03333,
        "longitude": 14.48333
    },
    {
        "name": "Перхтольдсдорф",
        "latitude": 48.11935,
        "longitude": 16.26607
    },
    {
        "name": "Пернегг",
        "latitude": 48.73333,
        "longitude": 15.61667
    },
    {
        "name": "Пернерсдорф",
        "latitude": 48.7,
        "longitude": 16.01667
    },
    {
        "name": "Перниц",
        "latitude": 47.89759,
        "longitude": 15.96022
    },
    {
        "name": "Персенбойг",
        "latitude": 48.18733,
        "longitude": 15.08809
    },
    {
        "name": "Петронелл-Карнунтум",
        "latitude": 48.11296,
        "longitude": 16.86582
    },
    {
        "name": "Петценкирхен",
        "latitude": 48.14693,
        "longitude": 15.15465
    },
    {
        "name": "Пфаффштеттен",
        "latitude": 48.01737,
        "longitude": 16.26354
    },
    {
        "name": "Пиллихсдорф",
        "latitude": 48.35,
        "longitude": 16.53333
    },
    {
        "name": "Ядра",
        "latitude": 47.71667,
        "longitude": 16.18333
    },
    {
        "name": "Пёларн",
        "latitude": 48.2,
        "longitude": 15.2
    },
    {
        "name": "Конюшня мальчика",
        "latitude": 48.31734,
        "longitude": 15.20405
    },
    {
        "name": "Политический округ Амштеттен",
        "latitude": 48.0,
        "longitude": 14.76667
    },
    {
        "name": "Баденский политический округ",
        "latitude": 47.97729,
        "longitude": 16.19845
    },
    {
        "name": "Политический округ Брук-ан-дер-Лейта",
        "latitude": 48.06781,
        "longitude": 16.77284
    },
    {
        "name": "Политический округ Гензерндорф",
        "latitude": 48.3934,
        "longitude": 16.73892
    },
    {
        "name": "Политический округ Гмюнд",
        "latitude": 48.74732,
        "longitude": 14.98166
    },
    {
        "name": "Политический округ Холлабрунн",
        "latitude": 48.65286,
        "longitude": 15.99701
    },
    {
        "name": "Политический округ Хорн",
        "latitude": 48.71341,
        "longitude": 15.68712
    },
    {
        "name": "Корнойбургский политический округ",
        "latitude": 48.44343,
        "longitude": 16.2412
    },
    {
        "name": "Кремс политический округ",
        "latitude": 48.46582,
        "longitude": 15.52093
    },
    {
        "name": "Политический округ Лилиенфельд",
        "latitude": 47.91667,
        "longitude": 15.6
    },
    {
        "name": "Мелькский политический округ",
        "latitude": 48.21314,
        "longitude": 15.24282
    },
    {
        "name": "Политический округ Мистельбах",
        "latitude": 48.59436,
        "longitude": 16.5473
    },
    {
        "name": "Политический округ Мёдлинг",
        "latitude": 48.08517,
        "longitude": 16.24118
    },
    {
        "name": "Политический округ Нойнкирхен",
        "latitude": 47.69424,
        "longitude": 15.93783
    },
    {
        "name": "Политический район Санкт-Пёльтен",
        "latitude": 48.16905,
        "longitude": 15.66508
    },
    {
        "name": "Политический округ Шейббс",
        "latitude": 47.92316,
        "longitude": 15.10376
    },
    {
        "name": "Тульнский политический округ",
        "latitude": 48.3,
        "longitude": 16.0
    },
    {
        "name": "Политический район Вайдхофен-ан-дер-Тайя",
        "latitude": 48.85925,
        "longitude": 15.35814
    },
    {
        "name": "Политический район Винер-Нойштадт",
        "latitude": 47.83203,
        "longitude": 16.14291
    },
    {
        "name": "Политический район Цветтль",
        "latitude": 48.57435,
        "longitude": 15.17159
    },
    {
        "name": "Поттенбрунн",
        "latitude": 48.23333,
        "longitude": 15.7
    },
    {
        "name": "Поттендорф",
        "latitude": 47.9,
        "longitude": 16.38333
    },
    {
        "name": "Поттенштейн",
        "latitude": 47.9582,
        "longitude": 16.0948
    },
    {
        "name": "Потчах",
        "latitude": 47.69856,
        "longitude": 16.00725
    },
    {
        "name": "Пойсдорф",
        "latitude": 48.66667,
        "longitude": 16.63333
    },
    {
        "name": "Прелленкирхен",
        "latitude": 48.07401,
        "longitude": 16.95233
    },
    {
        "name": "Прессбаум",
        "latitude": 48.18333,
        "longitude": 16.08333
    },
    {
        "name": "Пригглиц",
        "latitude": 47.70318,
        "longitude": 15.92794
    },
    {
        "name": "Принцерсдорф",
        "latitude": 48.2,
        "longitude": 15.51667
    },
    {
        "name": "Протесы",
        "latitude": 48.3868,
        "longitude": 16.7389
    },
    {
        "name": "Пухберг-ам-Шнеберг",
        "latitude": 47.78709,
        "longitude": 15.91352
    },
    {
        "name": "Пухенштубен",
        "latitude": 47.92819,
        "longitude": 15.28748
    },
    {
        "name": "Книга",
        "latitude": 48.70484,
        "longitude": 15.86031
    },
    {
        "name": "Пургсталл",
        "latitude": 48.05841,
        "longitude": 15.13478
    },
    {
        "name": "Пуркерсдорф",
        "latitude": 48.20769,
        "longitude": 16.17539
    },
    {
        "name": "Пыхра",
        "latitude": 48.1591,
        "longitude": 15.68624
    },
    {
        "name": "Раабы в Тайе",
        "latitude": 48.85,
        "longitude": 15.5
    },
    {
        "name": "Раах-ам-Хохгебирге",
        "latitude": 47.63333,
        "longitude": 15.93333
    },
    {
        "name": "Раасдорф",
        "latitude": 48.24657,
        "longitude": 16.56532
    },
    {
        "name": "Рабенсбург",
        "latitude": 48.65,
        "longitude": 16.9
    },
    {
        "name": "Рабенштейн на Пилахе",
        "latitude": 48.06535,
        "longitude": 15.46772
    },
    {
        "name": "Рамзау",
        "latitude": 48.00313,
        "longitude": 15.80332
    },
    {
        "name": "Рандегг",
        "latitude": 48.01198,
        "longitude": 14.97334
    },
    {
        "name": "Раннерсдорф",
        "latitude": 48.12772,
        "longitude": 16.46379
    },
    {
        "name": "Раппоттенштейн",
        "latitude": 48.52161,
        "longitude": 15.07925
    },
    {
        "name": "Растенфельд",
        "latitude": 48.57348,
        "longitude": 15.33176
    },
    {
        "name": "Ратцерсдорф в Трайзене",
        "latitude": 48.22639,
        "longitude": 15.66629
    },
    {
        "name": "Курение бородавки",
        "latitude": 48.0833,
        "longitude": 16.52794
    },
    {
        "name": "Равельсбах",
        "latitude": 48.55,
        "longitude": 15.85
    },
    {
        "name": "Раксендорф",
        "latitude": 48.34108,
        "longitude": 15.27666
    },
    {
        "name": "Реберг",
        "latitude": 48.43114,
        "longitude": 15.58702
    },
    {
        "name": "Райхенау-ан-дер-Ракс",
        "latitude": 47.69509,
        "longitude": 15.84572
    },
    {
        "name": "Рейнгерс",
        "latitude": 48.96667,
        "longitude": 15.13333
    },
    {
        "name": "Райнсберг",
        "latitude": 47.98567,
        "longitude": 15.07067
    },
    {
        "name": "Райзенберг",
        "latitude": 47.99406,
        "longitude": 16.52018
    },
    {
        "name": "Ретц",
        "latitude": 48.75712,
        "longitude": 15.95485
    },
    {
        "name": "Труба в горах",
        "latitude": 47.89471,
        "longitude": 15.73603
    },
    {
        "name": "Рорау",
        "latitude": 48.06667,
        "longitude": 16.85
    },
    {
        "name": "Рорбах-ан-дер-Гёльсен",
        "latitude": 48.04699,
        "longitude": 15.74169
    },
    {
        "name": "Реренбах",
        "latitude": 48.65,
        "longitude": 15.5
    },
    {
        "name": "Рорендорф возле Кремса",
        "latitude": 48.41935,
        "longitude": 15.65772
    },
    {
        "name": "Рёшиц",
        "latitude": 48.64312,
        "longitude": 15.81774
    },
    {
        "name": "Розенау-ам-Зоннтагберг",
        "latitude": 48.00778,
        "longitude": 14.73927
    },
    {
        "name": "Рупрехтсхофен",
        "latitude": 48.13648,
        "longitude": 15.27675
    },
    {
        "name": "Саллингберг",
        "latitude": 48.46667,
        "longitude": 15.23333
    },
    {
        "name": "Санкт-Эгид-ам-Нойвальде",
        "latitude": 47.85383,
        "longitude": 15.56969
    },
    {
        "name": "Святая Андрея перед Хагентале",
        "latitude": 48.32202,
        "longitude": 16.20724
    },
    {
        "name": "Святая Корона в движении",
        "latitude": 47.58333,
        "longitude": 16.0
    },
    {
        "name": "Санкт-Георген-ам-Иббсфельде",
        "latitude": 48.12892,
        "longitude": 14.95364
    },
    {
        "name": "Санкт-Георген-ан-дер-Лейс",
        "latitude": 48.03149,
        "longitude": 15.22722
    },
    {
        "name": "Санкт-Леонхард-ам-Форст",
        "latitude": 48.14232,
        "longitude": 15.28464
    },
    {
        "name": "Санкт-Леонхард-ам-Хорнервальд",
        "latitude": 48.6,
        "longitude": 15.53333
    },
    {
        "name": "Святая Маргаретен-ан-дер-Зирнинг",
        "latitude": 48.1591,
        "longitude": 15.49055
    },
    {
        "name": "Святой Мартин в Иббсфельде",
        "latitude": 48.16425,
        "longitude": 15.02076
    },
    {
        "name": "Святой Панталеон",
        "latitude": 48.21058,
        "longitude": 14.56804
    },
    {
        "name": "Святой Петр на рынке Au",
        "latitude": 48.044,
        "longitude": 14.62182
    },
    {
        "name": "Санкт-Пёльтен",
        "latitude": 48.2,
        "longitude": 15.63333
    },
    {
        "name": "город Санкт-Пёльтен",
        "latitude": 48.2,
        "longitude": 15.61667
    },
    {
        "name": "Святой Валентин",
        "latitude": 48.16667,
        "longitude": 14.51667
    },
    {
        "name": "Санкт-Файт-ан-дер-Гёльсен",
        "latitude": 48.0432,
        "longitude": 15.66942
    },
    {
        "name": "Шарндорф",
        "latitude": 48.09399,
        "longitude": 16.79883
    },
    {
        "name": "Шайббс",
        "latitude": 48.00474,
        "longitude": 15.16817
    },
    {
        "name": "Шляйнбах",
        "latitude": 48.41667,
        "longitude": 16.46667
    },
    {
        "name": "Шенау-ан-дер-Тристинг",
        "latitude": 47.93452,
        "longitude": 16.25376
    },
    {
        "name": "Шенбах",
        "latitude": 48.45,
        "longitude": 15.03333
    },
    {
        "name": "Шёнкирхен-Райерсдорф",
        "latitude": 48.35477,
        "longitude": 16.69115
    },
    {
        "name": "Шоттвин",
        "latitude": 47.65683,
        "longitude": 15.8725
    },
    {
        "name": "Шраттенбах",
        "latitude": 47.77902,
        "longitude": 15.9906
    },
    {
        "name": "Шраттенберг",
        "latitude": 48.72359,
        "longitude": 16.72201
    },
    {
        "name": "Шраттенталь",
        "latitude": 48.7,
        "longitude": 15.9
    },
    {
        "name": "Шремс",
        "latitude": 48.78333,
        "longitude": 15.06667
    },
    {
        "name": "Швадорф",
        "latitude": 48.06936,
        "longitude": 16.57957
    },
    {
        "name": "Шварцау-ам-Штайнфельд",
        "latitude": 47.73183,
        "longitude": 16.17094
    },
    {
        "name": "Шварцау в горах",
        "latitude": 47.81223,
        "longitude": 15.70581
    },
    {
        "name": "Шварценау",
        "latitude": 48.74436,
        "longitude": 15.25838
    },
    {
        "name": "Шварценбах",
        "latitude": 47.63547,
        "longitude": 16.35109
    },
    {
        "name": "Шварценбах-ан-дер-Пилах",
        "latitude": 47.93333,
        "longitude": 15.38333
    },
    {
        "name": "Швехат",
        "latitude": 48.13333,
        "longitude": 16.46667
    },
    {
        "name": "Швайгеры",
        "latitude": 48.66667,
        "longitude": 15.06667
    },
    {
        "name": "Зеебенштайн",
        "latitude": 47.69936,
        "longitude": 16.14484
    },
    {
        "name": "Зайберсдорф",
        "latitude": 47.95858,
        "longitude": 16.51842
    },
    {
        "name": "Рынок Зайтенштеттен",
        "latitude": 48.03333,
        "longitude": 14.65
    },
    {
        "name": "Земмеринг",
        "latitude": 47.63347,
        "longitude": 15.82993
    },
    {
        "name": "Зенфтенберг",
        "latitude": 48.43333,
        "longitude": 15.55
    },
    {
        "name": "Взглянем",
        "latitude": 48.33333,
        "longitude": 16.48333
    },
    {
        "name": "Зигартскирхен",
        "latitude": 48.25531,
        "longitude": 16.01223
    },
    {
        "name": "Зирндорф",
        "latitude": 48.43024,
        "longitude": 16.16658
    },
    {
        "name": "Зигмундшерберг",
        "latitude": 48.68333,
        "longitude": 15.75
    },
    {
        "name": "Зитцендорф-ан-дер-Шмида",
        "latitude": 48.59841,
        "longitude": 15.94254
    },
    {
        "name": "Солленау",
        "latitude": 47.89834,
        "longitude": 16.24833
    },
    {
        "name": "летний",
        "latitude": 47.98333,
        "longitude": 16.65
    },
    {
        "name": "Зоннтагберг",
        "latitude": 47.99561,
        "longitude": 14.76065
    },
    {
        "name": "Сусс",
        "latitude": 47.98464,
        "longitude": 16.21737
    },
    {
        "name": "Шпаннберг",
        "latitude": 48.46393,
        "longitude": 16.73647
    },
    {
        "name": "Игрок",
        "latitude": 48.38333,
        "longitude": 16.25
    },
    {
        "name": "Шпиц",
        "latitude": 48.3656,
        "longitude": 15.41416
    },
    {
        "name": "Брызги",
        "latitude": 48.17044,
        "longitude": 15.61844
    },
    {
        "name": "Состояние",
        "latitude": 48.67617,
        "longitude": 16.48726
    },
    {
        "name": "Штаттерсдорф",
        "latitude": 48.18333,
        "longitude": 15.63333
    },
    {
        "name": "Стацендорф",
        "latitude": 48.30752,
        "longitude": 15.64127
    },
    {
        "name": "Камень на Дунае",
        "latitude": 48.40163,
        "longitude": 15.58102
    },
    {
        "name": "Штайнбрюкль",
        "latitude": 47.87053,
        "longitude": 16.20277
    },
    {
        "name": "Штайнакирхен-ам-Фост",
        "latitude": 48.06965,
        "longitude": 15.04801
    },
    {
        "name": "Стефанхарт",
        "latitude": 48.15,
        "longitude": 14.81667
    },
    {
        "name": "Штеттельдорф-ам-Ваграм",
        "latitude": 48.40815,
        "longitude": 16.01862
    },
    {
        "name": "Штеттен",
        "latitude": 48.36667,
        "longitude": 16.38333
    },
    {
        "name": "Штоккерау",
        "latitude": 48.38333,
        "longitude": 16.21667
    },
    {
        "name": "Штольхофен",
        "latitude": 48.35226,
        "longitude": 15.75963
    },
    {
        "name": "Штессинг",
        "latitude": 48.12267,
        "longitude": 15.81379
    },
    {
        "name": "Стразы",
        "latitude": 48.46667,
        "longitude": 15.73333
    },
    {
        "name": "Штрассхоф на Северной железной дороге",
        "latitude": 48.31667,
        "longitude": 16.66667
    },
    {
        "name": "Стратцинг",
        "latitude": 48.45,
        "longitude": 15.6
    },
    {
        "name": "Стренгберг",
        "latitude": 48.14685,
        "longitude": 14.65147
    },
    {
        "name": "Стронсдорф",
        "latitude": 48.65157,
        "longitude": 16.2989
    },
    {
        "name": "Таттендорф",
        "latitude": 47.95,
        "longitude": 16.3
    },
    {
        "name": "Тисдорф",
        "latitude": 47.95,
        "longitude": 16.28333
    },
    {
        "name": "Терниц",
        "latitude": 47.71565,
        "longitude": 16.03575
    },
    {
        "name": "Тая",
        "latitude": 48.85489,
        "longitude": 15.28902
    },
    {
        "name": "Терезиенфельд",
        "latitude": 47.85,
        "longitude": 16.23333
    },
    {
        "name": "Томасберг",
        "latitude": 47.56667,
        "longitude": 16.13333
    },
    {
        "name": "Тифенбах",
        "latitude": 47.5354,
        "longitude": 16.21346
    },
    {
        "name": "Трейз",
        "latitude": 48.03333,
        "longitude": 15.6
    },
    {
        "name": "Трайскирхен",
        "latitude": 48.01485,
        "longitude": 16.29324
    },
    {
        "name": "Трайсмауэр",
        "latitude": 48.35,
        "longitude": 15.73333
    },
    {
        "name": "Траттенбах",
        "latitude": 47.6,
        "longitude": 15.86667
    },
    {
        "name": "Траутмансдорф в Лейте",
        "latitude": 48.02357,
        "longitude": 16.63266
    },
    {
        "name": "Трибусвинкель",
        "latitude": 48.00623,
        "longitude": 16.27075
    },
    {
        "name": "Трумау",
        "latitude": 47.99348,
        "longitude": 16.34268
    },
    {
        "name": "Тюльбинг",
        "latitude": 48.29336,
        "longitude": 16.12226
    },
    {
        "name": "Тульн",
        "latitude": 48.32829,
        "longitude": 16.05858
    },
    {
        "name": "Тульнербах-Ловис",
        "latitude": 48.18912,
        "longitude": 16.09117
    },
    {
        "name": "Тюрниц",
        "latitude": 47.93095,
        "longitude": 15.49295
    },
    {
        "name": "Ульрихскирхен",
        "latitude": 48.4,
        "longitude": 16.48333
    },
    {
        "name": "Унтерзибенбрунн",
        "latitude": 48.25,
        "longitude": 16.73333
    },
    {
        "name": "Унтерстинкенбрунн",
        "latitude": 48.6677,
        "longitude": 16.34607
    },
    {
        "name": "Унтерваграм",
        "latitude": 48.21243,
        "longitude": 15.64951
    },
    {
        "name": "Унтервальтерсдорф",
        "latitude": 47.95,
        "longitude": 16.41667
    },
    {
        "name": "Велм",
        "latitude": 48.03333,
        "longitude": 16.43333
    },
    {
        "name": "Фихофен",
        "latitude": 48.21667,
        "longitude": 15.61667
    },
    {
        "name": "Витис",
        "latitude": 48.75964,
        "longitude": 15.18259
    },
    {
        "name": "Фёзендорф",
        "latitude": 48.12107,
        "longitude": 16.34036
    },
    {
        "name": "Вайдхофен и Тайя",
        "latitude": 48.81667,
        "longitude": 15.28333
    },
    {
        "name": "Вайдхофен-ан-дер-Иббс",
        "latitude": 47.96004,
        "longitude": 14.77361
    },
    {
        "name": "Город Вайдхофен-ан-дер-Иббс",
        "latitude": 47.95999,
        "longitude": 14.77438
    },
    {
        "name": "Вайдмансфельд",
        "latitude": 47.87042,
        "longitude": 15.98116
    },
    {
        "name": "Вальдегг",
        "latitude": 47.86852,
        "longitude": 16.05154
    },
    {
        "name": "Вальденштейн",
        "latitude": 48.72845,
        "longitude": 15.01419
    },
    {
        "name": "Вальдхаузен",
        "latitude": 48.52183,
        "longitude": 15.2625
    },
    {
        "name": "Вальдкирхен-ан-дер-Тайя",
        "latitude": 48.93333,
        "longitude": 15.35
    },
    {
        "name": "Вальзее",
        "latitude": 48.16667,
        "longitude": 14.71667
    },
    {
        "name": "Вальперсбах",
        "latitude": 47.71667,
        "longitude": 16.23333
    },
    {
        "name": "Ван",
        "latitude": 48.04538,
        "longitude": 15.02672
    },
    {
        "name": "Позор",
        "latitude": 47.65,
        "longitude": 16.11667
    },
    {
        "name": "Вартманштеттен",
        "latitude": 47.69359,
        "longitude": 16.07506
    },
    {
        "name": "Вейдлинг",
        "latitude": 48.291,
        "longitude": 16.30865
    },
    {
        "name": "Вайгельсдорф",
        "latitude": 47.95,
        "longitude": 16.4
    },
    {
        "name": "Вайкендорф",
        "latitude": 48.34438,
        "longitude": 16.76651
    },
    {
        "name": "Вайкерсдорф-ам-Штайнфельде",
        "latitude": 47.80612,
        "longitude": 16.14389
    },
    {
        "name": "Вайнбург",
        "latitude": 48.11351,
        "longitude": 15.53295
    },
    {
        "name": "Вайнцирль у леса",
        "latitude": 48.43211,
        "longitude": 15.4321
    },
    {
        "name": "Вайнцирль возле Кремса",
        "latitude": 48.4,
        "longitude": 15.6
    },
    {
        "name": "Вайсенбах-ан-дер-Тристинг",
        "latitude": 47.98211,
        "longitude": 16.03935
    },
    {
        "name": "Вайсенкирхен в Вахау",
        "latitude": 48.3979,
        "longitude": 15.46931
    },
    {
        "name": "Вайстрах",
        "latitude": 48.05,
        "longitude": 14.58333
    },
    {
        "name": "ширина",
        "latitude": 48.29564,
        "longitude": 15.2601
    },
    {
        "name": "Вайтерсфельд",
        "latitude": 48.78097,
        "longitude": 15.81345
    },
    {
        "name": "Вейтра",
        "latitude": 48.7,
        "longitude": 14.88333
    },
    {
        "name": "Винер-Нойдорф",
        "latitude": 48.08278,
        "longitude": 16.31384
    },
    {
        "name": "Винер-Нойштадт",
        "latitude": 47.80485,
        "longitude": 16.23196
    },
    {
        "name": "город Винер-Нойштадт",
        "latitude": 47.8,
        "longitude": 16.25
    },
    {
        "name": "Винерсдорф",
        "latitude": 48.00819,
        "longitude": 16.29169
    },
    {
        "name": "Визельбург",
        "latitude": 48.13333,
        "longitude": 15.13333
    },
    {
        "name": "Висмат",
        "latitude": 47.61667,
        "longitude": 16.28333
    },
    {
        "name": "Вильферсдорф",
        "latitude": 48.58333,
        "longitude": 16.63333
    },
    {
        "name": "Вильфляйнсдорф",
        "latitude": 48.01667,
        "longitude": 16.71667
    },
    {
        "name": "Вильгельмсбург",
        "latitude": 48.10571,
        "longitude": 15.60539
    },
    {
        "name": "Виллендорф-ам-Штайнфельде",
        "latitude": 47.78929,
        "longitude": 16.05686
    },
    {
        "name": "Вимпассинг в Шварцатале",
        "latitude": 47.70295,
        "longitude": 16.03334
    },
    {
        "name": "Виндхаг",
        "latitude": 47.97906,
        "longitude": 14.80245
    },
    {
        "name": "Виндигштайг",
        "latitude": 48.76667,
        "longitude": 15.28333
    },
    {
        "name": "Винкларн",
        "latitude": 48.09135,
        "longitude": 14.84819
    },
    {
        "name": "Винцендорф",
        "latitude": 47.81154,
        "longitude": 16.113
    },
    {
        "name": "волкпрохождение",
        "latitude": 48.07785,
        "longitude": 15.06453
    },
    {
        "name": "Вольфсбах",
        "latitude": 48.06667,
        "longitude": 14.66667
    },
    {
        "name": "Вольфсграбен",
        "latitude": 48.1587,
        "longitude": 16.12098
    },
    {
        "name": "Вольфсталь",
        "latitude": 48.13333,
        "longitude": 17.0
    },
    {
        "name": "Волькерсдорф в Вайнфиртеле",
        "latitude": 48.38333,
        "longitude": 16.51667
    },
    {
        "name": "Веллерсдорф",
        "latitude": 47.865,
        "longitude": 16.17119
    },
    {
        "name": "Слова",
        "latitude": 48.334,
        "longitude": 16.21016
    },
    {
        "name": "Вуллерсдорф",
        "latitude": 48.62792,
        "longitude": 16.10089
    },
    {
        "name": "куб",
        "latitude": 47.77648,
        "longitude": 16.05463
    },
    {
        "name": "Вюрмла",
        "latitude": 48.25497,
        "longitude": 15.86031
    },
    {
        "name": "Иббс на Дунае",
        "latitude": 48.16667,
        "longitude": 15.08333
    },
    {
        "name": "Иббситц",
        "latitude": 47.94745,
        "longitude": 14.8918
    },