[
    {
        "name": "Бовен Боливия",
        "latitude": 12.1819,
        "longitude": -68.2181
    },
    {
        "name": "Дорп Тера Кора",
        "latitude": 12.13333,
        "longitude": -68.26667
    },
    {
        "name": "Ораньестад",
        "latitude": 17.48333333,
        "longitude": -62.98333333
    },
    {
        "name": "Ринкон",
        "latitude": 12.23833333,
        "longitude": -68.3325
    },
    {
        "name": "Сент-Джонс",
        "latitude": 17.6210075,
        "longitude": -63.2431683
    },
    {
        "name": "Дно",
        "latitude": 17.62611111,
        "longitude": -63.24916667
    },
    {
        "name": "Наветренная сторона",
        "latitude": 17.62864,
        "longitude": -63.23136
    },
    {
        "name": "Сионский холм",
        "latitude": 17.643,
        "longitude": -63.22649
    }
]