[
    {
        "name": "Bamingui",
        "latitude": 7.88897,
        "longitude": 20.04875
    },
    {
        "name": "Nd\u00e9l\u00e9",
        "latitude": 8.74287,
        "longitude": 20.89108
    },
    {
        "name": "Bangui",
        "latitude": 4.36122,
        "longitude": 18.55496
    },
    {
        "name": "Alindao",
        "latitude": 5.02667,
        "longitude": 21.20876
    },
    {
        "name": "Kemb\u00e9",
        "latitude": 4.62275,
        "longitude": 21.88645
    },
    {
        "name": "Mobaye",
        "latitude": 4.31902,
        "longitude": 21.17861
    },
    {
        "name": "Obo",
        "latitude": 5.39586,
        "longitude": 26.49211
    },
    {
        "name": "Zemio",
        "latitude": 5.03144,
        "longitude": 25.13614
    },
    {
        "name": "Bria",
        "latitude": 6.54233,
        "longitude": 21.98633
    },
    {
        "name": "Ouadda",
        "latitude": 8.07771,
        "longitude": 22.40075
    },
    {
        "name": "Sibut",
        "latitude": 5.71801,
        "longitude": 19.07389
    },
    {
        "name": "Boda",
        "latitude": 4.31887,
        "longitude": 17.46953
    },
    {
        "name": "Boganangone",
        "latitude": 4.73558,
        "longitude": 17.14047
    },
    {
        "name": "Mbaiki",
        "latitude": 3.97145,
        "longitude": 17.93352
    },
    {
        "name": "Mongoumba",
        "latitude": 3.64153,
        "longitude": 18.59364
    },
    {
        "name": "Berberati",
        "latitude": 4.31211,
        "longitude": 15.88948
    },
    {
        "name": "Carnot",
        "latitude": 4.94273,
        "longitude": 15.87735
    },
    {
        "name": "Gamboula",
        "latitude": 4.11775,
        "longitude": 15.13926
    },
    {
        "name": "Bangassou",
        "latitude": 4.74132,
        "longitude": 22.81838
    },
    {
        "name": "Gambo",
        "latitude": 4.64816,
        "longitude": 22.26331
    },
    {
        "name": "Ouango",
        "latitude": 4.31325,
        "longitude": 22.55524
    },
    {
        "name": "Rafai",
        "latitude": 5.81012,
        "longitude": 24.20305
    },
    {
        "name": "Kaga Bandoro",
        "latitude": 6.98961,
        "longitude": 19.18744
    },
    {
        "name": "Kaga-Bandoro",
        "latitude": 7.23774,
        "longitude": 19.21819
    },
    {
        "name": "Baoro",
        "latitude": 5.66667,
        "longitude": 15.96667
    },
    {
        "name": "Bouar",
        "latitude": 5.93404,
        "longitude": 15.59599
    },
    {
        "name": "Bimbo",
        "latitude": 4.25671,
        "longitude": 18.41583
    },
    {
        "name": "Boali",
        "latitude": 4.80048,
        "longitude": 18.12747
    },
    {
        "name": "Damara",
        "latitude": 4.96075,
        "longitude": 18.7035
    },
    {
        "name": "Bambari",
        "latitude": 5.76795,
        "longitude": 20.67565
    },
    {
        "name": "Grimari",
        "latitude": 5.73549,
        "longitude": 19.91209
    },
    {
        "name": "Ippy",
        "latitude": 6.26793,
        "longitude": 21.22468
    },
    {
        "name": "Kouango",
        "latitude": 4.99337,
        "longitude": 19.96186
    },
    {
        "name": "Batangafo",
        "latitude": 7.30082,
        "longitude": 18.2833
    },
    {
        "name": "Bossangoa",
        "latitude": 6.49263,
        "longitude": 17.45518
    },
    {
        "name": "Bouca",
        "latitude": 6.50734,
        "longitude": 18.2767
    },
    {
        "name": "Kabo",
        "latitude": 7.69937,
        "longitude": 18.62903
    },
    {
        "name": "Bocaranga",
        "latitude": 6.76546,
        "longitude": 15.77873
    },
    {
        "name": "Bozoum",
        "latitude": 6.31933,
        "longitude": 16.37992
    },
    {
        "name": "Paoua",
        "latitude": 7.24269,
        "longitude": 16.44059
    },
    {
        "name": "Nola",
        "latitude": 3.52494,
        "longitude": 16.04583
    },
    {
        "name": "Birao",
        "latitude": 10.28488,
        "longitude": 22.78818
    },
    {
        "name": "Ouanda-Djall\u00e9",
        "latitude": 9.05877,
        "longitude": 22.42741
    }
]