[
    {
        "name": "Ах",
        "latitude": 47.8424,
        "longitude": 8.85384
    },
    {
        "name": "Аален",
        "latitude": 48.83777,
        "longitude": 10.0933
    },
    {
        "name": "Абштатт",
        "latitude": 49.0682,
        "longitude": 9.2907
    },
    {
        "name": "Абтсгмюнд",
        "latitude": 48.89503,
        "longitude": 10.00172
    },
    {
        "name": "Ахерн",
        "latitude": 48.63115,
        "longitude": 8.07607
    },
    {
        "name": "Ахштеттен",
        "latitude": 48.25886,
        "longitude": 9.89748
    },
    {
        "name": "Адельберг",
        "latitude": 48.76227,
        "longitude": 9.59991
    },
    {
        "name": "Адельмансфельден",
        "latitude": 48.95476,
        "longitude": 10.00466
    },
    {
        "name": "Адельсхайм",
        "latitude": 49.4015,
        "longitude": 9.3925
    },
    {
        "name": "Аффальтербах",
        "latitude": 48.92267,
        "longitude": 9.32362
    },
    {
        "name": "Агластерхаузен",
        "latitude": 49.35694,
        "longitude": 8.98694
    },
    {
        "name": "Айхельберг",
        "latitude": 48.63557,
        "longitude": 9.56373
    },
    {
        "name": "Айххальден",
        "latitude": 48.26719,
        "longitude": 8.40233
    },
    {
        "name": "Айхштеттен",
        "latitude": 47.89295,
        "longitude": 10.07837
    },
    {
        "name": "Айдлинген",
        "latitude": 48.67849,
        "longitude": 8.89524
    },
    {
        "name": "Отец",
        "latitude": 47.93333,
        "longitude": 10.08333
    },
    {
        "name": "Альбрук",
        "latitude": 47.59077,
        "longitude": 8.12954
    },
    {
        "name": "Альберсхаузен",
        "latitude": 48.69136,
        "longitude": 9.56493
    },
    {
        "name": "Альбштадт",
        "latitude": 48.21644,
        "longitude": 9.02596
    },
    {
        "name": "Альдинген",
        "latitude": 48.1,
        "longitude": 8.7
    },
    {
        "name": "Альфдорф",
        "latitude": 48.84385,
        "longitude": 9.71857
    },
    {
        "name": "Алленсбах",
        "latitude": 47.71536,
        "longitude": 9.07145
    },
    {
        "name": "общее достояние",
        "latitude": 48.33052,
        "longitude": 9.72419
    },
    {
        "name": "Альмерсбах-им-Таль",
        "latitude": 48.90659,
        "longitude": 9.46815
    },
    {
        "name": "Альпирсбах",
        "latitude": 48.34507,
        "longitude": 8.40197
    },
    {
        "name": "Альтбах",
        "latitude": 48.72268,
        "longitude": 9.38078
    },
    {
        "name": "Альтдорф",
        "latitude": 48.63112,
        "longitude": 8.99626
    },
    {
        "name": "Альтенриет",
        "latitude": 48.5914,
        "longitude": 9.22186
    },
    {
        "name": "Альтенштайг",
        "latitude": 48.58649,
        "longitude": 8.60395
    },
    {
        "name": "Старый лагерь",
        "latitude": 48.41755,
        "longitude": 9.53606
    },
    {
        "name": "Альтенгштетт",
        "latitude": 48.72325,
        "longitude": 8.79434
    },
    {
        "name": "Старая хижина",
        "latitude": 48.91565,
        "longitude": 9.56984
    },
    {
        "name": "Альтлусхайм",
        "latitude": 49.30167,
        "longitude": 8.49917
    },
    {
        "name": "Альтсхаузен",
        "latitude": 47.93333,
        "longitude": 9.53333
    },
    {
        "name": "Амштеттен",
        "latitude": 48.57876,
        "longitude": 9.87388
    },
    {
        "name": "Амцелль",
        "latitude": 47.7,
        "longitude": 9.75
    },
    {
        "name": "Аспач",
        "latitude": 48.96667,
        "longitude": 9.4
    },
    {
        "name": "Асперг",
        "latitude": 48.90525,
        "longitude": 9.13502
    },
    {
        "name": "Ассамштадт",
        "latitude": 49.42806,
        "longitude": 9.68611
    },
    {
        "name": "Асселдинген",
        "latitude": 48.52959,
        "longitude": 10.19166
    },
    {
        "name": "Аттенвейлер",
        "latitude": 48.13333,
        "longitude": 9.7
    },
    {
        "name": "Ау",
        "latitude": 47.95,
        "longitude": 7.83333
    },
    {
        "name": "О-ам-Рейн",
        "latitude": 48.95,
        "longitude": 8.23333
    },
    {
        "name": "Глаза",
        "latitude": 47.78333,
        "longitude": 7.6
    },
    {
        "name": "Аулендорф",
        "latitude": 47.95083,
        "longitude": 9.63745
    },
    {
        "name": "Бакнанг",
        "latitude": 48.94743,
        "longitude": 9.43718
    },
    {
        "name": "Плохо-бросание",
        "latitude": 47.73147,
        "longitude": 7.55756
    },
    {
        "name": "Bad-Bukhaow",
        "latitude": 48.06231,
        "longitude": 9.61244
    },
    {
        "name": "Bad-Ditzenbah",
        "latitude": 48.5883,
        "longitude": 9.70393
    },
    {
        "name": "Бад-Дюргейм",
        "latitude": 48.02093,
        "longitude": 8.53056
    },
    {
        "name": "Бад-Херренальб",
        "latitude": 48.79787,
        "longitude": 8.43617
    },
    {
        "name": "Бад-Либенцелль",
        "latitude": 48.77427,
        "longitude": 8.72971
    },
    {
        "name": "Бад-Мергентхайм",
        "latitude": 49.4925,
        "longitude": 9.77361
    },
    {
        "name": "Бад-Петерсталь-Грисбах",
        "latitude": 48.43333,
        "longitude": 8.21667
    },
    {
        "name": "Бад-Раппенау",
        "latitude": 49.23848,
        "longitude": 9.1018
    },
    {
        "name": "Бад-Риппольдзау-Шапбах",
        "latitude": 48.42883,
        "longitude": 8.32584
    },
    {
        "name": "Плохо-Зиффен",
        "latitude": 47.55371,
        "longitude": 7.94612
    },
    {
        "name": "Bad-Swemsensen",
        "latitude": 48.00468,
        "longitude": 9.65741
    },
    {
        "name": "Бад-Тайнах-Цавельштайн",
        "latitude": 48.69051,
        "longitude": 8.69285
    },
    {
        "name": "Бад-Юберкинген",
        "latitude": 48.59991,
        "longitude": 9.79586
    },
    {
        "name": "Бавел",
        "latitude": 48.49107,
        "longitude": 9.40009
    },
    {
        "name": "Бад-Вальдзее",
        "latitude": 47.92027,
        "longitude": 9.7549
    },
    {
        "name": "Бад-Вильдбад",
        "latitude": 48.75071,
        "longitude": 8.5504
    },
    {
        "name": "Бад-Вимпфен",
        "latitude": 49.22971,
        "longitude": 9.15648
    },
    {
        "name": "Бад-Вурцах",
        "latitude": 47.90799,
        "longitude": 9.89686
    },
    {
        "name": "Баден-Баден",
        "latitude": 48.7606,
        "longitude": 8.23975
    },
    {
        "name": "Баденвайлер",
        "latitude": 47.80223,
        "longitude": 7.67236
    },
    {
        "name": "Бахлинген",
        "latitude": 48.12064,
        "longitude": 7.73982
    },
    {
        "name": "Байенфурт",
        "latitude": 47.82857,
        "longitude": 9.65157
    },
    {
        "name": "Байерсбронн",
        "latitude": 48.50318,
        "longitude": 8.37699
    },
    {
        "name": "Баиндт",
        "latitude": 47.85,
        "longitude": 9.66667
    },
    {
        "name": "Балинген",
        "latitude": 48.27525,
        "longitude": 8.85464
    },
    {
        "name": "Балтмансвайлер",
        "latitude": 48.74215,
        "longitude": 9.4494
    },
    {
        "name": "Бальцфельд",
        "latitude": 49.26892,
        "longitude": 8.78919
    },
    {
        "name": "Бамменталь",
        "latitude": 49.35611,
        "longitude": 8.77944
    },
    {
        "name": "Варфоломей",
        "latitude": 48.7535,
        "longitude": 9.98752
    },
    {
        "name": "Байльштейн",
        "latitude": 49.0414,
        "longitude": 9.3137
    },
    {
        "name": "Баймерштеттен",
        "latitude": 48.48333,
        "longitude": 9.98333
    },
    {
        "name": "Бемпфлинген",
        "latitude": 48.57178,
        "longitude": 9.26834
    },
    {
        "name": "Беннинген-на-Неккаре",
        "latitude": 48.94672,
        "longitude": 9.24212
    },
    {
        "name": "Бергатройте",
        "latitude": 47.85,
        "longitude": 9.75
    },
    {
        "name": "Бергхауптен",
        "latitude": 48.40602,
        "longitude": 7.98672
    },
    {
        "name": "Бергюлен",
        "latitude": 48.46399,
        "longitude": 9.7611
    },
    {
        "name": "Беркхайм",
        "latitude": 48.04263,
        "longitude": 10.08227
    },
    {
        "name": "Берматинген",
        "latitude": 47.73333,
        "longitude": 9.35
    },
    {
        "name": "Бернау",
        "latitude": 47.80018,
        "longitude": 8.0383
    },
    {
        "name": "Бернштадт",
        "latitude": 48.49957,
        "longitude": 10.02575
    },
    {
        "name": "Безигхайм",
        "latitude": 48.99797,
        "longitude": 9.14268
    },
    {
        "name": "Бойрен",
        "latitude": 48.56927,
        "longitude": 9.40406
    },
    {
        "name": "Биберах",
        "latitude": 48.61008,
        "longitude": 8.27704
    },
    {
        "name": "Биберах-ан-дер-Рисс",
        "latitude": 48.09345,
        "longitude": 9.79053
    },
    {
        "name": "Битигхайм",
        "latitude": 48.90919,
        "longitude": 8.25202
    },
    {
        "name": "Beatighemy-Beistingin",
        "latitude": 48.94407,
        "longitude": 9.11755
    },
    {
        "name": "Дешевый дом",
        "latitude": 49.34861,
        "longitude": 9.25389
    },
    {
        "name": "Контейнеры",
        "latitude": 49.36833,
        "longitude": 9.05806
    },
    {
        "name": "Бинген",
        "latitude": 48.11127,
        "longitude": 9.27238
    },
    {
        "name": "Бинзен",
        "latitude": 47.63333,
        "longitude": 7.61667
    },
    {
        "name": "Биренбах",
        "latitude": 48.74732,
        "longitude": 9.66115
    },
    {
        "name": "Березовое поле",
        "latitude": 48.86667,
        "longitude": 8.63333
    },
    {
        "name": "Бишвайер",
        "latitude": 48.83766,
        "longitude": 8.28412
    },
    {
        "name": "Бизинген",
        "latitude": 48.31012,
        "longitude": 8.91738
    },
    {
        "name": "Биссинген-ан-дер-Тек",
        "latitude": 48.59915,
        "longitude": 9.49146
    },
    {
        "name": "Битц",
        "latitude": 48.244,
        "longitude": 9.09144
    },
    {
        "name": "Блаубойрен",
        "latitude": 48.41215,
        "longitude": 9.78427
    },
    {
        "name": "Блауфельден",
        "latitude": 49.29778,
        "longitude": 9.97389
    },
    {
        "name": "Блюмберг",
        "latitude": 47.84058,
        "longitude": 8.53329
    },
    {
        "name": "Бебинген-ан-дер-Ремс",
        "latitude": 48.81955,
        "longitude": 9.9213
    },
    {
        "name": "Boiblinen",
        "latitude": 48.68212,
        "longitude": 9.01171
    },
    {
        "name": "Бодельсхаузен",
        "latitude": 48.38886,
        "longitude": 8.97703
    },
    {
        "name": "Bodylife-Ludwigafen",
        "latitude": 47.81817,
        "longitude": 9.0554
    },
    {
        "name": "Боднегг",
        "latitude": 47.71014,
        "longitude": 9.68841
    },
    {
        "name": "Беменкирх",
        "latitude": 48.68333,
        "longitude": 9.93333
    },
    {
        "name": "Больхейм",
        "latitude": 48.63141,
        "longitude": 10.14995
    },
    {
        "name": "Болл",
        "latitude": 48.64357,
        "longitude": 9.61295
    },
    {
        "name": "Большвайль",
        "latitude": 47.92143,
        "longitude": 7.78986
    },
    {
        "name": "Бондорф",
        "latitude": 48.52064,
        "longitude": 8.83704
    },
    {
        "name": "Бонндорф",
        "latitude": 47.81863,
        "longitude": 8.34139
    },
    {
        "name": "Беннигхайм",
        "latitude": 49.04018,
        "longitude": 9.09386
    },
    {
        "name": "Бопфинген",
        "latitude": 48.85847,
        "longitude": 10.35417
    },
    {
        "name": "Сжигание",
        "latitude": 48.75376,
        "longitude": 9.63181
    },
    {
        "name": "Бозинген",
        "latitude": 48.23333,
        "longitude": 8.55
    },
    {
        "name": "Прямой",
        "latitude": 48.1,
        "longitude": 8.8
    },
    {
        "name": "Бетцинген",
        "latitude": 48.07642,
        "longitude": 7.72485
    },
    {
        "name": "Боксберг",
        "latitude": 49.47965,
        "longitude": 9.64006
    },
    {
        "name": "Бракенхайм",
        "latitude": 49.07787,
        "longitude": 9.06601
    },
    {
        "name": "Браунлинген",
        "latitude": 47.92957,
        "longitude": 8.44806
    },
    {
        "name": "Браунсбах",
        "latitude": 49.19917,
        "longitude": 9.79056
    },
    {
        "name": "Брайзах на Рейне",
        "latitude": 48.03279,
        "longitude": 7.58294
    },
    {
        "name": "Брейтнау",
        "latitude": 47.93333,
        "longitude": 8.08333
    },
    {
        "name": "Доски",
        "latitude": 49.03685,
        "longitude": 8.70745
    },
    {
        "name": "Бретцфельд",
        "latitude": 49.17944,
        "longitude": 9.43833
    },
    {
        "name": "Брухзаль",
        "latitude": 49.12426,
        "longitude": 8.59804
    },
    {
        "name": "Брюль",
        "latitude": 49.39722,
        "longitude": 8.53361
    },
    {
        "name": "Бубсхайм",
        "latitude": 48.11667,
        "longitude": 8.83333
    },
    {
        "name": "Книга на клен",
        "latitude": 49.53909,
        "longitude": 9.5556
    },
    {
        "name": "Забронируйте в Оденвальде",
        "latitude": 49.52416,
        "longitude": 9.32293
    },
    {
        "name": "Бухенбах",
        "latitude": 47.96138,
        "longitude": 8.00909
    },
    {
        "name": "Буггинген",
        "latitude": 47.8475,
        "longitude": 7.63799
    },
    {
        "name": "Бюль",
        "latitude": 48.69676,
        "longitude": 8.13523
    },
    {
        "name": "Бюлерталь",
        "latitude": 48.68569,
        "longitude": 8.18876
    },
    {
        "name": "Бюлертанн",
        "latitude": 49.04167,
        "longitude": 9.90861
    },
    {
        "name": "Бюлерцелль",
        "latitude": 49.00333,
        "longitude": 9.92056
    },
    {
        "name": "Бургриден",
        "latitude": 48.23333,
        "longitude": 9.93333
    },
    {
        "name": "Бургштеттен",
        "latitude": 48.92805,
        "longitude": 9.37239
    },
    {
        "name": "Бурладинген",
        "latitude": 48.29111,
        "longitude": 9.11286
    },
    {
        "name": "Бюзинген",
        "latitude": 47.69638,
        "longitude": 8.68759
    },
    {
        "name": "Кальв",
        "latitude": 48.71419,
        "longitude": 8.74031
    },
    {
        "name": "Клеебронн",
        "latitude": 49.045,
        "longitude": 9.03694
    },
    {
        "name": "Крайльсхайм",
        "latitude": 49.13444,
        "longitude": 10.07193
    },
    {
        "name": "Креглинген",
        "latitude": 49.46937,
        "longitude": 10.03119
    },
    {
        "name": "Дайзендорф",
        "latitude": 47.71265,
        "longitude": 9.26783
    },
    {
        "name": "Даухинген",
        "latitude": 48.08993,
        "longitude": 8.55011
    },
    {
        "name": "Потолочный столб",
        "latitude": 48.65128,
        "longitude": 8.82417
    },
    {
        "name": "Деггинген",
        "latitude": 48.5971,
        "longitude": 9.71891
    },
    {
        "name": "Подразделения",
        "latitude": 48.1741,
        "longitude": 8.78533
    },
    {
        "name": "Дайслинген",
        "latitude": 48.1123,
        "longitude": 8.60736
    },
    {
        "name": "Дейзизау",
        "latitude": 48.7122,
        "longitude": 9.3861
    },
    {
        "name": "Денкдорф",
        "latitude": 48.69555,
        "longitude": 9.31675
    },
    {
        "name": "Мысли",
        "latitude": 48.1111,
        "longitude": 8.7382
    },
    {
        "name": "Денцлинген",
        "latitude": 48.06667,
        "longitude": 7.88333
    },
    {
        "name": "Деттенхаузен",
        "latitude": 48.60758,
        "longitude": 9.10041
    },
    {
        "name": "Деттигофен",
        "latitude": 47.62333,
        "longitude": 8.48512
    },
    {
        "name": "Деттинген",
        "latitude": 48.26246,
        "longitude": 9.72161
    },
    {
        "name": "Деттинген-ан-дер-Эрмс",
        "latitude": 48.53077,
        "longitude": 9.34458
    },
    {
        "name": "Деттинген-унтер-Тек",
        "latitude": 48.61667,
        "longitude": 9.45
    },
    {
        "name": "Дильхайм",
        "latitude": 49.28417,
        "longitude": 8.73806
    },
    {
        "name": "Дитенхайм",
        "latitude": 48.21072,
        "longitude": 10.07163
    },
    {
        "name": "Дитинген",
        "latitude": 48.2048,
        "longitude": 8.64864
    },
    {
        "name": "Дишинген",
        "latitude": 48.7,
        "longitude": 10.36667
    },
    {
        "name": "Дитцинген",
        "latitude": 48.82672,
        "longitude": 9.06703
    },
    {
        "name": "Двойной",
        "latitude": 48.8,
        "longitude": 8.5
    },
    {
        "name": "Догерн",
        "latitude": 47.60952,
        "longitude": 8.16713
    },
    {
        "name": "Донауэшинген",
        "latitude": 47.95514,
        "longitude": 8.49707
    },
    {
        "name": "Донцдорф",
        "latitude": 48.68544,
        "longitude": 9.81053
    },
    {
        "name": "Дорметтинген",
        "latitude": 48.23688,
        "longitude": 8.77327
    },
    {
        "name": "Дорнхан",
        "latitude": 48.35008,
        "longitude": 8.50901
    },
    {
        "name": "Дорнштадт",
        "latitude": 48.46697,
        "longitude": 9.94434
    },
    {
        "name": "Дорнштеттен",
        "latitude": 48.47198,
        "longitude": 8.49817
    },
    {
        "name": "Dyllbaby",
        "latitude": 49.38355,
        "longitude": 9.70732
    },
    {
        "name": "Доссенхайм",
        "latitude": 49.45028,
        "longitude": 8.67472
    },
    {
        "name": "Дотерхаузен",
        "latitude": 48.22848,
        "longitude": 8.79228
    },
    {
        "name": "Даннинген",
        "latitude": 48.21242,
        "longitude": 8.50619
    },
    {
        "name": "Дурбах",
        "latitude": 48.49352,
        "longitude": 8.01736
    },
    {
        "name": "Дюрбхайм",
        "latitude": 48.05623,
        "longitude": 8.79344
    },
    {
        "name": "Дюрланген",
        "latitude": 48.85632,
        "longitude": 9.79654
    },
    {
        "name": "Дюрментинген",
        "latitude": 48.11667,
        "longitude": 9.53333
    },
    {
        "name": "Дюрмерсхайм",
        "latitude": 48.93333,
        "longitude": 8.26667
    },
    {
        "name": "Кулаки",
        "latitude": 48.64079,
        "longitude": 9.63544
    },
    {
        "name": "Дюсслинген",
        "latitude": 48.45357,
        "longitude": 9.05552
    },
    {
        "name": "Эбенвайлер",
        "latitude": 47.9,
        "longitude": 9.51667
    },
    {
        "name": "Эбербах",
        "latitude": 49.4668,
        "longitude": 8.99016
    },
    {
        "name": "Эбердинген",
        "latitude": 48.87942,
        "longitude": 8.96502
    },
    {
        "name": "Эберхардцелль",
        "latitude": 48.0,
        "longitude": 9.81667
    },
    {
        "name": "Эберсбах-ан-дер-Филс",
        "latitude": 48.716,
        "longitude": 9.5236
    },
    {
        "name": "Эберсбахбахбахбахбахбахбахбахбахбахбах",
        "latitude": 47.96667,
        "longitude": 9.58333
    },
    {
        "name": "Эберштадт",
        "latitude": 49.18028,
        "longitude": 9.32111
    },
    {
        "name": "Эбхаузен",
        "latitude": 48.58333,
        "longitude": 8.68333
    },
    {
        "name": "Эбринген",
        "latitude": 47.9578,
        "longitude": 7.77652
    },
    {
        "name": "Edein-Nekkarhausen",
        "latitude": 49.45722,
        "longitude": 8.60639
    },
    {
        "name": "Церкви Эфрингена",
        "latitude": 47.65,
        "longitude": 7.56667
    },
    {
        "name": "Эгенхаузен",
        "latitude": 48.56667,
        "longitude": 8.61667
    },
    {
        "name": "Eggenstein-leopoldshafen",
        "latitude": 49.09006,
        "longitude": 8.39879
    },
    {
        "name": "Эггинген",
        "latitude": 47.7,
        "longitude": 8.4
    },
    {
        "name": "Эхинген",
        "latitude": 48.28259,
        "longitude": 9.72749
    },
    {
        "name": "Энинген",
        "latitude": 48.65882,
        "longitude": 8.94124
    },
    {
        "name": "Айхштеттен",
        "latitude": 48.09427,
        "longitude": 7.74244
    },
    {
        "name": "Айгельтинген",
        "latitude": 47.85802,
        "longitude": 8.89784
    },
    {
        "name": "Сообщение электронной почты",
        "latitude": 47.63333,
        "longitude": 7.6
    },
    {
        "name": "Айзенбах",
        "latitude": 47.96117,
        "longitude": 8.26802
    },
    {
        "name": "Требования",
        "latitude": 48.95,
        "longitude": 8.66667
    },
    {
        "name": "Айслинген",
        "latitude": 48.69515,
        "longitude": 9.70676
    },
    {
        "name": "Элленберг",
        "latitude": 49.01667,
        "longitude": 10.21667
    },
    {
        "name": "Эльхофен",
        "latitude": 49.14667,
        "longitude": 9.32194
    },
    {
        "name": "Эльванген",
        "latitude": 48.96164,
        "longitude": 10.13173
    },
    {
        "name": "Эльзах",
        "latitude": 48.17247,
        "longitude": 8.06992
    },
    {
        "name": "Эммендинген",
        "latitude": 48.12096,
        "longitude": 7.85359
    },
    {
        "name": "Эминден-Липинен",
        "latitude": 47.93333,
        "longitude": 8.88333
    },
    {
        "name": "Полученный",
        "latitude": 48.39258,
        "longitude": 8.71036
    },
    {
        "name": "Эндинген",
        "latitude": 48.14221,
        "longitude": 7.70049
    },
    {
        "name": "Энгельсбранд",
        "latitude": 48.83333,
        "longitude": 8.65
    },
    {
        "name": "Энген",
        "latitude": 47.85534,
        "longitude": 8.77342
    },
    {
        "name": "Энинген под Ахальмом",
        "latitude": 48.48686,
        "longitude": 9.25946
    },
    {
        "name": "Предотвращать",
        "latitude": 48.05238,
        "longitude": 9.3201
    },
    {
        "name": "Enzchlisttele",
        "latitude": 48.66638,
        "longitude": 8.47083
    },
    {
        "name": "Эпфенбах",
        "latitude": 49.33917,
        "longitude": 8.90778
    },
    {
        "name": "Эпфендорф",
        "latitude": 48.25,
        "longitude": 8.6
    },
    {
        "name": "Эппельхайм",
        "latitude": 49.4019,
        "longitude": 8.63644
    },
    {
        "name": "Эппинг",
        "latitude": 49.13645,
        "longitude": 8.91229
    },
    {
        "name": "Эрбах",
        "latitude": 48.32841,
        "longitude": 9.88752
    },
    {
        "name": "Эрдманнхаузен",
        "latitude": 48.94256,
        "longitude": 9.29615
    },
    {
        "name": "Эрискирх",
        "latitude": 47.62479,
        "longitude": 9.54197
    },
    {
        "name": "Эркенбрехтсвайлер",
        "latitude": 48.55656,
        "longitude": 9.43211
    },
    {
        "name": "Эрленбах",
        "latitude": 49.1725,
        "longitude": 9.26833
    },
    {
        "name": "Эрленмос",
        "latitude": 48.0653,
        "longitude": 9.97567
    },
    {
        "name": "Эрлигхайм",
        "latitude": 49.0225,
        "longitude": 9.09722
    },
    {
        "name": "Эролцхайм",
        "latitude": 48.09001,
        "longitude": 10.073
    },
    {
        "name": "Эрзинген",
        "latitude": 48.2926,
        "longitude": 9.8551
    },
    {
        "name": "Дразнить",
        "latitude": 48.1,
        "longitude": 9.46667
    },
    {
        "name": "Эшах",
        "latitude": 48.88832,
        "longitude": 9.86999
    },
    {
        "name": "Эшельбронн",
        "latitude": 49.31944,
        "longitude": 8.86528
    },
    {
        "name": "Эшенбах",
        "latitude": 48.65264,
        "longitude": 9.67037
    },
    {
        "name": "Сущность",
        "latitude": 48.80859,
        "longitude": 10.02773
    },
    {
        "name": "Эсслинген",
        "latitude": 48.73961,
        "longitude": 9.30473
    },
    {
        "name": "Эттенхайм",
        "latitude": 48.25696,
        "longitude": 7.81247
    },
    {
        "name": "Эттлинген",
        "latitude": 48.94094,
        "longitude": 8.40763
    },
    {
        "name": "O-Der-Ez",
        "latitude": 48.91246,
        "longitude": 8.74898
    },
    {
        "name": "Фаренбах",
        "latitude": 49.43139,
        "longitude": 9.15056
    },
    {
        "name": "Фельдберг",
        "latitude": 47.77435,
        "longitude": 7.64142
    },
    {
        "name": "Фельбах",
        "latitude": 48.80912,
        "longitude": 9.27697
    },
    {
        "name": "Фихтенберг",
        "latitude": 48.98601,
        "longitude": 9.71199
    },
    {
        "name": "Фильдерштадт",
        "latitude": 48.65698,
        "longitude": 9.22049
    },
    {
        "name": "Фишербах",
        "latitude": 48.28687,
        "longitude": 8.10959
    },
    {
        "name": "Летать",
        "latitude": 49.10306,
        "longitude": 9.21083
    },
    {
        "name": "Форбах",
        "latitude": 48.68333,
        "longitude": 8.35
    },
    {
        "name": "Форхгайм",
        "latitude": 48.16667,
        "longitude": 7.7
    },
    {
        "name": "Форхтенберг",
        "latitude": 49.28867,
        "longitude": 9.56026
    },
    {
        "name": "Форст",
        "latitude": 49.15861,
        "longitude": 8.58083
    },
    {
        "name": "Фрайберг-на-Неккаре",
        "latitude": 48.93196,
        "longitude": 9.2024
    },
    {
        "name": "Фрайбург",
        "latitude": 47.9959,
        "longitude": 7.85222
    },
    {
        "name": "Фрайбургский регион",
        "latitude": 48.16667,
        "longitude": 8.33333
    },
    {
        "name": "Фройденберг",
        "latitude": 49.75349,
        "longitude": 9.32748
    },
    {
        "name": "Фройденштадт",
        "latitude": 48.46695,
        "longitude": 8.41371
    },
    {
        "name": "Фрейденталь",
        "latitude": 49.00972,
        "longitude": 9.05917
    },
    {
        "name": "Фрикенхаузен",
        "latitude": 48.59353,
        "longitude": 9.36005
    },
    {
        "name": "Фрикинген",
        "latitude": 47.81438,
        "longitude": 9.27349
    },
    {
        "name": "Фридинген-ан-дер-Донау",
        "latitude": 48.01955,
        "longitude": 8.92322
    },
    {
        "name": "Фриденвайлер",
        "latitude": 47.91778,
        "longitude": 8.25627
    },
    {
        "name": "Фридрихсхафен",
        "latitude": 47.65689,
        "longitude": 9.47554
    },
    {
        "name": "Фриольцхайм",
        "latitude": 48.83333,
        "longitude": 8.83333
    },
    {
        "name": "Тревога",
        "latitude": 48.12709,
        "longitude": 8.70774
    },
    {
        "name": "Фронройте",
        "latitude": 47.87053,
        "longitude": 9.56944
    },
    {
        "name": "Фюрстенберг",
        "latitude": 47.67895,
        "longitude": 9.15535
    },
    {
        "name": "Фуртванген",
        "latitude": 48.05156,
        "longitude": 8.20715
    },
    {
        "name": "Гаггенау",
        "latitude": 48.8,
        "longitude": 8.33333
    },
    {
        "name": "Гайберг",
        "latitude": 49.36639,
        "longitude": 8.74972
    },
    {
        "name": "Гайенхофен",
        "latitude": 47.68333,
        "longitude": 8.98333
    },
    {
        "name": "Гайльдорф",
        "latitude": 49.00027,
        "longitude": 9.76953
    },
    {
        "name": "Гайлинген",
        "latitude": 47.69711,
        "longitude": 8.75567
    },
    {
        "name": "Гаммельсхаузен",
        "latitude": 48.64023,
        "longitude": 9.65072
    },
    {
        "name": "Игра",
        "latitude": 48.2524,
        "longitude": 9.22349
    },
    {
        "name": "Гертринген",
        "latitude": 48.64176,
        "longitude": 8.90073
    },
    {
        "name": "Гехинген",
        "latitude": 48.69527,
        "longitude": 8.82915
    },
    {
        "name": "Гайзинген",
        "latitude": 47.92504,
        "longitude": 8.65002
    },
    {
        "name": "Гайслинген",
        "latitude": 48.28768,
        "longitude": 8.81241
    },
    {
        "name": "Гейслинген на тропе",
        "latitude": 48.62423,
        "longitude": 9.82736
    },
    {
        "name": "Гемминген",
        "latitude": 49.15639,
        "longitude": 8.98194
    },
    {
        "name": "Геммригхайм",
        "latitude": 49.02833,
        "longitude": 9.15556
    },
    {
        "name": "Генгенбах",
        "latitude": 48.40476,
        "longitude": 8.01433
    },
    {
        "name": "Герабронн",
        "latitude": 48.97071,
        "longitude": 9.91986
    },
    {
        "name": "Герлинген",
        "latitude": 48.79954,
        "longitude": 9.06316
    },
    {
        "name": "Гернсбах",
        "latitude": 48.77034,
        "longitude": 8.34306
    },
    {
        "name": "Герштеттен",
        "latitude": 48.62254,
        "longitude": 10.01984
    },
    {
        "name": "Пошел в Бренц",
        "latitude": 48.62219,
        "longitude": 10.24312
    },
    {
        "name": "Пошел в Филс",
        "latitude": 48.65979,
        "longitude": 9.78092
    },
    {
        "name": "Гладкий",
        "latitude": 48.44246,
        "longitude": 8.51116
    },
    {
        "name": "Гугиггин",
        "latitude": 48.86123,
        "longitude": 9.88398
    },
    {
        "name": "Гомадинген",
        "latitude": 48.3998,
        "longitude": 9.39065
    },
    {
        "name": "Гомаринген",
        "latitude": 48.45349,
        "longitude": 9.09582
    },
    {
        "name": "Гондельсхайм",
        "latitude": 49.05917,
        "longitude": 8.65833
    },
    {
        "name": "Геппинген",
        "latitude": 48.70354,
        "longitude": 9.65209
    },
    {
        "name": "Гёрвиль",
        "latitude": 47.64275,
        "longitude": 8.07482
    },
    {
        "name": "Госхайм",
        "latitude": 48.1343,
        "longitude": 8.75426
    },
    {
        "name": "Гетеборг",
        "latitude": 48.05,
        "longitude": 7.73333
    },
    {
        "name": "Готмадинген",
        "latitude": 47.73511,
        "longitude": 8.77687
    },
    {
        "name": "Грабен-Нойдорф",
        "latitude": 49.16695,
        "longitude": 8.49243
    },
    {
        "name": "Грабенштеттен",
        "latitude": 48.52397,
        "longitude": 9.46155
    },
    {
        "name": "Графенау",
        "latitude": 48.71427,
        "longitude": 8.91219
    },
    {
        "name": "Графенхаузен",
        "latitude": 48.28427,
        "longitude": 7.76678
    },
    {
        "name": "Грефферн",
        "latitude": 48.75205,
        "longitude": 8.00515
    },
    {
        "name": "Гренцах-Вилен",
        "latitude": 47.55,
        "longitude": 7.68333
    },
    {
        "name": "Гросбеттлинген",
        "latitude": 48.59052,
        "longitude": 9.30782
    },
    {
        "name": "Гроссботвар",
        "latitude": 49.00147,
        "longitude": 9.29348
    },
    {
        "name": "Гроссселфинген",
        "latitude": 48.33229,
        "longitude": 8.88704
    },
    {
        "name": "Гроссерлах",
        "latitude": 49.05368,
        "longitude": 9.51356
    },
    {
        "name": "Большое поле для скота",
        "latitude": 49.66536,
        "longitude": 9.73356
    },
    {
        "name": "Грюбинген",
        "latitude": 48.59483,
        "longitude": 9.64389
    },
    {
        "name": "зеленая капуста",
        "latitude": 47.74417,
        "longitude": 9.65588
    },
    {
        "name": "Грюнсфельд",
        "latitude": 49.60949,
        "longitude": 9.74725
    },
    {
        "name": "Гшвенд",
        "latitude": 48.93333,
        "longitude": 9.74436
    },
    {
        "name": "Гюглинген",
        "latitude": 49.06642,
        "longitude": 9.00175
    },
    {
        "name": "Гундельфинген",
        "latitude": 48.04246,
        "longitude": 7.8657
    },
    {
        "name": "Гундельсхайм",
        "latitude": 49.2833,
        "longitude": 9.16037
    },
    {
        "name": "Гутач",
        "latitude": 48.24844,
        "longitude": 8.21293
    },
    {
        "name": "Гутах-им-Брайсгау",
        "latitude": 48.11667,
        "longitude": 7.98333
    },
    {
        "name": "Гютенбах",
        "latitude": 48.05,
        "longitude": 8.15
    },
    {
        "name": "Гутенцелль-Хюрбель",
        "latitude": 48.11667,
        "longitude": 9.98333
    },
    {
        "name": "Хагнау",
        "latitude": 47.67666,
        "longitude": 9.31787
    },
    {
        "name": "Хайгерлох",
        "latitude": 48.36614,
        "longitude": 8.80357
    },
    {
        "name": "Хайтербах",
        "latitude": 48.52066,
        "longitude": 8.64435
    },
    {
        "name": "Гамбрюккен",
        "latitude": 49.19,
        "longitude": 8.54056
    },
    {
        "name": "Хардхейм",
        "latitude": 49.61194,
        "longitude": 9.47194
    },
    {
        "name": "Хардт",
        "latitude": 48.18333,
        "longitude": 8.41667
    },
    {
        "name": "Хартхайм",
        "latitude": 47.93333,
        "longitude": 7.63333
    },
    {
        "name": "ореховый",
        "latitude": 47.65342,
        "longitude": 7.8972
    },
    {
        "name": "Хаслах",
        "latitude": 48.56531,
        "longitude": 8.05658
    },
    {
        "name": "Хасмерсхайм",
        "latitude": 49.3,
        "longitude": 9.15
    },
    {
        "name": "Хаттенхофен",
        "latitude": 48.66648,
        "longitude": 9.57456
    },
    {
        "name": "Хаузах",
        "latitude": 48.28426,
        "longitude": 8.17602
    },
    {
        "name": "Хаузен",
        "latitude": 47.68128,
        "longitude": 7.83986
    },
    {
        "name": "дома",
        "latitude": 47.75,
        "longitude": 8.16667
    },
    {
        "name": "Хайинген",
        "latitude": 48.27531,
        "longitude": 9.4776
    },
    {
        "name": "Хехинген",
        "latitude": 48.35149,
        "longitude": 8.96317
    },
    {
        "name": "Хеддесхайм",
        "latitude": 49.50556,
        "longitude": 8.60361
    },
    {
        "name": "Гейдельберг",
        "latitude": 49.40768,
        "longitude": 8.69079
    },
    {
        "name": "Хайденхайм-ан-дер-Бренц",
        "latitude": 48.67798,
        "longitude": 10.15162
    },
    {
        "name": "Хайльбронн",
        "latitude": 49.13995,
        "longitude": 9.22054
    },
    {
        "name": "Хайлигенберг",
        "latitude": 47.82094,
        "longitude": 9.3128
    },
    {
        "name": "Хайлигкройцштайнах",
        "latitude": 49.48333,
        "longitude": 8.795
    },
    {
        "name": "мир мира",
        "latitude": 48.80656,
        "longitude": 8.86744
    },
    {
        "name": "Хайнинген",
        "latitude": 48.66177,
        "longitude": 9.64977
    },
    {
        "name": "Хайтерсхайм",
        "latitude": 47.87468,
        "longitude": 7.65721
    },
    {
        "name": "Хельмштадтские баржи",
        "latitude": 49.31427,
        "longitude": 8.99712
    },
    {
        "name": "Хемминген",
        "latitude": 48.86667,
        "longitude": 9.03333
    },
    {
        "name": "Хемсбах",
        "latitude": 49.59075,
        "longitude": 8.64779
    },
    {
        "name": "Гербертинген",
        "latitude": 48.06667,
        "longitude": 9.43333
    },
    {
        "name": "Хербольцхайм",
        "latitude": 48.21884,
        "longitude": 7.77746
    },
    {
        "name": "Хербрехтинген",
        "latitude": 48.62173,
        "longitude": 10.176
    },
    {
        "name": "Хердванген-Шёнах",
        "latitude": 47.85,
        "longitude": 9.2
    },
    {
        "name": "Хермаринген",
        "latitude": 48.59544,
        "longitude": 10.26065
    },
    {
        "name": "Херренберг",
        "latitude": 48.59523,
        "longitude": 8.86648
    },
    {
        "name": "Херришрид",
        "latitude": 47.66667,
        "longitude": 8.0
    },
    {
        "name": "Хессигхайм",
        "latitude": 48.99407,
        "longitude": 9.18629
    },
    {
        "name": "Хеттинген",
        "latitude": 48.21601,
        "longitude": 9.23169
    },
    {
        "name": "Хойбах",
        "latitude": 48.79267,
        "longitude": 9.9337
    },
    {
        "name": "лицемеры",
        "latitude": 48.85215,
        "longitude": 9.94391
    },
    {
        "name": "Хильдризхаузен",
        "latitude": 48.62423,
        "longitude": 8.96605
    },
    {
        "name": "Хильцинген",
        "latitude": 47.76667,
        "longitude": 8.78333
    },
    {
        "name": "Хинтерцартен",
        "latitude": 47.90276,
        "longitude": 8.10701
    },
    {
        "name": "Хиррлинген",
        "latitude": 48.41245,
        "longitude": 8.88742
    },
    {
        "name": "Хиршберг на Бергштрассе",
        "latitude": 49.5071,
        "longitude": 8.65693
    },
    {
        "name": "Хохдорф",
        "latitude": 48.0256,
        "longitude": 9.78778
    },
    {
        "name": "Хоэншванд",
        "latitude": 47.73333,
        "longitude": 8.16667
    },
    {
        "name": "Хоккенхайм",
        "latitude": 49.32334,
        "longitude": 8.55194
    },
    {
        "name": "Хёфен-ан-дер-Энц",
        "latitude": 48.8,
        "longitude": 8.58333
    },
    {
        "name": "Хофштеттен",
        "latitude": 48.25846,
        "longitude": 8.06595
    },
    {
        "name": "Хоберг",
        "latitude": 48.3227,
        "longitude": 7.89972
    },
    {
        "name": "Хоэнтенген",
        "latitude": 47.57005,
        "longitude": 8.4325
    },
    {
        "name": "Хольцгерлинген",
        "latitude": 48.63969,
        "longitude": 9.01149
    },
    {
        "name": "Хольцмаден",
        "latitude": 48.63333,
        "longitude": 9.51667
    },
    {
        "name": "Палец бедра",
        "latitude": 49.6025,
        "longitude": 9.42861
    },
    {
        "name": "Хорб-он-Неккаре",
        "latitude": 48.44423,
        "longitude": 8.6913
    },
    {
        "name": "Хорбен",
        "latitude": 47.93333,
        "longitude": 7.86667
    },
    {
        "name": "Хоргенцелль",
        "latitude": 47.80534,
        "longitude": 9.49727
    },
    {
        "name": "Хорнберг",
        "latitude": 48.21068,
        "longitude": 8.23275
    },
    {
        "name": "Хорренберг",
        "latitude": 49.2804,
        "longitude": 8.78087
    },
    {
        "name": "Хюффенхардт",
        "latitude": 49.29194,
        "longitude": 9.08167
    },
    {
        "name": "Хюфинген",
        "latitude": 47.92543,
        "longitude": 8.48831
    },
    {
        "name": "Хюгельсхайм",
        "latitude": 48.8,
        "longitude": 8.11667
    },
    {
        "name": "В Хюле",
        "latitude": 48.51982,
        "longitude": 9.4079
    },
    {
        "name": "Хюттисхайм",
        "latitude": 48.27965,
        "longitude": 9.94246
    },
    {
        "name": "Хюттлинген",
        "latitude": 48.89266,
        "longitude": 10.10064
    },
    {
        "name": "Иффецхайм",
        "latitude": 48.82167,
        "longitude": 8.1431
    },
    {
        "name": "Игерсхайм",
        "latitude": 49.49444,
        "longitude": 9.81694
    },
    {
        "name": "Иггинг",
        "latitude": 48.83167,
        "longitude": 9.87894
    },
    {
        "name": "Иринген",
        "latitude": 48.04303,
        "longitude": 7.6476
    },
    {
        "name": "Иллерриден",
        "latitude": 48.27017,
        "longitude": 10.05155
    },
    {
        "name": "Иллинген",
        "latitude": 48.95616,
        "longitude": 8.92459
    },
    {
        "name": "Ильмензее",
        "latitude": 47.86229,
        "longitude": 9.37235
    },
    {
        "name": "Ильсфельд",
        "latitude": 49.05548,
        "longitude": 9.24598
    },
    {
        "name": "Ильсхофен",
        "latitude": 49.17015,
        "longitude": 9.91825
    },
    {
        "name": "Ильвесхайм",
        "latitude": 49.47404,
        "longitude": 8.5674
    },
    {
        "name": "Имменгенген",
        "latitude": 47.93333,
        "longitude": 8.73333
    },
    {
        "name": "Имменштад на Боденском озере",
        "latitude": 47.66667,
        "longitude": 9.36667
    },
    {
        "name": "Ингельфинген",
        "latitude": 49.30028,
        "longitude": 9.65303
    },
    {
        "name": "Ингольдинген",
        "latitude": 48.02552,
        "longitude": 9.74195
    },
    {
        "name": "Инцигкофен",
        "latitude": 48.07034,
        "longitude": 9.17998
    },
    {
        "name": "Инцлинген",
        "latitude": 47.58851,
        "longitude": 7.69094
    },
    {
        "name": "Исни",
        "latitude": 47.6926,
        "longitude": 10.03857
    },
    {
        "name": "Испринген",
        "latitude": 48.91667,
        "longitude": 8.66667
    },
    {
        "name": "Иттлинген",
        "latitude": 49.19083,
        "longitude": 8.93083
    },
    {
        "name": "Ягстхаузен",
        "latitude": 49.31056,
        "longitude": 9.46833
    },
    {
        "name": "Ягцелл",
        "latitude": 49.03055,
        "longitude": 10.09751
    },
    {
        "name": "Йестеттен",
        "latitude": 47.65,
        "longitude": 8.56667
    },
    {
        "name": "Йёллинген",
        "latitude": 49.03218,
        "longitude": 8.5735
    },
    {
        "name": "Юнгинген",
        "latitude": 48.32787,
        "longitude": 9.04095
    },
    {
        "name": "Кайзерсбах",
        "latitude": 48.93023,
        "longitude": 9.63898
    },
    {
        "name": "Кандерн",
        "latitude": 47.71393,
        "longitude": 7.66237
    },
    {
        "name": "Каппель-Графенхаузен",
        "latitude": 48.28382,
        "longitude": 7.76605
    },
    {
        "name": "Каппельродек",
        "latitude": 48.59182,
        "longitude": 8.11692
    },
    {
        "name": "Карлсдорф-Нойтхард",
        "latitude": 49.13472,
        "longitude": 8.53028
    },
    {
        "name": "Карлсруэ",
        "latitude": 49.00937,
        "longitude": 8.40444
    },
    {
        "name": "Регион Карлсруэ",
        "latitude": 49.0,
        "longitude": 8.66667
    },
    {
        "name": "Горло",
        "latitude": 48.57297,
        "longitude": 7.81523
    },
    {
        "name": "Кенцинген",
        "latitude": 48.1963,
        "longitude": 7.76974
    },
    {
        "name": "Кетч",
        "latitude": 49.36778,
        "longitude": 8.53111
    },
    {
        "name": "галечный колодец",
        "latitude": 48.93333,
        "longitude": 8.75
    },
    {
        "name": "Киппенхайм",
        "latitude": 48.29564,
        "longitude": 7.8251
    },
    {
        "name": "Кирхардт",
        "latitude": 49.205,
        "longitude": 8.99167
    },
    {
        "name": "Кирхберг-ан-дер-Иллер",
        "latitude": 48.13333,
        "longitude": 10.08333
    },
    {
        "name": "Кирхберг-ан-дер-Ягст",
        "latitude": 49.20056,
        "longitude": 9.98226
    },
    {
        "name": "Кирхберг-ан-дер-Мурр",
        "latitude": 48.94297,
        "longitude": 9.34083
    },
    {
        "name": "Кирхдорф",
        "latitude": 48.07667,
        "longitude": 10.12629
    },
    {
        "name": "Кирхентеллинсфурт",
        "latitude": 48.53315,
        "longitude": 9.14732
    },
    {
        "name": "Кирхгайм-на-Неккаре",
        "latitude": 49.045,
        "longitude": 9.14222
    },
    {
        "name": "Кирхгайм-ам-Рис",
        "latitude": 48.87922,
        "longitude": 10.40028
    },
    {
        "name": "Кирххайм-унтер-Тек",
        "latitude": 48.64683,
        "longitude": 9.45378
    },
    {
        "name": "Кирхцартен",
        "latitude": 47.96667,
        "longitude": 7.95
    },
    {
        "name": "Поцелуй ногу",
        "latitude": 47.78894,
        "longitude": 9.88383
    },
    {
        "name": "Клингенштейн",
        "latitude": 48.41849,
        "longitude": 9.90812
    },
    {
        "name": "Щекотка",
        "latitude": 49.02487,
        "longitude": 8.75606
    },
    {
        "name": "Кольберг",
        "latitude": 48.55845,
        "longitude": 9.33576
    },
    {
        "name": "Кольбинген",
        "latitude": 48.05227,
        "longitude": 8.88957
    },
    {
        "name": "Короли",
        "latitude": 48.68333,
        "longitude": 9.36667
    },
    {
        "name": "Кенигхайм",
        "latitude": 49.62028,
        "longitude": 9.59583
    },
    {
        "name": "Кенигсбах-Штайн",
        "latitude": 48.96585,
        "longitude": 8.60573
    },
    {
        "name": "Кенигсбронн",
        "latitude": 48.74317,
        "longitude": 10.11193
    },
    {
        "name": "Кенигсфельд в Шварцвальде",
        "latitude": 48.13814,
        "longitude": 8.41973
    },
    {
        "name": "Постоянство",
        "latitude": 47.66033,
        "longitude": 9.17582
    },
    {
        "name": "Корзина",
        "latitude": 48.84303,
        "longitude": 9.36258
    },
    {
        "name": "Корнталь",
        "latitude": 48.83218,
        "longitude": 9.1214
    },
    {
        "name": "Корнвестхайм",
        "latitude": 48.86158,
        "longitude": 9.18569
    },
    {
        "name": "Крайхталь",
        "latitude": 49.14623,
        "longitude": 8.73276
    },
    {
        "name": "Краухенвис",
        "latitude": 48.01651,
        "longitude": 9.24757
    },
    {
        "name": "Краутхайм",
        "latitude": 49.38789,
        "longitude": 9.63553
    },
    {
        "name": "Крессбронн на Боденском озере",
        "latitude": 47.5976,
        "longitude": 9.59707
    },
    {
        "name": "Кронау",
        "latitude": 49.2225,
        "longitude": 8.63111
    },
    {
        "name": "Торт",
        "latitude": 48.63583,
        "longitude": 9.79989
    },
    {
        "name": "Кюльсхайм",
        "latitude": 49.66942,
        "longitude": 9.52361
    },
    {
        "name": "Кюнцельзау",
        "latitude": 49.2818,
        "longitude": 9.68352
    },
    {
        "name": "Купферцелль",
        "latitude": 49.22778,
        "longitude": 9.69
    },
    {
        "name": "Куппенхайм",
        "latitude": 48.82794,
        "longitude": 8.25417
    },
    {
        "name": "Кюрнбах",
        "latitude": 49.0775,
        "longitude": 8.84556
    },
    {
        "name": "Прибрежные вещи",
        "latitude": 48.52291,
        "longitude": 9.11977
    },
    {
        "name": "Ладенбург",
        "latitude": 49.47307,
        "longitude": 8.60896
    },
    {
        "name": "Лар",
        "latitude": 48.34042,
        "longitude": 7.86886
    },
    {
        "name": "Лайхинген",
        "latitude": 48.48939,
        "longitude": 9.68612
    },
    {
        "name": "Лангенарген",
        "latitude": 47.59858,
        "longitude": 9.54163
    },
    {
        "name": "Лангенау",
        "latitude": 48.49616,
        "longitude": 10.11849
    },
    {
        "name": "Лангенбреттах",
        "latitude": 49.22601,
        "longitude": 9.41842
    },
    {
        "name": "Лангенбург",
        "latitude": 49.25401,
        "longitude": 9.85673
    },
    {
        "name": "Лангененслинген",
        "latitude": 48.14851,
        "longitude": 9.37765
    },
    {
        "name": "Лауххайм",
        "latitude": 48.87135,
        "longitude": 10.24222
    },
    {
        "name": "Лук-порей кольцами",
        "latitude": 47.62699,
        "longitude": 8.31442
    },
    {
        "name": "Лауда-Кёнигсхофен",
        "latitude": 49.56526,
        "longitude": 9.70816
    },
    {
        "name": "Лауденбах",
        "latitude": 49.61333,
        "longitude": 8.65389
    },
    {
        "name": "Бегать",
        "latitude": 48.65,
        "longitude": 8.13333
    },
    {
        "name": "Лауфенбург",
        "latitude": 47.56512,
        "longitude": 8.06045
    },
    {
        "name": "Лауффен-на-Неккаре",
        "latitude": 49.0734,
        "longitude": 9.14567
    },
    {
        "name": "Лаупхайм",
        "latitude": 48.22786,
        "longitude": 9.87874
    },
    {
        "name": "Лаутенбах",
        "latitude": 48.48185,
        "longitude": 8.02732
    },
    {
        "name": "Лаутербах/Шварцвальд",
        "latitude": 48.22999,
        "longitude": 8.3424
    },
    {
        "name": "Лерштайнсфельд",
        "latitude": 49.13111,
        "longitude": 9.32722
    },
    {
        "name": "Лейбертинген",
        "latitude": 48.04263,
        "longitude": 9.01308
    },
    {
        "name": "Склеивание",
        "latitude": 49.34737,
        "longitude": 8.68733
    },
    {
        "name": "Лайнфельден-Эхтерген",
        "latitude": 48.69406,
        "longitude": 9.16809
    },
    {
        "name": "Лейнгартен",
        "latitude": 49.14639,
        "longitude": 9.11694
    },
    {
        "name": "Лейнцель",
        "latitude": 48.84941,
        "longitude": 9.8775
    },
    {
        "name": "Леннинген",
        "latitude": 48.55048,
        "longitude": 9.47674
    },
    {
        "name": "Ленцкирх",
        "latitude": 47.86832,
        "longitude": 8.20211
    },
    {
        "name": "Леонберг",
        "latitude": 48.8,
        "longitude": 9.01667
    },
    {
        "name": "Лойтенбах",
        "latitude": 48.88791,
        "longitude": 9.39267
    },
    {
        "name": "Лойткирх",
        "latitude": 47.82672,
        "longitude": 10.0205
    },
    {
        "name": "Лихтенау",
        "latitude": 48.72607,
        "longitude": 8.00486
    },
    {
        "name": "Линкенхайм-Хохштеттен",
        "latitude": 49.13197,
        "longitude": 8.41244
    },
    {
        "name": "Лоббах",
        "latitude": 49.37519,
        "longitude": 8.88884
    },
    {
        "name": "Лехгау",
        "latitude": 49.00361,
        "longitude": 9.10639
    },
    {
        "name": "Лоффенау",
        "latitude": 48.77214,
        "longitude": 8.38463
    },
    {
        "name": "Лёффинген",
        "latitude": 47.88405,
        "longitude": 8.34384
    },
    {
        "name": "Лонзе",
        "latitude": 48.5434,
        "longitude": 9.91999
    },
    {
        "name": "Лорх",
        "latitude": 48.79833,
        "longitude": 9.6914
    },
    {
        "name": "Лёррах",
        "latitude": 47.61497,
        "longitude": 7.66457
    },
    {
        "name": "Лоссбург",
        "latitude": 48.4,
        "longitude": 8.45
    },
    {
        "name": "Лотштеттен",
        "latitude": 47.63333,
        "longitude": 8.56667
    },
    {
        "name": "Левенштейн",
        "latitude": 49.09558,
        "longitude": 9.38
    },
    {
        "name": "Людвигсбург",
        "latitude": 48.89731,
        "longitude": 9.19161
    },
    {
        "name": "Магштадт",
        "latitude": 48.74471,
        "longitude": 8.96675
    },
    {
        "name": "Мальберг",
        "latitude": 48.28639,
        "longitude": 7.81411
    },
    {
        "name": "Майнхардт",
        "latitude": 49.07611,
        "longitude": 9.55639
    },
    {
        "name": "Мальш",
        "latitude": 49.24722,
        "longitude": 8.68278
    },
    {
        "name": "Мальтердинген",
        "latitude": 48.15719,
        "longitude": 7.78608
    },
    {
        "name": "Мангейм",
        "latitude": 49.4891,
        "longitude": 8.46694
    },
    {
        "name": "Марбах-он-Неккаре",
        "latitude": 48.93964,
        "longitude": 9.25995
    },
    {
        "name": "Маркдорф",
        "latitude": 47.71916,
        "longitude": 9.39028
    },
    {
        "name": "Маркгренинген",
        "latitude": 48.90493,
        "longitude": 9.08059
    },
    {
        "name": "Масельхайм",
        "latitude": 48.13333,
        "longitude": 9.88333
    },
    {
        "name": "Массенбаххаузен",
        "latitude": 49.17778,
        "longitude": 9.04333
    },
    {
        "name": "Мауэр",
        "latitude": 49.34083,
        "longitude": 8.80028
    },
    {
        "name": "Маульбронн",
        "latitude": 48.99958,
        "longitude": 8.80337
    },
    {
        "name": "Маульбург",
        "latitude": 47.64631,
        "longitude": 7.7821
    },
    {
        "name": "Меккенбойрен",
        "latitude": 47.7,
        "longitude": 9.56667
    },
    {
        "name": "Мекесхайм",
        "latitude": 49.32167,
        "longitude": 8.81944
    },
    {
        "name": "Меерсбург",
        "latitude": 47.69419,
        "longitude": 9.27113
    },
    {
        "name": "Мерштеттен",
        "latitude": 48.37609,
        "longitude": 9.566
    },
    {
        "name": "Майсенхайм",
        "latitude": 48.41035,
        "longitude": 7.77266
    },
    {
        "name": "Много",
        "latitude": 48.04951,
        "longitude": 9.33005
    },
    {
        "name": "Мердинген",
        "latitude": 48.01667,
        "longitude": 7.68333
    },
    {
        "name": "Мерклинген",
        "latitude": 48.51135,
        "longitude": 9.75496
    },
    {
        "name": "Мерцхаузен",
        "latitude": 47.96667,
        "longitude": 7.83333
    },
    {
        "name": "Мескирх",
        "latitude": 47.99457,
        "longitude": 9.11479
    },
    {
        "name": "Мессштеттен",
        "latitude": 48.18317,
        "longitude": 8.96565
    },
    {
        "name": "Метцинген",
        "latitude": 48.53695,
        "longitude": 9.2833
    },
    {
        "name": "Михельбах-ан-дер-Билтс",
        "latitude": 49.07028,
        "longitude": 9.7625
    },
    {
        "name": "Михельфельд",
        "latitude": 49.0975,
        "longitude": 9.67861
    },
    {
        "name": "я думаю",
        "latitude": 48.18333,
        "longitude": 9.9
    },
    {
        "name": "Миттельбиберах",
        "latitude": 48.08333,
        "longitude": 9.75
    },
    {
        "name": "Миттельшёнталь",
        "latitude": 48.94615,
        "longitude": 9.3952
    },
    {
        "name": "Мёкмюль",
        "latitude": 49.3249,
        "longitude": 9.35837
    },
    {
        "name": "Меглинген",
        "latitude": 48.8232,
        "longitude": 9.9625
    },
    {
        "name": "Мёглинген",
        "latitude": 48.88741,
        "longitude": 9.12694
    },
    {
        "name": "Мёнхвайлер",
        "latitude": 48.1004,
        "longitude": 8.42219
    },
    {
        "name": "Мёнсхайм",
        "latitude": 48.86667,
        "longitude": 8.86667
    },
    {
        "name": "Моос",
        "latitude": 47.72439,
        "longitude": 8.93479
    },
    {
        "name": "Мосбах",
        "latitude": 49.35357,
        "longitude": 9.15106
    },
    {
        "name": "Мессинген",
        "latitude": 48.40567,
        "longitude": 9.05419
    },
    {
        "name": "Мётцинген",
        "latitude": 48.5332,
        "longitude": 8.77447
    },
    {
        "name": "Мудау",
        "latitude": 49.53444,
        "longitude": 9.20444
    },
    {
        "name": "Муггенштурм",
        "latitude": 48.86667,
        "longitude": 8.28333
    },
    {
        "name": "Мюлакер",
        "latitude": 48.94754,
        "longitude": 8.83675
    },
    {
        "name": "Мюленбах",
        "latitude": 48.25,
        "longitude": 8.11667
    },
    {
        "name": "Мюльхаузен",
        "latitude": 49.24861,
        "longitude": 8.72667
    },
    {
        "name": "Мюльхаузен-Эхинген",
        "latitude": 47.81102,
        "longitude": 8.81224
    },
    {
        "name": "Мюльхайм-на-Бахе",
        "latitude": 48.37863,
        "longitude": 8.69735
    },
    {
        "name": "Мюлинген",
        "latitude": 47.91667,
        "longitude": 9.01667
    },
    {
        "name": "Мульфинген",
        "latitude": 49.34028,
        "longitude": 9.80083
    },
    {
        "name": "Мюльхайм",
        "latitude": 47.8082,
        "longitude": 7.63035
    },
    {
        "name": "Мюндельсхайм",
        "latitude": 49.00083,
        "longitude": 9.20778
    },
    {
        "name": "Король рта",
        "latitude": 48.23568,
        "longitude": 9.64398
    },
    {
        "name": "Мюнзинген",
        "latitude": 48.41126,
        "longitude": 9.49704
    },
    {
        "name": "Мюнстерталь/Шварцвальд",
        "latitude": 47.85472,
        "longitude": 7.78417
    },
    {
        "name": "Костный мозг",
        "latitude": 47.55492,
        "longitude": 8.02182
    },
    {
        "name": "Мурр",
        "latitude": 48.96207,
        "longitude": 9.25924
    },
    {
        "name": "Муррхардт",
        "latitude": 48.98191,
        "longitude": 9.57047
    },
    {
        "name": "Мутланген",
        "latitude": 48.82588,
        "longitude": 9.79714
    },
    {
        "name": "Нагольд",
        "latitude": 48.5498,
        "longitude": 8.72366
    },
    {
        "name": "Натхайм",
        "latitude": 48.69963,
        "longitude": 10.24209
    },
    {
        "name": "Неккарбишофсхайм",
        "latitude": 49.29625,
        "longitude": 8.9638
    },
    {
        "name": "Неккаргемюнд",
        "latitude": 49.38899,
        "longitude": 8.7959
    },
    {
        "name": "Неккаргерах",
        "latitude": 49.4,
        "longitude": 9.06667
    },
    {
        "name": "Неккарзульм",
        "latitude": 49.18912,
        "longitude": 9.22527
    },
    {
        "name": "Неккартайльфинген",
        "latitude": 48.61172,
        "longitude": 9.26371
    },
    {
        "name": "Неккартенцлинген",
        "latitude": 48.58981,
        "longitude": 9.23478
    },
    {
        "name": "Неккарвестхайм",
        "latitude": 49.04694,
        "longitude": 9.19
    },
    {
        "name": "Неккар номера",
        "latitude": 49.31917,
        "longitude": 9.13278
    },
    {
        "name": "Нерен",
        "latitude": 48.43097,
        "longitude": 9.0699
    },
    {
        "name": "Найденштейн",
        "latitude": 49.31667,
        "longitude": 8.88472
    },
    {
        "name": "Найдлинген",
        "latitude": 48.57865,
        "longitude": 9.56454
    },
    {
        "name": "Неллинген",
        "latitude": 48.54196,
        "longitude": 9.79053
    },
    {
        "name": "Нересхайм",
        "latitude": 48.75511,
        "longitude": 10.33041
    },
    {
        "name": "Нойбулах",
        "latitude": 48.66092,
        "longitude": 8.69611
    },
    {
        "name": "Нойденау",
        "latitude": 49.29181,
        "longitude": 9.26975
    },
    {
        "name": "Нойенбург",
        "latitude": 48.84516,
        "longitude": 8.59574
    },
    {
        "name": "Невшатель на Рейне",
        "latitude": 47.81431,
        "longitude": 7.56005
    },
    {
        "name": "Нойенштадт-ам-Кохер",
        "latitude": 49.23498,
        "longitude": 9.33215
    },
    {
        "name": "Нойенштайн",
        "latitude": 49.2049,
        "longitude": 9.58
    },
    {
        "name": "Нойффен",
        "latitude": 48.5546,
        "longitude": 9.3755
    },
    {
        "name": "Нейфра",
        "latitude": 48.1288,
        "longitude": 9.47554
    },
    {
        "name": "Нойхаузен",
        "latitude": 48.7926,
        "longitude": 8.77649
    },
    {
        "name": "Нойхаузен на Фильдерне",
        "latitude": 48.68333,
        "longitude": 9.28333
    },
    {
        "name": "Нойкирх",
        "latitude": 47.65738,
        "longitude": 9.70333
    },
    {
        "name": "Нойлер",
        "latitude": 48.92803,
        "longitude": 10.06888
    },
    {
        "name": "Нойлюсхайм",
        "latitude": 49.29806,
        "longitude": 8.51833
    },
    {
        "name": "Нойнкирхен",
        "latitude": 49.38694,
        "longitude": 9.01056
    },
    {
        "name": "Нойвайлер",
        "latitude": 48.66667,
        "longitude": 8.6
    },
    {
        "name": "Нидерешах",
        "latitude": 48.13333,
        "longitude": 8.53333
    },
    {
        "name": "Нидернхолл",
        "latitude": 49.29516,
        "longitude": 9.61604
    },
    {
        "name": "Нидерштеттен",
        "latitude": 49.4,
        "longitude": 9.91944
    },
    {
        "name": "Нидерштотцинген",
        "latitude": 48.54127,
        "longitude": 10.23505
    },
    {
        "name": "Нидерванген",
        "latitude": 47.67192,
        "longitude": 9.7988
    },
    {
        "name": "Ниферн-Эшельбронн",
        "latitude": 48.91667,
        "longitude": 8.78333
    },
    {
        "name": "Нордхайм",
        "latitude": 49.10861,
        "longitude": 9.12778
    },
    {
        "name": "Нордрах",
        "latitude": 48.4,
        "longitude": 8.08333
    },
    {
        "name": "Нотцинген",
        "latitude": 48.67076,
        "longitude": 9.45721
    },
    {
        "name": "Нуфринген",
        "latitude": 48.62253,
        "longitude": 8.89009
    },
    {
        "name": "Нюртинген",
        "latitude": 48.62565,
        "longitude": 9.34203
    },
    {
        "name": "Нуслох",
        "latitude": 49.32389,
        "longitude": 8.69556
    },
    {
        "name": "Обербойхинген",
        "latitude": 48.65,
        "longitude": 9.36667
    },
    {
        "name": "Обердердинген",
        "latitude": 49.06556,
        "longitude": 8.80306
    },
    {
        "name": "Обердишинген",
        "latitude": 48.3,
        "longitude": 9.83333
    },
    {
        "name": "Оберхармерсбах",
        "latitude": 48.37358,
        "longitude": 8.12542
    },
    {
        "name": "Оберхаузен-Райнхаузен",
        "latitude": 49.27389,
        "longitude": 8.47167
    },
    {
        "name": "Обереттинген",
        "latitude": 48.57468,
        "longitude": 8.77636
    },
    {
        "name": "Оберкирх",
        "latitude": 48.53241,
        "longitude": 8.07864
    },
    {
        "name": "Оберкохен",
        "latitude": 48.78379,
        "longitude": 10.10519
    },
    {
        "name": "Обермархталь",
        "latitude": 48.23279,
        "longitude": 9.57235
    },
    {
        "name": "Оберндорф",
        "latitude": 48.2905,
        "longitude": 8.57221
    },
    {
        "name": "Обернхайм",
        "latitude": 48.16297,
        "longitude": 8.86113
    },
    {
        "name": "Оберрайхенбах",
        "latitude": 48.73333,
        "longitude": 8.66667
    },
    {
        "name": "Оберрид",
        "latitude": 47.93333,
        "longitude": 7.95
    },
    {
        "name": "Оберриексинген",
        "latitude": 48.92652,
        "longitude": 9.02701
    },
    {
        "name": "Верхний красный",
        "latitude": 49.01444,
        "longitude": 9.66722
    },
    {
        "name": "Оберротвайль",
        "latitude": 48.0899,
        "longitude": 7.63601
    },
    {
        "name": "Оберсонхайм",
        "latitude": 49.05667,
        "longitude": 9.89917
    },
    {
        "name": "Оберштадион",
        "latitude": 48.18596,
        "longitude": 9.69241
    },
    {
        "name": "Оберстенфельд",
        "latitude": 49.02611,
        "longitude": 9.32083
    },
    {
        "name": "Обертойринген",
        "latitude": 47.72409,
        "longitude": 9.46979
    },
    {
        "name": "Обервольфах",
        "latitude": 48.31667,
        "longitude": 8.21667
    },
    {
        "name": "Обригхайм",
        "latitude": 49.35194,
        "longitude": 9.09083
    },
    {
        "name": "Оксенхаузен",
        "latitude": 48.07029,
        "longitude": 9.9503
    },
    {
        "name": "Отек",
        "latitude": 49.24028,
        "longitude": 9.25333
    },
    {
        "name": "Оффенау",
        "latitude": 49.24583,
        "longitude": 9.16056
    },
    {
        "name": "Оффенбург",
        "latitude": 48.47377,
        "longitude": 7.94495
    },
    {
        "name": "Офтердинген",
        "latitude": 48.41667,
        "longitude": 9.03333
    },
    {
        "name": "Офтерсхайм",
        "latitude": 49.36528,
        "longitude": 8.58306
    },
    {
        "name": "Ольсбах",
        "latitude": 48.43222,
        "longitude": 7.99384
    },
    {
        "name": "Омден",
        "latitude": 48.64599,
        "longitude": 9.52698
    },
    {
        "name": "Открытие",
        "latitude": 47.66186,
        "longitude": 8.88674
    },
    {
        "name": "Эринген",
        "latitude": 49.19884,
        "longitude": 9.5072
    },
    {
        "name": "Ольбронн-Дюррн",
        "latitude": 48.96667,
        "longitude": 8.75
    },
    {
        "name": "Открытый палец",
        "latitude": 48.28636,
        "longitude": 9.80259
    },
    {
        "name": "Оппенау",
        "latitude": 48.47332,
        "longitude": 8.1597
    },
    {
        "name": "Оппенвейлер",
        "latitude": 48.9827,
        "longitude": 9.4585
    },
    {
        "name": "Орсинген-Ненцинген",
        "latitude": 47.84272,
        "longitude": 8.95909
    },
    {
        "name": "Ортенберг",
        "latitude": 48.45158,
        "longitude": 7.97178
    },
    {
        "name": "Остельсхайм",
        "latitude": 48.72633,
        "longitude": 8.84816
    },
    {
        "name": "Остербуркен",
        "latitude": 49.42997,
        "longitude": 9.42252
    },
    {
        "name": "Остфильдерн",
        "latitude": 48.72704,
        "longitude": 9.24954
    },
    {
        "name": "Острах",
        "latitude": 47.95,
        "longitude": 9.38333
    },
    {
        "name": "Восточное кольцо",
        "latitude": 49.21911,
        "longitude": 8.71192
    },
    {
        "name": "Отигхайм",
        "latitude": 48.89085,
        "longitude": 8.23442
    },
    {
        "name": "Отисхайм",
        "latitude": 48.96667,
        "longitude": 8.8
    },
    {
        "name": "Оттенбах",
        "latitude": 48.73649,
        "longitude": 9.74844
    },
    {
        "name": "Оттенхофен",
        "latitude": 48.7356,
        "longitude": 8.12981
    },
    {
        "name": "Оттерсвейлер",
        "latitude": 48.67022,
        "longitude": 8.11323
    },
    {
        "name": "Оуэн",
        "latitude": 48.58742,
        "longitude": 9.44978
    },
    {
        "name": "Овинген",
        "latitude": 47.80967,
        "longitude": 9.17173
    },
    {
        "name": "Пфаффенхофен",
        "latitude": 49.06444,
        "longitude": 8.97639
    },
    {
        "name": "Пфаффенвайлер",
        "latitude": 47.93333,
        "longitude": 7.75
    },
    {
        "name": "Пфальцграфенвайлер",
        "latitude": 48.5265,
        "longitude": 8.56582
    },
    {
        "name": "Пфедельбах",
        "latitude": 49.17806,
        "longitude": 9.505
    },
    {
        "name": "Пфорцхайм",
        "latitude": 48.88436,
        "longitude": 8.69892
    },
    {
        "name": "Пфронштеттен",
        "latitude": 48.27641,
        "longitude": 9.35995
    },
    {
        "name": "Пфуллендорф",
        "latitude": 47.9261,
        "longitude": 9.2578
    },
    {
        "name": "Пфуллинген",
        "latitude": 48.46458,
        "longitude": 9.22796
    },
    {
        "name": "Филипсбург",
        "latitude": 49.2317,
        "longitude": 8.46074
    },
    {
        "name": "Планкштадт",
        "latitude": 49.39444,
        "longitude": 8.59611
    },
    {
        "name": "Плейдельсхайм",
        "latitude": 48.9592,
        "longitude": 9.20311
    },
    {
        "name": "Плижаузен",
        "latitude": 48.55934,
        "longitude": 9.20749
    },
    {
        "name": "Плохинген",
        "latitude": 48.71067,
        "longitude": 9.41949
    },
    {
        "name": "Плюдерхаузен",
        "latitude": 48.79875,
        "longitude": 9.59587
    },
    {
        "name": "Радольфцелль",
        "latitude": 47.74194,
        "longitude": 8.97098
    },
    {
        "name": "таран",
        "latitude": 48.51814,
        "longitude": 10.17197
    },
    {
        "name": "Рейтинг вещей",
        "latitude": 48.38168,
        "longitude": 8.8894
    },
    {
        "name": "Раштатт",
        "latitude": 48.85851,
        "longitude": 8.20965
    },
    {
        "name": "Рауенберг",
        "latitude": 49.26943,
        "longitude": 8.70344
    },
    {
        "name": "Равенсбург",
        "latitude": 47.78198,
        "longitude": 9.61062
    },
    {
        "name": "Рехбергхаузен",
        "latitude": 48.7308,
        "longitude": 9.64419
    },
    {
        "name": "Штутгарт административный округ",
        "latitude": 49.08333,
        "longitude": 9.66667
    },
    {
        "name": "Райхартсхаузен",
        "latitude": 49.355,
        "longitude": 8.94528
    },
    {
        "name": "Райхенау",
        "latitude": 47.68885,
        "longitude": 9.06355
    },
    {
        "name": "Райхенбах-ан-дер-Филс",
        "latitude": 48.71011,
        "longitude": 9.46429
    },
    {
        "name": "Перила",
        "latitude": 49.29833,
        "longitude": 8.56417
    },
    {
        "name": "Ренхен",
        "latitude": 48.5885,
        "longitude": 8.01321
    },
    {
        "name": "Реннинген",
        "latitude": 48.76974,
        "longitude": 8.93871
    },
    {
        "name": "Ройтлинген",
        "latitude": 48.49144,
        "longitude": 9.20427
    },
    {
        "name": "Райнау",
        "latitude": 48.66602,
        "longitude": 7.93659
    },
    {
        "name": "Райнфельден",
        "latitude": 47.56013,
        "longitude": 7.78715
    },
    {
        "name": "Райнштеттен",
        "latitude": 48.9685,
        "longitude": 8.30704
    },
    {
        "name": "Рикенбах",
        "latitude": 47.61895,
        "longitude": 7.97873
    },
    {
        "name": "Ридерих",
        "latitude": 48.56029,
        "longitude": 9.26883
    },
    {
        "name": "Ридлинген",
        "latitude": 48.15455,
        "longitude": 9.47558
    },
    {
        "name": "Ригель",
        "latitude": 48.15111,
        "longitude": 7.74915
    },
    {
        "name": "Рилазинген-Ворблинген",
        "latitude": 47.73465,
        "longitude": 8.84013
    },
    {
        "name": "Ритхайм-Вайльхайм",
        "latitude": 48.01667,
        "longitude": 8.76667
    },
    {
        "name": "Рингсхайм",
        "latitude": 48.24765,
        "longitude": 7.77823
    },
    {
        "name": "Рордорф",
        "latitude": 48.56667,
        "longitude": 8.7
    },
    {
        "name": "Ройгхайм",
        "latitude": 49.36472,
        "longitude": 9.34
    },
    {
        "name": "Розенберг",
        "latitude": 49.01892,
        "longitude": 10.0296
    },
    {
        "name": "Розенфельд",
        "latitude": 48.28639,
        "longitude": 8.72357
    },
    {
        "name": "Гниль",
        "latitude": 47.92278,
        "longitude": 9.10485
    },
    {
        "name": "Рот-ам-Зее",
        "latitude": 49.25,
        "longitude": 10.01667
    },
    {
        "name": "Роттенакер",
        "latitude": 48.23485,
        "longitude": 9.68956
    },
    {
        "name": "Роттенбург",
        "latitude": 48.47629,
        "longitude": 8.93528
    },
    {
        "name": "Ротвайль",
        "latitude": 48.16783,
        "longitude": 8.62719
    },
    {
        "name": "Рудерсберг",
        "latitude": 48.88515,
        "longitude": 9.52927
    },
    {
        "name": "Рюмминген",
        "latitude": 47.6412,
        "longitude": 7.64198
    },
    {
        "name": "Руппертсхофен",
        "latitude": 48.88275,
        "longitude": 9.81506
    },
    {
        "name": "Ржавчина",
        "latitude": 48.26667,
        "longitude": 7.73333
    },
    {
        "name": "Рутесхайм",
        "latitude": 48.80808,
        "longitude": 8.94536
    },
    {
        "name": "Заксенхайм",
        "latitude": 48.96,
        "longitude": 9.06472
    },
    {
        "name": "Грязный",
        "latitude": 48.69198,
        "longitude": 9.73715
    },
    {
        "name": "Салем",
        "latitude": 47.76258,
        "longitude": 9.29031
    },
    {
        "name": "Зандхаузен",
        "latitude": 49.34278,
        "longitude": 8.65917
    },
    {
        "name": "Сен-Блазиен",
        "latitude": 47.76252,
        "longitude": 8.12714
    },
    {
        "name": "Святой Георген в Шварцвальде",
        "latitude": 48.12716,
        "longitude": 8.33513
    },
    {
        "name": "Сент-Джон",
        "latitude": 48.45397,
        "longitude": 9.34396
    },
    {
        "name": "Санкт-Леон-Рот",
        "latitude": 49.26593,
        "longitude": 8.61803
    },
    {
        "name": "Санкт-Марген",
        "latitude": 48.00805,
        "longitude": 8.09283
    },
    {
        "name": "Святой Петр",
        "latitude": 48.01475,
        "longitude": 8.03294
    },
    {
        "name": "Засбах",
        "latitude": 48.63971,
        "longitude": 8.09375
    },
    {
        "name": "Засбахвальден",
        "latitude": 48.61667,
        "longitude": 8.13333
    },
    {
        "name": "Заттельдорф",
        "latitude": 49.16953,
        "longitude": 10.07957
    },
    {
        "name": "Заульдорф",
        "latitude": 47.94371,
        "longitude": 9.10833
    },
    {
        "name": "Саулгау",
        "latitude": 48.01676,
        "longitude": 9.50064
    },
    {
        "name": "Соник Сити",
        "latitude": 47.95855,
        "longitude": 7.75755
    },
    {
        "name": "Шехинген",
        "latitude": 48.87341,
        "longitude": 9.91744
    },
    {
        "name": "Шеер",
        "latitude": 48.07292,
        "longitude": 9.29486
    },
    {
        "name": "Шельклинген",
        "latitude": 48.37575,
        "longitude": 9.73273
    },
    {
        "name": "Шенкенцелль",
        "latitude": 48.31202,
        "longitude": 8.37212
    },
    {
        "name": "Шильтах",
        "latitude": 48.28932,
        "longitude": 8.34169
    },
    {
        "name": "Шлайтдорф",
        "latitude": 48.60431,
        "longitude": 9.22268
    },
    {
        "name": "Шлат",
        "latitude": 48.65321,
        "longitude": 9.70625
    },
    {
        "name": "Улитки",
        "latitude": 47.75698,
        "longitude": 7.57645
    },
    {
        "name": "Шлиер",
        "latitude": 47.77004,
        "longitude": 9.67354
    },
    {
        "name": "Шлирбах",
        "latitude": 48.67362,
        "longitude": 9.51811
    },
    {
        "name": "Шлухзее",
        "latitude": 47.81667,
        "longitude": 8.18333
    },
    {
        "name": "Шнурпфлинген",
        "latitude": 48.2728,
        "longitude": 9.99292
    },
    {
        "name": "Шомберг",
        "latitude": 48.78713,
        "longitude": 8.64495
    },
    {
        "name": "Шонах в Шварцвальде",
        "latitude": 48.14229,
        "longitude": 8.20289
    },
    {
        "name": "Шенайх",
        "latitude": 48.65871,
        "longitude": 9.06012
    },
    {
        "name": "Шенау",
        "latitude": 49.43665,
        "longitude": 8.8088
    },
    {
        "name": "Шенау в Шварцвальде",
        "latitude": 47.78623,
        "longitude": 7.89445
    },
    {
        "name": "Шенвальд",
        "latitude": 48.10549,
        "longitude": 8.20387
    },
    {
        "name": "Шопфхайм",
        "latitude": 47.65105,
        "longitude": 7.82089
    },
    {
        "name": "Шопфлох",
        "latitude": 48.45477,
        "longitude": 8.55131
    },
    {
        "name": "Шорндорф",
        "latitude": 48.80537,
        "longitude": 9.52721
    },
    {
        "name": "Шрамберг",
        "latitude": 48.22399,
        "longitude": 8.38583
    },
    {
        "name": "Шрисхайм",
        "latitude": 49.47372,
        "longitude": 8.6636
    },
    {
        "name": "Шрозберг",
        "latitude": 49.34528,
        "longitude": 9.97944
    },
    {
        "name": "Шуттерталь",
        "latitude": 48.26667,
        "longitude": 7.95
    },
    {
        "name": "Шуттервальд",
        "latitude": 48.45,
        "longitude": 7.88333
    },
    {
        "name": "Швебиш-Гмунд",
        "latitude": 48.79947,
        "longitude": 9.79809
    },
    {
        "name": "Швебиш-Халль",
        "latitude": 49.11127,
        "longitude": 9.73908
    },
    {
        "name": "Швайгерн",
        "latitude": 49.14494,
        "longitude": 9.05525
    },
    {
        "name": "Швайкхайм",
        "latitude": 48.87733,
        "longitude": 9.34958
    },
    {
        "name": "Шванау",
        "latitude": 48.36669,
        "longitude": 7.76244
    },
    {
        "name": "Шварцах",
        "latitude": 48.74738,
        "longitude": 8.03738
    },
    {
        "name": "Швенди",
        "latitude": 48.17424,
        "longitude": 9.97541
    },
    {
        "name": "Швеннинген",
        "latitude": 48.1,
        "longitude": 9.0
    },
    {
        "name": "Шветцинген",
        "latitude": 49.38217,
        "longitude": 8.5823
    },
    {
        "name": "Швибердинген",
        "latitude": 48.87644,
        "longitude": 9.07439
    },
    {
        "name": "Швёрштадт",
        "latitude": 47.59314,
        "longitude": 7.8784
    },
    {
        "name": "Секи",
        "latitude": 49.44222,
        "longitude": 9.33417
    },
    {
        "name": "Зеебах",
        "latitude": 48.57621,
        "longitude": 8.17048
    },
    {
        "name": "Зеедорф",
        "latitude": 48.24908,
        "longitude": 8.48993
    },
    {
        "name": "Зильбах",
        "latitude": 48.31055,
        "longitude": 7.94069
    },
    {
        "name": "Поверхность Зайтингена",
        "latitude": 48.01667,
        "longitude": 8.71667
    },
    {
        "name": "Серсхайм",
        "latitude": 48.96667,
        "longitude": 9.01667
    },
    {
        "name": "Сексау",
        "latitude": 48.10209,
        "longitude": 7.90757
    },
    {
        "name": "Зикенхаузен",
        "latitude": 48.53252,
        "longitude": 9.18114
    },
    {
        "name": "Зигельсбах",
        "latitude": 49.26972,
        "longitude": 9.08972
    },
    {
        "name": "Зигмаринген",
        "latitude": 48.08829,
        "longitude": 9.23033
    },
    {
        "name": "Зигмарингендорф",
        "latitude": 48.06586,
        "longitude": 9.26208
    },
    {
        "name": "Зиммерсфельд",
        "latitude": 48.61667,
        "longitude": 8.51667
    },
    {
        "name": "Симможхайм",
        "latitude": 48.75127,
        "longitude": 8.81142
    },
    {
        "name": "Зиндельфинген",
        "latitude": 48.7,
        "longitude": 9.01667
    },
    {
        "name": "Петь",
        "latitude": 47.75935,
        "longitude": 8.8403
    },
    {
        "name": "Зинсхайм",
        "latitude": 49.2529,
        "longitude": 8.87867
    },
    {
        "name": "Зинцхайм",
        "latitude": 48.76667,
        "longitude": 8.16667
    },
    {
        "name": "Потомство",
        "latitude": 47.79678,
        "longitude": 9.09737
    },
    {
        "name": "Продал",
        "latitude": 47.93333,
        "longitude": 7.81667
    },
    {
        "name": "Зонтхайм-ан-дер-Бренц",
        "latitude": 48.55235,
        "longitude": 10.29097
    },
    {
        "name": "Шпайхинген",
        "latitude": 48.07477,
        "longitude": 8.73508
    },
    {
        "name": "Шпехбах",
        "latitude": 49.34639,
        "longitude": 8.88333
    },
    {
        "name": "Шпигельберг",
        "latitude": 49.04083,
        "longitude": 9.44444
    },
    {
        "name": "Шпратбах",
        "latitude": 48.88065,
        "longitude": 9.76217
    },
    {
        "name": "Палка",
        "latitude": 48.29998,
        "longitude": 9.99138
    },
    {
        "name": "Штауфен",
        "latitude": 47.75686,
        "longitude": 8.21078
    },
    {
        "name": "Штеген",
        "latitude": 47.98333,
        "longitude": 7.96667
    },
    {
        "name": "Штайнах",
        "latitude": 48.3,
        "longitude": 8.05
    },
    {
        "name": "Камень",
        "latitude": 47.64446,
        "longitude": 7.73914
    },
    {
        "name": "Штайненбронн",
        "latitude": 48.66667,
        "longitude": 9.11667
    },
    {
        "name": "Штайнхайм-ам-Альбух",
        "latitude": 48.6909,
        "longitude": 10.06382
    },
    {
        "name": "Штайнхайм-ам-дер-Мурр",
        "latitude": 48.96821,
        "longitude": 9.27708
    },
    {
        "name": "Каменные стены",
        "latitude": 48.90095,
        "longitude": 8.19692
    },
    {
        "name": "Штайслинген",
        "latitude": 47.8,
        "longitude": 8.93333
    },
    {
        "name": "Штерненфельс",
        "latitude": 49.05139,
        "longitude": 8.85083
    },
    {
        "name": "Штеттен-ам-Кальтен-Маркт",
        "latitude": 48.12419,
        "longitude": 9.07775
    },
    {
        "name": "Стимпфах",
        "latitude": 49.06135,
        "longitude": 10.09274
    },
    {
        "name": "Штокач",
        "latitude": 47.85105,
        "longitude": 9.0091
    },
    {
        "name": "Опоры",
        "latitude": 49.0,
        "longitude": 10.3
    },
    {
        "name": "Штрасберг",
        "latitude": 48.17805,
        "longitude": 9.09059
    },
    {
        "name": "Штюлинген",
        "latitude": 47.7458,
        "longitude": 8.44813
    },
    {
        "name": "Штутгарт",
        "latitude": 48.78232,
        "longitude": 9.17702
    },
    {
        "name": "Штутгарт Фейербах",
        "latitude": 48.80867,
        "longitude": 9.15719
    },
    {
        "name": "Штутгарт Мюльхаузен",
        "latitude": 48.84232,
        "longitude": 9.23028
    },
    {
        "name": "Штутгарт Восток",
        "latitude": 48.78363,
        "longitude": 9.21032
    },
    {
        "name": "Зульц-на-Неккаре",
        "latitude": 48.36241,
        "longitude": 8.63309
    },
    {
        "name": "Зульцбах-ан-дер-Мурр",
        "latitude": 49.00303,
        "longitude": 9.5003
    },
    {
        "name": "Зульцбург",
        "latitude": 47.84116,
        "longitude": 7.70777
    },
    {
        "name": "Зульцфельд",
        "latitude": 49.10472,
        "longitude": 8.85583
    },
    {
        "name": "Сладости",
        "latitude": 48.67934,
        "longitude": 9.75534
    },
    {
        "name": "Таферрот",
        "latitude": 48.84972,
        "longitude": 9.83824
    },
    {
        "name": "Тальхайм",
        "latitude": 49.08333,
        "longitude": 9.19306
    },
    {
        "name": "Тамм",
        "latitude": 48.91988,
        "longitude": 9.11556
    },
    {
        "name": "Таннхаузен",
        "latitude": 48.9787,
        "longitude": 10.36129
    },
    {
        "name": "Тангейм",
        "latitude": 48.0,
        "longitude": 10.08333
    },
    {
        "name": "Таубербишофсхайм",
        "latitude": 49.62472,
        "longitude": 9.66278
    },
    {
        "name": "Тенген",
        "latitude": 47.82128,
        "longitude": 8.66117
    },
    {
        "name": "Тенинген",
        "latitude": 48.12952,
        "longitude": 7.81205
    },
    {
        "name": "Тенненбронн",
        "latitude": 48.19041,
        "longitude": 8.35176
    },
    {
        "name": "Теттнанг",
        "latitude": 47.66857,
        "longitude": 9.59132
    },
    {
        "name": "Тифенбронн",
        "latitude": 48.82398,
        "longitude": 8.80129
    },
    {
        "name": "Титизее-Нойштадт",
        "latitude": 47.92104,
        "longitude": 8.19063
    },
    {
        "name": "Тодтмос",
        "latitude": 47.74014,
        "longitude": 8.00183
    },
    {
        "name": "Тодтнау",
        "latitude": 47.82941,
        "longitude": 7.9438
    },
    {
        "name": "Триберг",
        "latitude": 48.13175,
        "longitude": 8.23317
    },
    {
        "name": "Отсчет",
        "latitude": 48.30843,
        "longitude": 9.24491
    },
    {
        "name": "Троссинген",
        "latitude": 48.07667,
        "longitude": 8.64409
    },
    {
        "name": "Тюбинген",
        "latitude": 48.52266,
        "longitude": 9.05222
    },
    {
        "name": "Тюбингенский регион",
        "latitude": 48.16667,
        "longitude": 9.5
    },
    {
        "name": "Тюнинг",
        "latitude": 48.03333,
        "longitude": 8.6
    },
    {
        "name": "Туттлинген",
        "latitude": 47.98464,
        "longitude": 8.8177
    },
    {
        "name": "Юберлинген",
        "latitude": 47.76977,
        "longitude": 9.17136
    },
    {
        "name": "Пруд Убштадт",
        "latitude": 49.16296,
        "longitude": 8.63165
    },
    {
        "name": "Ухинген",
        "latitude": 48.70475,
        "longitude": 9.5857
    },
    {
        "name": "Ульдинген-Мюльхофен",
        "latitude": 47.73333,
        "longitude": 9.25
    },
    {
        "name": "Юлинген-Биркендорф",
        "latitude": 47.71667,
        "longitude": 8.31667
    },
    {
        "name": "Ульм",
        "latitude": 48.39841,
        "longitude": 9.99155
    },
    {
        "name": "Умкирх",
        "latitude": 48.03333,
        "longitude": 7.76667
    },
    {
        "name": "Уммендорф",
        "latitude": 48.06667,
        "longitude": 9.83333
    },
    {
        "name": "юноша",
        "latitude": 48.16734,
        "longitude": 9.52219
    },
    {
        "name": "Унтерайзесхайм",
        "latitude": 49.21111,
        "longitude": 9.20194
    },
    {
        "name": "Унтеренсинген",
        "latitude": 48.65452,
        "longitude": 9.35799
    },
    {
        "name": "Подгруппа потока",
        "latitude": 49.0894,
        "longitude": 9.27516
    },
    {
        "name": "Унтерхаузен",
        "latitude": 48.4298,
        "longitude": 9.25504
    },
    {
        "name": "Унтерьеттинген",
        "latitude": 48.5623,
        "longitude": 8.78445
    },
    {
        "name": "Унтеркирнах",
        "latitude": 48.07946,
        "longitude": 8.36575
    },
    {
        "name": "Унтеркроцинген",
        "latitude": 47.91933,
        "longitude": 7.69045
    },
    {
        "name": "Унтермюнкхайм",
        "latitude": 49.15255,
        "longitude": 9.73384
    },
    {
        "name": "Унтеррайхенбах",
        "latitude": 48.82496,
        "longitude": 8.70885
    },
    {
        "name": "Унтершнайдхайм",
        "latitude": 48.93333,
        "longitude": 10.36667
    },
    {
        "name": "Урбах",
        "latitude": 48.8168,
        "longitude": 9.5769
    },
    {
        "name": "Уттенвейлер",
        "latitude": 48.15,
        "longitude": 9.61667
    },
    {
        "name": "Файхинген-ан-дер-Энц",
        "latitude": 48.93563,
        "longitude": 8.96045
    },
    {
        "name": "Фельберг",
        "latitude": 49.0843,
        "longitude": 9.87914
    },
    {
        "name": "Верингенштадт",
        "latitude": 48.18515,
        "longitude": 9.21079
    },
    {
        "name": "Филлинген-Швеннинген",
        "latitude": 48.06226,
        "longitude": 8.49358
    },
    {
        "name": "Филлингендорф",
        "latitude": 48.2,
        "longitude": 8.58333
    },
    {
        "name": "Фогт",
        "latitude": 47.76667,
        "longitude": 9.76667
    },
    {
        "name": "Фогтсбург",
        "latitude": 48.09688,
        "longitude": 7.64185
    },
    {
        "name": "Ференбах",
        "latitude": 48.05,
        "longitude": 8.3
    },
    {
        "name": "Фёринген",
        "latitude": 48.33446,
        "longitude": 8.66392
    },
    {
        "name": "Фолькертсхаузен",
        "latitude": 47.81667,
        "longitude": 8.86667
    },
    {
        "name": "Колбасные изделия",
        "latitude": 48.06667,
        "longitude": 7.85
    },
    {
        "name": "Вагхаузель",
        "latitude": 49.24991,
        "longitude": 8.51257
    },
    {
        "name": "Вайблинген",
        "latitude": 48.83241,
        "longitude": 9.31641
    },
    {
        "name": "Вайбштадт",
        "latitude": 49.29505,
        "longitude": 8.91771
    },
    {
        "name": "Уэйн",
        "latitude": 48.18904,
        "longitude": 10.0209
    },
    {
        "name": "Вальд",
        "latitude": 47.93333,
        "longitude": 9.16667
    },
    {
        "name": "Вальдбург",
        "latitude": 47.7571,
        "longitude": 9.71342
    },
    {
        "name": "Вальденбух",
        "latitude": 48.6383,
        "longitude": 9.13256
    },
    {
        "name": "Вальденбург",
        "latitude": 49.18468,
        "longitude": 9.63994
    },
    {
        "name": "Вальдкирх",
        "latitude": 48.09585,
        "longitude": 7.96371
    },
    {
        "name": "Вальдсхут-Тинген",
        "latitude": 47.62323,
        "longitude": 8.21717
    },
    {
        "name": "Вальдштеттен",
        "latitude": 48.76615,
        "longitude": 9.82135
    },
    {
        "name": "Вальхайм",
        "latitude": 49.01417,
        "longitude": 9.15111
    },
    {
        "name": "Вальдорф",
        "latitude": 49.30637,
        "longitude": 8.64236
    },
    {
        "name": "Вальдурн",
        "latitude": 49.58358,
        "longitude": 9.36642
    },
    {
        "name": "Вальхаузен",
        "latitude": 49.21042,
        "longitude": 10.06219
    },
    {
        "name": "щеки",
        "latitude": 47.6895,
        "longitude": 9.83247
    },
    {
        "name": "Ванвайль",
        "latitude": 48.51667,
        "longitude": 9.15
    },
    {
        "name": "Вартхаузен",
        "latitude": 48.12863,
        "longitude": 9.79749
    },
    {
        "name": "Вешенбойрен",
        "latitude": 48.75991,
        "longitude": 9.68735
    },
    {
        "name": "Страх",
        "latitude": 48.14533,
        "longitude": 8.79151
    },
    {
        "name": "Плотина",
        "latitude": 47.62983,
        "longitude": 7.90423
    },
    {
        "name": "Вайденштеттен",
        "latitude": 48.5525,
        "longitude": 9.9961
    },
    {
        "name": "Вайкерсхайм",
        "latitude": 49.47866,
        "longitude": 9.89977
    },
    {
        "name": "Потому что на Рейне",
        "latitude": 47.59331,
        "longitude": 7.62082
    },
    {
        "name": "Из-за города",
        "latitude": 48.74953,
        "longitude": 8.87176
    },
    {
        "name": "Потому что в Шёнбухе",
        "latitude": 48.6227,
        "longitude": 9.06355
    },
    {
        "name": "Вайльхайм",
        "latitude": 47.66667,
        "longitude": 8.23333
    },
    {
        "name": "Вайльхайм-ан-дер-Тек",
        "latitude": 48.61572,
        "longitude": 9.53751
    },
    {
        "name": "Вайнгартен",
        "latitude": 49.05457,
        "longitude": 8.52678
    },
    {
        "name": "Вайнхайм",
        "latitude": 49.54887,
        "longitude": 8.66697
    },
    {
        "name": "Вайнсберг",
        "latitude": 49.15127,
        "longitude": 9.28762
    },
    {
        "name": "Вайнштадт-Эндерсбах",
        "latitude": 48.81311,
        "longitude": 9.36387
    },
    {
        "name": "Вайзенбах",
        "latitude": 48.72757,
        "longitude": 8.35378
    },
    {
        "name": "Вайссах",
        "latitude": 48.84687,
        "longitude": 8.92828
    },
    {
        "name": "Вайсбах",
        "latitude": 49.29717,
        "longitude": 9.59531
    },
    {
        "name": "Вайсвайль",
        "latitude": 48.19939,
        "longitude": 7.67713
    },
    {
        "name": "Волнистые вещи",
        "latitude": 48.14745,
        "longitude": 8.70375
    },
    {
        "name": "Вельцхайм",
        "latitude": 48.87675,
        "longitude": 9.63434
    },
    {
        "name": "Вендлинген-на-Неккаре",
        "latitude": 48.67124,
        "longitude": 9.37632
    },
    {
        "name": "Вербах",
        "latitude": 49.67083,
        "longitude": 9.63944
    },
    {
        "name": "Ольха",
        "latitude": 48.69306,
        "longitude": 9.41533
    },
    {
        "name": "Вертхайм",
        "latitude": 49.759,
        "longitude": 9.50852
    },
    {
        "name": "Вестерхайм",
        "latitude": 48.51511,
        "longitude": 9.62424
    },
    {
        "name": "Вестерштеттен",
        "latitude": 48.51916,
        "longitude": 9.95494
    },
    {
        "name": "Вестхаузен",
        "latitude": 48.88333,
        "longitude": 10.18333
    },
    {
        "name": "Овен",
        "latitude": 49.31825,
        "longitude": 9.42209
    },
    {
        "name": "Вернсхайм",
        "latitude": 48.88333,
        "longitude": 8.85
    },
    {
        "name": "Визенбах",
        "latitude": 49.36139,
        "longitude": 8.80361
    },
    {
        "name": "Визенштайг",
        "latitude": 48.56127,
        "longitude": 9.6254
    },
    {
        "name": "Вислох",
        "latitude": 49.29504,
        "longitude": 8.69846
    },
    {
        "name": "Вильдберг",
        "latitude": 48.62336,
        "longitude": 8.74518
    },
    {
        "name": "Вильгельмсдорф",
        "latitude": 47.86612,
        "longitude": 9.42621
    },
    {
        "name": "Вильгельмсфельд",
        "latitude": 49.47056,
        "longitude": 8.75361
    },
    {
        "name": "Вильштетт",
        "latitude": 48.54071,
        "longitude": 7.89314
    },
    {
        "name": "Вимсхайм",
        "latitude": 48.85,
        "longitude": 8.83333
    },
    {
        "name": "Винненден",
        "latitude": 48.87563,
        "longitude": 9.39819
    },
    {
        "name": "Винтербах",
        "latitude": 48.79918,
        "longitude": 9.47914
    },
    {
        "name": "Винтерлинген",
        "latitude": 48.18333,
        "longitude": 9.11667
    },
    {
        "name": "Витнау",
        "latitude": 47.95,
        "longitude": 7.81667
    },
    {
        "name": "Вольфах",
        "latitude": 48.29319,
        "longitude": 8.2158
    },
    {
        "name": "Вольфегг",
        "latitude": 47.8203,
        "longitude": 9.79491
    },
    {
        "name": "Волчий удар",
        "latitude": 48.65,
        "longitude": 9.28333
    },
    {
        "name": "Вольпертсхаузен",
        "latitude": 49.1675,
        "longitude": 9.84472
    },
    {
        "name": "Вольпертсвенде",
        "latitude": 47.89471,
        "longitude": 9.61202
    },
    {
        "name": "Сусло",
        "latitude": 49.03047,
        "longitude": 10.27239
    },
    {
        "name": "Вйозинген",
        "latitude": 49.01205,
        "longitude": 8.60754
    },
    {
        "name": "Вюрмберг",
        "latitude": 48.86667,
        "longitude": 8.81667
    },
    {
        "name": "черви",
        "latitude": 48.0,
        "longitude": 8.78333
    },
    {
        "name": "Вюстенрот",
        "latitude": 49.08083,
        "longitude": 9.46056
    },
    {
        "name": "Вутёсиген",
        "latitude": 47.66019,
        "longitude": 8.36755
    },
    {
        "name": "Вайль",
        "latitude": 48.16617,
        "longitude": 7.64917
    },
    {
        "name": "Заберфельд",
        "latitude": 49.05611,
        "longitude": 8.92694
    },
    {
        "name": "Зайзенхаузен",
        "latitude": 49.10667,
        "longitude": 8.81278
    },
    {
        "name": "Целль",
        "latitude": 48.69235,
        "longitude": 8.06301
    },
    {
        "name": "Селл-им-Визенталь",
        "latitude": 47.70555,
        "longitude": 7.85248
    },
    {
        "name": "Камера под Айхельбергом",
        "latitude": 48.64882,
        "longitude": 9.57137
    },
    {
        "name": "Комнаты ли Ротвайль",
        "latitude": 48.1666,
        "longitude": 8.59436
    },
    {
        "name": "Цузенхаузен",
        "latitude": 49.29636,
        "longitude": 8.82254
    },
    {
        "name": "Сомнения",
        "latitude": 49.25639,
        "longitude": 9.51806
    },
    {
        "name": "Цвифальтен",
        "latitude": 48.23396,
        "longitude": 9.46232
    },
    {
        "name": "Абенберг",
        "latitude": 49.24282,
        "longitude": 10.96401
    },
    {
        "name": "Абенсберг",
        "latitude": 48.81684,
        "longitude": 11.8498
    },
    {
        "name": "Абсберг",
        "latitude": 49.14438,
        "longitude": 10.88101
    },
    {
        "name": "Случай",
        "latitude": 48.97171,
        "longitude": 12.93511
    },
    {
        "name": "Адельсдорф",
        "latitude": 49.47022,
        "longitude": 10.68522
    },
    {
        "name": "Адельсхофен",
        "latitude": 48.18333,
        "longitude": 11.11667
    },
    {
        "name": "Адельсрид",
        "latitude": 48.42465,
        "longitude": 10.71828
    },
    {
        "name": "Адельцхаузен",
        "latitude": 48.35671,
        "longitude": 11.13851
    },
    {
        "name": "Адлкофен",
        "latitude": 48.55,
        "longitude": 12.26667
    },
    {
        "name": "Аффинг",
        "latitude": 48.46667,
        "longitude": 10.98333
    },
    {
        "name": "Ахам",
        "latitude": 48.34821,
        "longitude": 12.16156
    },
    {
        "name": "Ахолфинг",
        "latitude": 48.94283,
        "longitude": 12.46857
    },
    {
        "name": "Ахольминг",
        "latitude": 48.73542,
        "longitude": 12.90997
    },
    {
        "name": "клен",
        "latitude": 50.23762,
        "longitude": 10.95417
    },
    {
        "name": "Айхах",
        "latitude": 48.45755,
        "longitude": 11.13413
    },
    {
        "name": "Айхен",
        "latitude": 48.22898,
        "longitude": 10.53949
    },
    {
        "name": "Айденбах",
        "latitude": 48.57028,
        "longitude": 13.09
    },
    {
        "name": "Айдхаузен",
        "latitude": 50.15,
        "longitude": 10.43333
    },
    {
        "name": "Айгсбах",
        "latitude": 48.69211,
        "longitude": 11.70831
    },
    {
        "name": "Айндлинг",
        "latitude": 48.5136,
        "longitude": 10.95315
    },
    {
        "name": "Айнринг",
        "latitude": 47.81311,
        "longitude": 12.94048
    },
    {
        "name": "Айслинген",
        "latitude": 48.50648,
        "longitude": 10.45778
    },
    {
        "name": "Айтранг",
        "latitude": 47.81667,
        "longitude": 10.53333
    },
    {
        "name": "Альбахинг",
        "latitude": 48.11011,
        "longitude": 12.11074
    },
    {
        "name": "Альбертсхофен",
        "latitude": 49.76667,
        "longitude": 10.16667
    },
    {
        "name": "Альдерсбах",
        "latitude": 48.58972,
        "longitude": 13.08971
    },
    {
        "name": "Алерхайм",
        "latitude": 48.85,
        "longitude": 10.61667
    },
    {
        "name": "Алешайм",
        "latitude": 49.04648,
        "longitude": 10.86496
    },
    {
        "name": "Алетхаузен",
        "latitude": 48.19859,
        "longitude": 10.38877
    },
    {
        "name": "Альфельд",
        "latitude": 49.43333,
        "longitude": 11.55
    },
    {
        "name": "Аллерсберг",
        "latitude": 49.25132,
        "longitude": 11.23659
    },
    {
        "name": "Аллерсхаузен",
        "latitude": 48.43333,
        "longitude": 11.6
    },
    {
        "name": "Все",
        "latitude": 48.14034,
        "longitude": 11.30144
    },
    {
        "name": "Альтдорф",
        "latitude": 49.3856,
        "longitude": 11.3573
    },
    {
        "name": "Альтеглофсхайм",
        "latitude": 48.91667,
        "longitude": 12.2
    },
    {
        "name": "Альтенбух",
        "latitude": 49.82861,
        "longitude": 9.40139
    },
    {
        "name": "Альтендорф",
        "latitude": 50.08424,
        "longitude": 11.16786
    },
    {
        "name": "Альтенкунштадт",
        "latitude": 50.12504,
        "longitude": 11.2503
    },