[
    {
        "name": "'Али Сабие",
        "latitude": 11.15583,
        "longitude": 42.7125
    },
    {
        "name": "Губетто",
        "latitude": 11.42389,
        "longitude": 43.00028
    },
    {
        "name": "Холхол",
        "latitude": 11.31028,
        "longitude": 42.92944
    },
    {
        "name": "Арта",
        "latitude": 11.52639,
        "longitude": 42.85194
    },
    {
        "name": "Дикхиль",
        "latitude": 11.10454,
        "longitude": 42.36971
    },
    {
        "name": "Галафи",
        "latitude": 11.71583,
        "longitude": 41.83611
    },
    {
        "name": "Джибути",
        "latitude": 11.58901,
        "longitude": 43.14503
    },
    {
        "name": "Лояда",
        "latitude": 11.46111,
        "longitude": 43.25278
    },
    {
        "name": "Алайли Садда",
        "latitude": 12.42167,
        "longitude": 42.89556
    },
    {
        "name": "Обок",
        "latitude": 11.96693,
        "longitude": 43.28835
    },
    {
        "name": "Дорра",
        "latitude": 12.15028,
        "longitude": 42.47624
    },
    {
        "name": "Таджура",
        "latitude": 11.78778,
        "longitude": 42.88222
    }
]