[
    {
        "name": "Но Красавица",
        "latitude": 11.15583,
        "longitude": 42.7125
    },
    {
        "name": "Губетто",
        "latitude": 11.42389,
        "longitude": 43.00028
    },
    {
        "name": "Холхол",
        "latitude": 11.31028,
        "longitude": 42.92944
    },
    {
        "name": "Искусство",
        "latitude": 11.52639,
        "longitude": 42.85194
    },
    {
        "name": "Дикхиль",
        "latitude": 11.10454,
        "longitude": 42.36971
    },
    {
        "name": "Галафи",
        "latitude": 11.71583,
        "longitude": 41.83611
    },
    {
        "name": "Джибуты",
        "latitude": 11.58901,
        "longitude": 43.14503
    },
    {
        "name": "Лойя",
        "latitude": 11.46111,
        "longitude": 43.25278
    },
    {
        "name": "Alailai Sadda '",
        "latitude": 12.42167,
        "longitude": 42.89556
    },
    {
        "name": "Вокруг",
        "latitude": 11.96693,
        "longitude": 43.28835
    },
    {
        "name": "Дора",
        "latitude": 12.15028,
        "longitude": 42.47624
    },
    {
        "name": "Таджура",
        "latitude": 11.78778,
        "longitude": 42.88222
    }
]