[
    {
        "name": "Bafat\u00e1",
        "latitude": 12.16583,
        "longitude": -14.66167
    },
    {
        "name": "Contuboel Sector",
        "latitude": 12.555,
        "longitude": -14.641
    },
    {
        "name": "Quinh\u00e1mel",
        "latitude": 11.88694,
        "longitude": -15.85556
    },
    {
        "name": "Bolama",
        "latitude": 11.57694,
        "longitude": -15.47611
    },
    {
        "name": "Bubaque",
        "latitude": 11.28333,
        "longitude": -15.83333
    },
    {
        "name": "Cacheu",
        "latitude": 12.27444,
        "longitude": -16.16528
    },
    {
        "name": "Canchungo",
        "latitude": 12.06722,
        "longitude": -16.03333
    },
    {
        "name": "Gab\u00fa",
        "latitude": 12.28,
        "longitude": -14.22222
    },
    {
        "name": "Bissor\u00e3",
        "latitude": 12.22306,
        "longitude": -15.4475
    },
    {
        "name": "Farim",
        "latitude": 12.48389,
        "longitude": -15.22167
    },
    {
        "name": "Mans\u00f4a",
        "latitude": 12.07333,
        "longitude": -15.31889
    },
    {
        "name": "Buba",
        "latitude": 11.58889,
        "longitude": -14.99583
    },
    {
        "name": "Cati\u00f3",
        "latitude": 11.2825,
        "longitude": -15.25472
    },
    {
        "name": "Quebo",
        "latitude": 11.33333,
        "longitude": -14.93333
    }
]