[
    {
        "name": "Бафата",
        "latitude": 12.16583,
        "longitude": -14.66167
    },
    {
        "name": "Сектор Контубоэль",
        "latitude": 12.555,
        "longitude": -14.641
    },
    {
        "name": "Кенамель",
        "latitude": 11.88694,
        "longitude": -15.85556
    },
    {
        "name": "Малыш",
        "latitude": 11.57694,
        "longitude": -15.47611
    },
    {
        "name": "И корова",
        "latitude": 11.28333,
        "longitude": -15.83333
    },
    {
        "name": "Каше",
        "latitude": 12.27444,
        "longitude": -16.16528
    },
    {
        "name": "Канчунго",
        "latitude": 12.06722,
        "longitude": -16.03333
    },
    {
        "name": "Габу",
        "latitude": 12.28,
        "longitude": -14.22222
    },
    {
        "name": "Биссора",
        "latitude": 12.22306,
        "longitude": -15.4475
    },
    {
        "name": "Фарим",
        "latitude": 12.48389,
        "longitude": -15.22167
    },
    {
        "name": "Мансоа",
        "latitude": 12.07333,
        "longitude": -15.31889
    },
    {
        "name": "Будь там",
        "latitude": 11.58889,
        "longitude": -14.99583
    },
    {
        "name": "катион",
        "latitude": 11.2825,
        "longitude": -15.25472
    },
    {
        "name": "Квебо",
        "latitude": 11.33333,
        "longitude": -14.93333
    }
]