[
    {
        "name": "Бамако",
        "latitude": 12.65,
        "longitude": -8.0
    },
    {
        "name": "Ансонги",
        "latitude": 15.6597,
        "longitude": 0.5022
    },
    {
        "name": "Серкль де Бурем",
        "latitude": 17.71192,
        "longitude": -0.34284
    },
    {
        "name": "Гао",
        "latitude": 16.27167,
        "longitude": -0.04472
    },
    {
        "name": "Гао Серкл",
        "latitude": 16.72237,
        "longitude": 0.43984
    },
    {
        "name": "Экипаж",
        "latitude": 15.95944,
        "longitude": 3.14111
    },
    {
        "name": "Бафулабе",
        "latitude": 13.8065,
        "longitude": -10.8321
    },
    {
        "name": "Кайес",
        "latitude": 14.44693,
        "longitude": -11.44448
    },
    {
        "name": "Мы",
        "latitude": 13.0349,
        "longitude": -9.4895
    },
    {
        "name": "Кокофата",
        "latitude": 12.88333,
        "longitude": -9.95
    },
    {
        "name": "Сагало",
        "latitude": 12.2,
        "longitude": -10.7
    },
    {
        "name": "Абейбара",
        "latitude": 19.11667,
        "longitude": 1.75
    },
    {
        "name": "Круг Абейбара",
        "latitude": 19.48878,
        "longitude": 2.20025
    },
    {
        "name": "Левша",
        "latitude": 18.44111,
        "longitude": 1.40778
    },
    {
        "name": "Они считают",
        "latitude": 13.54773,
        "longitude": -7.44808
    },
    {
        "name": "Краб",
        "latitude": 11.93333,
        "longitude": -8.41667
    },
    {
        "name": "Середина",
        "latitude": 12.74409,
        "longitude": -8.07257
    },
    {
        "name": "Раскраска",
        "latitude": 13.5728,
        "longitude": -8.0339
    },
    {
        "name": "Куликоро",
        "latitude": 12.86273,
        "longitude": -7.55985
    },
    {
        "name": "Бандиагара",
        "latitude": 14.35005,
        "longitude": -3.61038
    },
    {
        "name": "Дженне",
        "latitude": 13.90608,
        "longitude": -4.55332
    },
    {
        "name": "Дуэнца",
        "latitude": 15.00155,
        "longitude": -2.94978
    },
    {
        "name": "Дуэнца Серкль",
        "latitude": 15.06947,
        "longitude": -2.40875
    },
    {
        "name": "Мопти",
        "latitude": 14.4843,
        "longitude": -4.18296
    },
    {
        "name": "Тененка",
        "latitude": 14.45722,
        "longitude": -4.9169
    },
    {
        "name": "Баруэли",
        "latitude": 13.07489,
        "longitude": -6.57171
    },
    {
        "name": "Серкль де Сан",
        "latitude": 13.17895,
        "longitude": -5.01617
    },
    {
        "name": "Ке-Машина",
        "latitude": 13.9641,
        "longitude": -5.35791
    },
    {
        "name": "Кинмпарана",
        "latitude": 12.84217,
        "longitude": -4.9245
    },
    {
        "name": "Бренд",
        "latitude": 13.7021,
        "longitude": -6.0659
    },
    {
        "name": "Сан",
        "latitude": 13.30335,
        "longitude": -4.89562
    },
    {
        "name": "Сегу",
        "latitude": 13.4317,
        "longitude": -6.2157
    },
    {
        "name": "Сокол",
        "latitude": 14.7328,
        "longitude": -6.1219
    },
    {
        "name": "Бугуни",
        "latitude": 11.41769,
        "longitude": -7.48323
    },
    {
        "name": "Колондьеба",
        "latitude": 11.08943,
        "longitude": -6.8929
    },
    {
        "name": "Кутиала",
        "latitude": 12.39173,
        "longitude": -5.46421
    },
    {
        "name": "Коутиала Круг",
        "latitude": 12.35311,
        "longitude": -5.5839
    },
    {
        "name": "Нтоссони",
        "latitude": 12.5304,
        "longitude": -5.77003
    },
    {
        "name": "Сикассо",
        "latitude": 11.31755,
        "longitude": -5.66654
    },
    {
        "name": "Йороссо",
        "latitude": 12.35811,
        "longitude": -4.77688
    },
    {
        "name": "Арауан",
        "latitude": 18.90476,
        "longitude": -3.52649
    },
    {
        "name": "Серкль де Гундам",
        "latitude": 18.60035,
        "longitude": -4.99306
    },
    {
        "name": "Ужасный",
        "latitude": 16.28017,
        "longitude": -3.31302
    },
    {
        "name": "Гундам",
        "latitude": 16.41453,
        "longitude": -3.67075
    },
    {
        "name": "Круг Гурма-Рарус",
        "latitude": 16.07979,
        "longitude": -1.76981
    },
    {
        "name": "Ниафунке",
        "latitude": 15.9322,
        "longitude": -3.9906
    },
    {
        "name": "Тимбукту",
        "latitude": 16.77348,
        "longitude": -3.00742
    }
]