[
    {
        "name": "Tsetserleg",
        "latitude": 47.475,
        "longitude": 101.45417
    },
    {
        "name": "Altay",
        "latitude": 48.29359,
        "longitude": 89.51488
    },
    {
        "name": "\u00d6lgii",
        "latitude": 48.96833,
        "longitude": 89.9625
    },
    {
        "name": "Tsengel",
        "latitude": 48.94314,
        "longitude": 89.14358
    },
    {
        "name": "Bayanhongor",
        "latitude": 46.19444,
        "longitude": 100.71806
    },
    {
        "name": "Bulgan",
        "latitude": 48.8125,
        "longitude": 103.53472
    },
    {
        "name": "Darhan",
        "latitude": 49.48667,
        "longitude": 105.92278
    },
    {
        "name": "Choibalsan",
        "latitude": 48.07257,
        "longitude": 114.53264
    },
    {
        "name": "Ereencav",
        "latitude": 49.8807,
        "longitude": 115.72526
    },
    {
        "name": "Mandalgovi",
        "latitude": 45.7625,
        "longitude": 106.27083
    },
    {
        "name": "Altai",
        "latitude": 46.37222,
        "longitude": 96.25833
    },
    {
        "name": "Choyr",
        "latitude": 46.36111,
        "longitude": 108.36111
    },
    {
        "name": "Undurkhaan",
        "latitude": 47.31944,
        "longitude": 110.65556
    },
    {
        "name": "Khovd",
        "latitude": 48.00556,
        "longitude": 91.64194
    },
    {
        "name": "M\u00f6st",
        "latitude": 46.67712,
        "longitude": 92.78521
    },
    {
        "name": "\u00dcy\u00f6nch",
        "latitude": 46.04786,
        "longitude": 92.02612
    },
    {
        "name": "Hanh",
        "latitude": 51.50265,
        "longitude": 100.66395
    },
    {
        "name": "Murun-kuren",
        "latitude": 49.63417,
        "longitude": 100.1625
    },
    {
        "name": "Tsengel",
        "latitude": 49.47833,
        "longitude": 100.88944
    },
    {
        "name": "Turt",
        "latitude": 51.50725,
        "longitude": 100.66257
    },
    {
        "name": "Dalandzadgad",
        "latitude": 43.57083,
        "longitude": 104.425
    },
    {
        "name": "Hanhongor",
        "latitude": 43.77345,
        "longitude": 104.47998
    },
    {
        "name": "Nomgon Sum",
        "latitude": 42.41462,
        "longitude": 105.0564
    },
    {
        "name": "Erdenet",
        "latitude": 49.03333,
        "longitude": 104.08333
    },
    {
        "name": "Arvayheer",
        "latitude": 46.26389,
        "longitude": 102.775
    },
    {
        "name": "Harhorin",
        "latitude": 47.19753,
        "longitude": 102.82379
    },
    {
        "name": "Hovd",
        "latitude": 44.67024,
        "longitude": 102.17491
    },
    {
        "name": "Kharkhorin",
        "latitude": 47.19245,
        "longitude": 102.81349
    },
    {
        "name": "Nariynteel",
        "latitude": 45.9595,
        "longitude": 101.45977
    },
    {
        "name": "Dz\u00fc\u00fcnharaa",
        "latitude": 48.85229,
        "longitude": 106.45786
    },
    {
        "name": "S\u00fchbaatar",
        "latitude": 50.23139,
        "longitude": 106.20778
    },
    {
        "name": "Baruun-Urt",
        "latitude": 46.68056,
        "longitude": 113.27917
    },
    {
        "name": "Dzuunmod",
        "latitude": 47.70694,
        "longitude": 106.95278
    },
    {
        "name": "M\u00f6ng\u00f6nmor\u012dt",
        "latitude": 48.19504,
        "longitude": 108.48295
    },
    {
        "name": "Ulaanhudag",
        "latitude": 47.33333,
        "longitude": 104.5
    },
    {
        "name": "\u0417\u0443\u0443\u043d\u043c\u043e\u0434",
        "latitude": 47.70693,
        "longitude": 106.95276
    },
    {
        "name": "Ulaangom",
        "latitude": 49.98111,
        "longitude": 92.06667
    },
    {
        "name": "Uliastay",
        "latitude": 47.74167,
        "longitude": 96.84444
    }
]