[
    {
        "name": "Atar",
        "latitude": 20.5177,
        "longitude": -13.04857
    },
    {
        "name": "Azougui",
        "latitude": 20.56764,
        "longitude": -13.11191
    },
    {
        "name": "Chingue\u1e6d\u1e6di",
        "latitude": 20.463,
        "longitude": -12.362
    },
    {
        "name": "Ksar el Khali",
        "latitude": 20.93333333,
        "longitude": -11.61666667
    },
    {
        "name": "Bark\u00e9wol",
        "latitude": 16.64039,
        "longitude": -12.49849
    },
    {
        "name": "Kiffa",
        "latitude": 16.62073,
        "longitude": -11.40208
    },
    {
        "name": "\u2019Elb el Jmel",
        "latitude": 17.0105,
        "longitude": -13.97102
    },
    {
        "name": "Aleg",
        "latitude": 17.05314,
        "longitude": -13.91312
    },
    {
        "name": "Bofal",
        "latitude": 16.41666667,
        "longitude": -13.8
    },
    {
        "name": "Sori Mal\u00e9",
        "latitude": 16.95416667,
        "longitude": -13.37916667
    },
    {
        "name": "Cansado",
        "latitude": 20.85333333,
        "longitude": -17.0325
    },
    {
        "name": "Iouik",
        "latitude": 19.84944444,
        "longitude": -16.33083333
    },
    {
        "name": "Nouadhibou",
        "latitude": 20.94188,
        "longitude": -17.03842
    },
    {
        "name": "Ka\u00e9di",
        "latitude": 16.15027,
        "longitude": -13.5037
    },
    {
        "name": "S\u00e9libaby",
        "latitude": 15.15846,
        "longitude": -12.1843
    },
    {
        "name": "Diade",
        "latitude": 16.23333333,
        "longitude": -7.41666667
    },
    {
        "name": "Kataouane",
        "latitude": 16.06888889,
        "longitude": -6.49888889
    },
    {
        "name": "N\u00e9ma",
        "latitude": 16.61702,
        "longitude": -7.25649
    },
    {
        "name": "Timbedra",
        "latitude": 16.24472222,
        "longitude": -8.1675
    },
    {
        "name": "Aioun",
        "latitude": 16.6614,
        "longitude": -9.6149
    },
    {
        "name": "Ayoun el Atrous",
        "latitude": 16.66666667,
        "longitude": -9.61666667
    },
    {
        "name": "Togba",
        "latitude": 17.4,
        "longitude": -10.36666667
    },
    {
        "name": "Akjoujt",
        "latitude": 19.74657,
        "longitude": -14.38531
    },
    {
        "name": "Dar-Naim",
        "latitude": 18.03333333,
        "longitude": -15.96666667
    },
    {
        "name": "Teyarett",
        "latitude": 18.1289572,
        "longitude": -15.9377834
    },
    {
        "name": "Toujouonine",
        "latitude": 18.07169,
        "longitude": -15.90311
    },
    {
        "name": "Ksar",
        "latitude": 18.10222222,
        "longitude": -15.955
    },
    {
        "name": "Sebkha",
        "latitude": 18.07555556,
        "longitude": -16.00194444
    },
    {
        "name": "Tevragh-Zeina",
        "latitude": 18.11011,
        "longitude": -15.99931
    },
    {
        "name": "Arafat",
        "latitude": 18.04639,
        "longitude": -15.97194
    },
    {
        "name": "Riyad",
        "latitude": 18.10222222,
        "longitude": -15.955
    },
    {
        "name": "Ain Ben Tili",
        "latitude": 25.99444444,
        "longitude": -9.55333333
    },
    {
        "name": "Chegga",
        "latitude": 25.37194444,
        "longitude": -5.78666667
    },
    {
        "name": "Fder\u00eeck",
        "latitude": 22.67777778,
        "longitude": -12.7075
    },
    {
        "name": "Zou\u00e9rat",
        "latitude": 22.73444444,
        "longitude": -12.4725
    },
    {
        "name": "Zouerate",
        "latitude": 22.73542,
        "longitude": -12.47134
    },
    {
        "name": "Legat",
        "latitude": 16.75,
        "longitude": -14.83333333
    },
    {
        "name": "Rosso",
        "latitude": 16.51378,
        "longitude": -15.80503
    },
    {
        "name": "T\u00e9kane",
        "latitude": 16.60175,
        "longitude": -15.34866
    }
]