[
    {
        "name": "Ариехен",
        "latitude": -0.52545,
        "longitude": 166.91247
    },
    {
        "name": "Анабар",
        "latitude": -0.50845,
        "longitude": 166.95326
    },
    {
        "name": "Стих",
        "latitude": -0.50803,
        "longitude": 166.92945
    },
    {
        "name": "Глаза",
        "latitude": -0.521,
        "longitude": 166.95813
    },
    {
        "name": "я иду",
        "latitude": -0.54539,
        "longitude": 166.94871
    },
    {
        "name": "Это безумие",
        "latitude": -0.51393,
        "longitude": 166.92384
    },
    {
        "name": "Язык",
        "latitude": -0.55085,
        "longitude": 166.9252
    }
]