[
    {
        "name": "Adams",
        "latitude": 18.46141944,
        "longitude": 120.90210278
    },
    {
        "name": "Agno",
        "latitude": 16.11608611,
        "longitude": 119.80268333
    },
    {
        "name": "Agoo",
        "latitude": 16.32196111,
        "longitude": 120.364675
    },
    {
        "name": "Aguilar",
        "latitude": 15.88988611,
        "longitude": 120.23785278
    },
    {
        "name": "Alac",
        "latitude": 15.98777778,
        "longitude": 120.80638889
    },
    {
        "name": "Alaminos",
        "latitude": 16.15531389,
        "longitude": 119.98076944
    },
    {
        "name": "Alcala",
        "latitude": 15.84679444,
        "longitude": 120.52182222
    },
    {
        "name": "Alilem",
        "latitude": 16.88688333,
        "longitude": 120.53100833
    },
    {
        "name": "Allangigan Primero",
        "latitude": 17.17388889,
        "longitude": 120.49194444
    },
    {
        "name": "Aloleng",
        "latitude": 16.13083333,
        "longitude": 119.7825
    },
    {
        "name": "Amagbagan",
        "latitude": 16.09138889,
        "longitude": 120.52333333
    },
    {
        "name": "Anambongan",
        "latitude": 15.86638889,
        "longitude": 120.38861111
    },
    {
        "name": "Anda",
        "latitude": 16.28961389,
        "longitude": 119.9491
    },
    {
        "name": "Angatel",
        "latitude": 15.80583333,
        "longitude": 120.34333333
    },
    {
        "name": "Anulid",
        "latitude": 15.82555556,
        "longitude": 120.48833333
    },
    {
        "name": "Aringay",
        "latitude": 16.4,
        "longitude": 120.4
    },
    {
        "name": "Asingan",
        "latitude": 16.0051,
        "longitude": 120.6695
    },
    {
        "name": "Baay",
        "latitude": 18.11888889,
        "longitude": 120.57527778
    },
    {
        "name": "Bacag",
        "latitude": 15.93,
        "longitude": 120.58222222
    },
    {
        "name": "Bacarra",
        "latitude": 18.2529,
        "longitude": 120.6125
    },
    {
        "name": "Bacnar",
        "latitude": 15.88638889,
        "longitude": 120.34416667
    },
    {
        "name": "Bacnotan",
        "latitude": 16.73333,
        "longitude": 120.38333
    },
    {
        "name": "Bactad Proper",
        "latitude": 15.97833333,
        "longitude": 120.61027778
    },
    {
        "name": "Bacundao Weste",
        "latitude": 15.91527778,
        "longitude": 120.47666667
    },
    {
        "name": "Badoc",
        "latitude": 17.9265,
        "longitude": 120.4764
    },
    {
        "name": "Bagulin",
        "latitude": 16.61667,
        "longitude": 120.48333
    },
    {
        "name": "Bail",
        "latitude": 16.28666667,
        "longitude": 120.40027778
    },
    {
        "name": "Balaoan",
        "latitude": 16.81666667,
        "longitude": 120.4
    },
    {
        "name": "Balingasay",
        "latitude": 16.35722222,
        "longitude": 119.85638889
    },
    {
        "name": "Balingueo",
        "latitude": 15.95833333,
        "longitude": 120.40972222
    },
    {
        "name": "Balogo",
        "latitude": 15.99027778,
        "longitude": 120.28305556
    },
    {
        "name": "Balungao",
        "latitude": 15.9,
        "longitude": 120.7
    },
    {
        "name": "Baluyot",
        "latitude": 15.79583333,
        "longitude": 120.46083333
    },
    {
        "name": "Banayoyo",
        "latitude": 17.23333333,
        "longitude": 120.48333333
    },
    {
        "name": "Bangan-Oda",
        "latitude": 16.10861111,
        "longitude": 119.83083333
    },
    {
        "name": "Bangar",
        "latitude": 16.88333,
        "longitude": 120.43333
    },
    {
        "name": "Bangui",
        "latitude": 18.53333333,
        "longitude": 120.76666667
    },
    {
        "name": "Bani",
        "latitude": 16.186944,
        "longitude": 119.859167
    },
    {
        "name": "Banna",
        "latitude": 17.98333333,
        "longitude": 120.65
    },
    {
        "name": "Banog Sur",
        "latitude": 16.16555556,
        "longitude": 119.89805556
    },
    {
        "name": "Bantay",
        "latitude": 17.58333333,
        "longitude": 120.38333333
    },
    {
        "name": "Bantog",
        "latitude": 16.00916667,
        "longitude": 120.69277778
    },
    {
        "name": "Barangobong",
        "latitude": 15.87777778,
        "longitude": 120.54833333
    },
    {
        "name": "Baro",
        "latitude": 15.99888889,
        "longitude": 120.67361111
    },
    {
        "name": "Barong",
        "latitude": 18.0575,
        "longitude": 120.73388889
    },
    {
        "name": "Basing",
        "latitude": 15.985,
        "longitude": 120.26833333
    },
    {
        "name": "Basista",
        "latitude": 15.8524,
        "longitude": 120.3976
    },
    {
        "name": "Batac",
        "latitude": 18.0554,
        "longitude": 120.56489
    },
    {
        "name": "Bataquil",
        "latitude": 16.15527778,
        "longitude": 120.5275
    },
    {
        "name": "Bauang",
        "latitude": 16.53333333,
        "longitude": 120.33333333
    },
    {
        "name": "Bautista",
        "latitude": 15.78333333,
        "longitude": 120.5
    },
    {
        "name": "Bayambang",
        "latitude": 15.716667,
        "longitude": 120.35
    },
    {
        "name": "Bayaoas",
        "latitude": 15.83416667,
        "longitude": 120.26472222
    },
    {
        "name": "Bical Norte",
        "latitude": 15.81472222,
        "longitude": 120.435
    },
    {
        "name": "Bil-Loca",
        "latitude": 18.0875,
        "longitude": 120.56861111
    },
    {
        "name": "Binabalian",
        "latitude": 16.42027778,
        "longitude": 119.92777778
    },
    {
        "name": "Binalonan",
        "latitude": 16.05,
        "longitude": 120.6
    },
    {
        "name": "Binday",
        "latitude": 16.12805556,
        "longitude": 120.4525
    },
    {
        "name": "Binmaley",
        "latitude": 16.03232,
        "longitude": 120.26904
    },
    {
        "name": "Bobonan",
        "latitude": 16.13472222,
        "longitude": 120.52722222
    },
    {
        "name": "Bogtong",
        "latitude": 15.75527778,
        "longitude": 120.32888889
    },
    {
        "name": "Bolaoit",
        "latitude": 15.93222222,
        "longitude": 120.43083333
    },
    {
        "name": "Bolinao",
        "latitude": 16.33333333,
        "longitude": 119.88333333
    },
    {
        "name": "Bolingit",
        "latitude": 15.95861111,
        "longitude": 120.34972222
    },
    {
        "name": "Bolo",
        "latitude": 15.99472222,
        "longitude": 120.16472222
    },
    {
        "name": "Bo\u00f1galon",
        "latitude": 16.00027778,
        "longitude": 120.15916667
    },
    {
        "name": "Botao",
        "latitude": 15.91666667,
        "longitude": 120.41666667
    },
    {
        "name": "Bued",
        "latitude": 16.16083333,
        "longitude": 119.99888889
    },
    {
        "name": "Buenlag",
        "latitude": 15.82972222,
        "longitude": 120.51138889
    },
    {
        "name": "Bugallon",
        "latitude": 15.91666667,
        "longitude": 120.18333333
    },
    {
        "name": "Bulog",
        "latitude": 15.96027778,
        "longitude": 120.40166667
    },
    {
        "name": "Burgos",
        "latitude": 16.046472,
        "longitude": 119.856778
    },
    {
        "name": "Butubut Norte",
        "latitude": 16.80333333,
        "longitude": 120.43444444
    },
    {
        "name": "Caabiangan",
        "latitude": 16.0875,
        "longitude": 119.92444444
    },
    {
        "name": "Caba",
        "latitude": 16.4316,
        "longitude": 120.3446
    },
    {
        "name": "Cabalaoangan",
        "latitude": 15.98333333,
        "longitude": 120.78333333
    },
    {
        "name": "Cabalitian",
        "latitude": 16.08833333,
        "longitude": 120.79222222
    },
    {
        "name": "Cabittaogan",
        "latitude": 17.57777778,
        "longitude": 120.35916667
    },
    {
        "name": "Cabugao",
        "latitude": 17.8,
        "longitude": 120.45
    },
    {
        "name": "Cabungan",
        "latitude": 16.34,
        "longitude": 119.995
    },
    {
        "name": "Calasiao",
        "latitude": 16.01666667,
        "longitude": 120.36666667
    },
    {
        "name": "Calepaan",
        "latitude": 16.01944444,
        "longitude": 120.61888889
    },
    {
        "name": "Callaguip",
        "latitude": 18.07138889,
        "longitude": 120.48666667
    },
    {
        "name": "Calomboyan",
        "latitude": 15.94638889,
        "longitude": 120.30361111
    },
    {
        "name": "Calongbuyan",
        "latitude": 17.16472222,
        "longitude": 120.42722222
    },
    {
        "name": "Calsib",
        "latitude": 15.84722222,
        "longitude": 120.26416667
    },
    {
        "name": "Camaley",
        "latitude": 15.99722222,
        "longitude": 120.30111111
    },
    {
        "name": "Canan Norte",
        "latitude": 15.90972222,
        "longitude": 120.4775
    },
    {
        "name": "Canaoalan",
        "latitude": 16.02888889,
        "longitude": 120.29638889
    },
    {
        "name": "Candon",
        "latitude": 17.2,
        "longitude": 120.45
    },
    {
        "name": "Cantoria",
        "latitude": 16.84416667,
        "longitude": 120.40444444
    },
    {
        "name": "Caoayan",
        "latitude": 17.53333333,
        "longitude": 120.4
    },
    {
        "name": "Capandanan",
        "latitude": 15.95944444,
        "longitude": 120.69527778
    },
    {
        "name": "Capulaan",
        "latitude": 15.905,
        "longitude": 120.53722222
    },
    {
        "name": "Caramutan",
        "latitude": 15.92083333,
        "longitude": 120.61
    },
    {
        "name": "Carasi",
        "latitude": 18.2,
        "longitude": 120.86666667
    },
    {
        "name": "Carmen",
        "latitude": 15.88638889,
        "longitude": 120.59972222
    },
    {
        "name": "Caronoan West",
        "latitude": 16.26333333,
        "longitude": 120.44638889
    },
    {
        "name": "Carot",
        "latitude": 16.34472222,
        "longitude": 119.98
    },
    {
        "name": "Carriedo",
        "latitude": 16.03111111,
        "longitude": 120.755
    },
    {
        "name": "Carusucan",
        "latitude": 15.96583333,
        "longitude": 120.63611111
    },
    {
        "name": "Caterman",
        "latitude": 17.2175,
        "longitude": 120.42444444
    },
    {
        "name": "Cato",
        "latitude": 15.83611111,
        "longitude": 119.915
    },
    {
        "name": "Catuday",
        "latitude": 16.29222222,
        "longitude": 119.80611111
    },
    {
        "name": "Cayanga",
        "latitude": 16.115,
        "longitude": 120.39888889
    },
    {
        "name": "Cayungnan",
        "latitude": 16.13333333,
        "longitude": 119.8375
    },
    {
        "name": "Cervantes",
        "latitude": 16.99166667,
        "longitude": 120.73333333
    },
    {
        "name": "City of Batac",
        "latitude": 18.0373,
        "longitude": 120.58175
    },
    {
        "name": "City of Candon",
        "latitude": 17.2,
        "longitude": 120.45
    },
    {
        "name": "City of Urdaneta",
        "latitude": 15.97944,
        "longitude": 120.59101
    },
    {
        "name": "City of Vigan",
        "latitude": 17.56275,
        "longitude": 120.39071
    },
    {
        "name": "Comillas Norte",
        "latitude": 16.95888889,
        "longitude": 120.74694444
    },
    {
        "name": "Corrooy",
        "latitude": 16.79611111,
        "longitude": 120.44527778
    },
    {
        "name": "Currimao",
        "latitude": 18.01666667,
        "longitude": 120.48333333
    },
    {
        "name": "Dagup",
        "latitude": 16.63722222,
        "longitude": 120.44555556
    },
    {
        "name": "Dagupan",
        "latitude": 16.04313,
        "longitude": 120.33325
    },
    {
        "name": "Damortis",
        "latitude": 16.24055556,
        "longitude": 120.40555556
    },
    {
        "name": "Darapidap",
        "latitude": 17.2,
        "longitude": 120.41805556
    },
    {
        "name": "Dasol",
        "latitude": 15.989639,
        "longitude": 119.880528
    },
    {
        "name": "Davila",
        "latitude": 18.4725,
        "longitude": 120.57638889
    },
    {
        "name": "Diaz",
        "latitude": 15.84638889,
        "longitude": 120.83472222
    },
    {
        "name": "Dilan",
        "latitude": 16.08777778,
        "longitude": 120.52083333
    },
    {
        "name": "Dingras",
        "latitude": 18.1032,
        "longitude": 120.6967
    },
    {
        "name": "Domalanoan",
        "latitude": 16.00305556,
        "longitude": 120.21166667
    },
    {
        "name": "Domampot",
        "latitude": 16.0,
        "longitude": 120.65
    },
    {
        "name": "Don Pedro",
        "latitude": 15.88527778,
        "longitude": 120.43027778
    },
    {
        "name": "Dorongan Punta",
        "latitude": 15.81472222,
        "longitude": 120.32277778
    },
    {
        "name": "Doyong",
        "latitude": 15.97222222,
        "longitude": 120.35388889
    },
    {
        "name": "Dulig",
        "latitude": 16.00222222,
        "longitude": 120.16861111
    },
    {
        "name": "Dumalneg",
        "latitude": 18.5,
        "longitude": 120.81666667
    },
    {
        "name": "Dumpay",
        "latitude": 15.88305556,
        "longitude": 120.38888889
    },
    {
        "name": "Eguia",
        "latitude": 15.90638889,
        "longitude": 119.88583333
    },
    {
        "name": "Esmeralda",
        "latitude": 15.86722222,
        "longitude": 120.715
    },
    {
        "name": "Fuerte",
        "latitude": 17.53416667,
        "longitude": 120.36944444
    },
    {
        "name": "Galimuyod",
        "latitude": 17.18333333,
        "longitude": 120.46666667
    },
    {
        "name": "Gayaman",
        "latitude": 16.01388889,
        "longitude": 120.3075
    },
    {
        "name": "Gregorio del Pilar",
        "latitude": 17.13333333,
        "longitude": 120.61666667
    },
    {
        "name": "Guiling",
        "latitude": 15.84305556,
        "longitude": 120.615
    },
    {
        "name": "Guiset East",
        "latitude": 16.06666667,
        "longitude": 120.68333333
    },
    {
        "name": "Hacienda",
        "latitude": 15.93611111,
        "longitude": 120.17861111
    },
    {
        "name": "Halog West",
        "latitude": 16.36666667,
        "longitude": 120.41472222
    },
    {
        "name": "Ilioilio",
        "latitude": 15.96166667,
        "longitude": 119.76583333
    },
    {
        "name": "Inabaan Sur",
        "latitude": 16.26305556,
        "longitude": 120.47805556
    },
    {
        "name": "Infanta",
        "latitude": 15.82638889,
        "longitude": 119.90777778
    },
    {
        "name": "Isla",
        "latitude": 15.895,
        "longitude": 120.30138889
    },
    {
        "name": "Labayug",
        "latitude": 16.15277778,
        "longitude": 120.56611111
    },
    {
        "name": "Labney",
        "latitude": 16.10277778,
        "longitude": 120.46555556
    },
    {
        "name": "Labrador",
        "latitude": 16.033889,
        "longitude": 120.139167
    },
    {
        "name": "Lagasit",
        "latitude": 15.99333333,
        "longitude": 120.79388889
    },
    {
        "name": "Laguit Centro",
        "latitude": 15.94722222,
        "longitude": 120.19027778
    },
    {
        "name": "Laoac",
        "latitude": 16.033333,
        "longitude": 120.55
    },
    {
        "name": "Laoag",
        "latitude": 18.2,
        "longitude": 120.6
    },
    {
        "name": "Leones East",
        "latitude": 16.36333333,
        "longitude": 120.39194444
    },
    {
        "name": "Lepa",
        "latitude": 15.88444444,
        "longitude": 120.45083333
    },
    {
        "name": "Libas",
        "latitude": 15.87777778,
        "longitude": 120.31638889
    },
    {
        "name": "Lidlidda",
        "latitude": 17.26666667,
        "longitude": 120.51666667
    },
    {
        "name": "Lingayen",
        "latitude": 16.016667,
        "longitude": 120.233333
    },
    {
        "name": "Linmansangan",
        "latitude": 15.82972222,
        "longitude": 120.29583333
    },
    {
        "name": "Lloren",
        "latitude": 16.33305556,
        "longitude": 120.43277778
    },
    {
        "name": "Lobong",
        "latitude": 16.08138889,
        "longitude": 120.47027778
    },
    {
        "name": "Longos",
        "latitude": 16.10722222,
        "longitude": 120.39666667
    },
    {
        "name": "Loqueb Este",
        "latitude": 15.94472222,
        "longitude": 120.44611111
    },
    {
        "name": "Lucap",
        "latitude": 16.19027778,
        "longitude": 120.00222222
    },
    {
        "name": "Lucero",
        "latitude": 16.405,
        "longitude": 119.9125
    },
    {
        "name": "Luna",
        "latitude": 16.85,
        "longitude": 120.38333333
    },
    {
        "name": "Lunec",
        "latitude": 15.95388889,
        "longitude": 120.48944444
    },
    {
        "name": "Lungog",
        "latitude": 17.46444444,
        "longitude": 120.47833333
    },
    {
        "name": "Lusong",
        "latitude": 16.86694444,
        "longitude": 120.44194444
    },
    {
        "name": "Mabilao",
        "latitude": 16.15361111,
        "longitude": 120.425
    },
    {
        "name": "Mabilbila Sur",
        "latitude": 17.50722222,
        "longitude": 120.44111111
    },
    {
        "name": "Mabini",
        "latitude": 16.069722,
        "longitude": 119.94
    },
    {
        "name": "Mabusag",
        "latitude": 17.92611111,
        "longitude": 120.4975
    },
    {
        "name": "Macabuboni",
        "latitude": 16.19083333,
        "longitude": 119.78027778
    },
    {
        "name": "Macalong",
        "latitude": 16.01361111,
        "longitude": 120.65861111
    },
    {
        "name": "Macalva Norte",
        "latitude": 16.34861111,
        "longitude": 120.38666667
    },
    {
        "name": "Macayug",
        "latitude": 16.09388889,
        "longitude": 120.43194444
    },
    {
        "name": "Magallanes",
        "latitude": 16.01972222,
        "longitude": 120.73888889
    },
    {
        "name": "Magsingal",
        "latitude": 17.685,
        "longitude": 120.42444
    },
    {
        "name": "Magtaking",
        "latitude": 15.98527778,
        "longitude": 120.18333333
    },
    {
        "name": "Malabago",
        "latitude": 15.98166667,
        "longitude": 120.35916667
    },
    {
        "name": "Malanay",
        "latitude": 16.00861111,
        "longitude": 120.40944444
    },
    {
        "name": "Malasiqui",
        "latitude": 15.91666667,
        "longitude": 120.41666667
    },
    {
        "name": "Malawa",
        "latitude": 15.95805556,
        "longitude": 120.27777778
    },
    {
        "name": "Malibong East",
        "latitude": 15.84666667,
        "longitude": 120.32694444
    },
    {
        "name": "Manaoag",
        "latitude": 16.043889,
        "longitude": 120.485556
    },
    {
        "name": "Mangaldan",
        "latitude": 16.07,
        "longitude": 120.4025
    },
    {
        "name": "Mangatarem",
        "latitude": 15.73333,
        "longitude": 120.26667
    },
    {
        "name": "Mapandan",
        "latitude": 16.016667,
        "longitude": 120.45
    },
    {
        "name": "Mapolopolo",
        "latitude": 15.88083333,
        "longitude": 120.37416667
    },
    {
        "name": "Marcos",
        "latitude": 18.05,
        "longitude": 120.68333333
    },
    {
        "name": "Maticmatic",
        "latitude": 15.98638889,
        "longitude": 120.45194444
    },
    {
        "name": "Minien East",
        "latitude": 15.97722222,
        "longitude": 120.48138889
    },
    {
        "name": "Nagbacalan",
        "latitude": 18.11583333,
        "longitude": 120.52361111
    },
    {
        "name": "Nagbukel",
        "latitude": 17.45,
        "longitude": 120.55
    },
    {
        "name": "Nagsaing",
        "latitude": 15.98055556,
        "longitude": 120.33777778
    },
    {
        "name": "Naguelguel",
        "latitude": 16.00583333,
        "longitude": 120.26361111
    },
    {
        "name": "Naguilayan",
        "latitude": 16.00305556,
        "longitude": 120.29111111
    },
    {
        "name": "Naguilian",
        "latitude": 16.53333333,
        "longitude": 120.4
    },
    {
        "name": "Nalsian Norte",
        "latitude": 15.84472222,
        "longitude": 120.45083333
    },
    {
        "name": "Nama",
        "latitude": 16.14111111,
        "longitude": 120.5425
    },
    {
        "name": "Namboongan",
        "latitude": 16.30333333,
        "longitude": 120.37583333
    },
    {
        "name": "Nancalobasaan",
        "latitude": 15.93416667,
        "longitude": 120.8425
    },
    {
        "name": "Narvacan",
        "latitude": 17.4175,
        "longitude": 120.4753
    },
    {
        "name": "Natividad",
        "latitude": 16.05,
        "longitude": 120.81666667
    },
    {
        "name": "Navatat",
        "latitude": 15.84972222,
        "longitude": 120.39055556
    },
    {
        "name": "Nibaliw Central",
        "latitude": 16.1275,
        "longitude": 120.40277778
    },
    {
        "name": "Nilombot",
        "latitude": 16.03055556,
        "longitude": 120.43694444
    },
    {
        "name": "Ninoy",
        "latitude": 15.85972222,
        "longitude": 120.24777778
    },
    {
        "name": "Nueva Era",
        "latitude": 17.91666667,
        "longitude": 120.66666667
    },
    {
        "name": "Oaqui",
        "latitude": 16.85833333,
        "longitude": 120.4125
    },
    {
        "name": "Olea",
        "latitude": 15.8625,
        "longitude": 120.49361111
    },
    {
        "name": "Padong",
        "latitude": 18.05444444,
        "longitude": 120.75416667
    },
    {
        "name": "Pagsanahan Norte",
        "latitude": 17.91916667,
        "longitude": 120.44583333
    },
    {
        "name": "Pagudpud",
        "latitude": 18.558333,
        "longitude": 120.784722
    },
    {
        "name": "Paitan Este",
        "latitude": 16.08527778,
        "longitude": 120.03166667
    },
    {
        "name": "Palacpalac",
        "latitude": 16.13111111,
        "longitude": 120.53055556
    },
    {
        "name": "Palguyod",
        "latitude": 16.12277778,
        "longitude": 120.52
    },
    {
        "name": "Panganiban",
        "latitude": 16.0075,
        "longitude": 120.77527778
    },
    {
        "name": "Pangapisan",
        "latitude": 16.21611111,
        "longitude": 119.95694444
    },
    {
        "name": "Pangascasan",
        "latitude": 16.11694444,
        "longitude": 120.08666667
    },
    {
        "name": "Pangpang",
        "latitude": 15.93888889,
        "longitude": 120.30944444
    },
    {
        "name": "Paoay",
        "latitude": 18.055278,
        "longitude": 120.516111
    },
    {
        "name": "Paringao",
        "latitude": 16.57166667,
        "longitude": 120.32416667
    },
    {
        "name": "Parioc Segundo",
        "latitude": 17.175,
        "longitude": 120.46583333
    },
    {
        "name": "Pasibi West",
        "latitude": 15.85861111,
        "longitude": 120.37944444
    },
    {
        "name": "Pasuquin",
        "latitude": 18.33333333,
        "longitude": 120.61666667
    },
    {
        "name": "Patayac",
        "latitude": 15.96305556,
        "longitude": 120.4225
    },
    {
        "name": "Patpata Segundo",
        "latitude": 17.18333333,
        "longitude": 120.43333333
    },
    {
        "name": "Payocpoc Sur",
        "latitude": 16.49444444,
        "longitude": 120.32805556
    },
    {
        "name": "Piddig",
        "latitude": 18.16666667,
        "longitude": 120.73333333
    },
    {
        "name": "Pindangan Centro",
        "latitude": 15.86055556,
        "longitude": 120.55138889
    },
    {
        "name": "Pinili",
        "latitude": 17.954,
        "longitude": 120.527
    },
    {
        "name": "Pogonsili",
        "latitude": 15.82055556,
        "longitude": 120.26027778
    },
    {
        "name": "Polo",
        "latitude": 16.19638889,
        "longitude": 119.94916667
    },
    {
        "name": "Polong",
        "latitude": 15.97722222,
        "longitude": 120.20083333
    },
    {
        "name": "Polong Norte",
        "latitude": 15.90305556,
        "longitude": 120.42138889
    },
    {
        "name": "Pozorrubio",
        "latitude": 16.11666667,
        "longitude": 120.55
    },
    {
        "name": "Pudoc",
        "latitude": 16.92138889,
        "longitude": 120.42361111
    },
    {
        "name": "Pudoc North",
        "latitude": 17.60972222,
        "longitude": 120.36861111
    },
    {
        "name": "Puelay",
        "latitude": 15.88694444,
        "longitude": 120.57361111
    },
    {
        "name": "Pugo",
        "latitude": 16.28333333,
        "longitude": 120.48333333
    },
    {
        "name": "Puro Pinget",
        "latitude": 17.67972222,
        "longitude": 120.35888889
    },
    {
        "name": "Quiling",
        "latitude": 18.06833333,
        "longitude": 120.54388889
    },
    {
        "name": "Quinarayan",
        "latitude": 17.44416667,
        "longitude": 120.47222222
    },
    {
        "name": "Quintong",
        "latitude": 15.95583333,
        "longitude": 120.32166667
    },
    {
        "name": "Quirino",
        "latitude": 17.15,
        "longitude": 120.66666667
    },
    {
        "name": "Ranao",
        "latitude": 16.2075,
        "longitude": 119.81555556
    },
    {
        "name": "Real",
        "latitude": 15.80888889,
        "longitude": 120.34555556
    },
    {
        "name": "Rimus",
        "latitude": 16.87638889,
        "longitude": 120.39666667
    },
    {
        "name": "Rissing",
        "latitude": 16.87527778,
        "longitude": 120.43444444
    },
    {
        "name": "Rosales",
        "latitude": 15.894444,
        "longitude": 120.632778
    },
    {
        "name": "Rosario",
        "latitude": 16.2304,
        "longitude": 120.4863
    },
    {
        "name": "Sablig",
        "latitude": 16.26888889,
        "longitude": 119.98777778
    },
    {
        "name": "Sagud-Bahley",
        "latitude": 16.11694444,
        "longitude": 120.39111111
    },
    {
        "name": "Sagunto",
        "latitude": 16.20083333,
        "longitude": 120.515
    },
    {
        "name": "Salcedo",
        "latitude": 17.15,
        "longitude": 120.53333333
    },
    {
        "name": "Samon",
        "latitude": 15.935,
        "longitude": 120.65083333
    },
    {
        "name": "San Carlos",
        "latitude": 15.928056,
        "longitude": 120.348889
    },
    {
        "name": "San Emilio",
        "latitude": 17.23333333,
        "longitude": 120.61666667
    },
    {
        "name": "San Esteban",
        "latitude": 17.33333333,
        "longitude": 120.45
    },
    {
        "name": "San Eugenio",
        "latitude": 16.35972222,
        "longitude": 120.35694444
    },
    {
        "name": "San Fabian",
        "latitude": 16.15,
        "longitude": 120.45
    },
    {
        "name": "San Fernando",
        "latitude": 16.61666667,
        "longitude": 120.31666667
    },
    {
        "name": "San Fernando Poblacion",
        "latitude": 16.61591,
        "longitude": 120.31663
    },
    {
        "name": "San Gabriel",
        "latitude": 16.67556,
        "longitude": 120.40306
    },
    {
        "name": "San Gabriel First",
        "latitude": 15.76638889,
        "longitude": 120.45666667
    },
    {
        "name": "San Ildefonso",
        "latitude": 17.61666667,
        "longitude": 120.4
    },
    {
        "name": "San Jacinto",
        "latitude": 16.0725,
        "longitude": 120.441111
    },
    {
        "name": "San Juan",
        "latitude": 16.66861,
        "longitude": 120.34139
    },
    {
        "name": "San Lorenzo",
        "latitude": 18.13222222,
        "longitude": 120.63055556
    },
    {
        "name": "San Manuel",
        "latitude": 16.065556,
        "longitude": 120.666667
    },
    {
        "name": "San Nicolas",
        "latitude": 18.1725,
        "longitude": 120.595833
    },
    {
        "name": "San Pedro Apartado",
        "latitude": 15.83694444,
        "longitude": 120.56527778
    },
    {
        "name": "San Quintin",
        "latitude": 15.984444,
        "longitude": 120.815
    },
    {
        "name": "San Sebastian",
        "latitude": 17.62333333,
        "longitude": 120.36361111
    },
    {
        "name": "San Vicente",
        "latitude": 17.59166667,
        "longitude": 120.375
    },
    {
        "name": "Sanlibo",
        "latitude": 15.91666667,
        "longitude": 120.55
    },
    {
        "name": "Santa",
        "latitude": 17.49166667,
        "longitude": 120.43333333
    },
    {
        "name": "Santa Barbara",
        "latitude": 16.003056,
        "longitude": 120.400833
    },
    {
        "name": "Santa Catalina",
        "latitude": 17.58333333,
        "longitude": 120.35833333
    },
    {
        "name": "Santa Cruz",
        "latitude": 17.08333333,
        "longitude": 120.45
    },
    {
        "name": "Santa Lucia",
        "latitude": 17.11666667,
        "longitude": 120.45
    },
    {
        "name": "Santa Maria",
        "latitude": 15.980833,
        "longitude": 120.700278
    },
    {
        "name": "Santiago",
        "latitude": 17.3,
        "longitude": 120.45
    },
    {
        "name": "Santo Domingo",
        "latitude": 17.63333333,
        "longitude": 120.40833333
    },
    {
        "name": "Santo Tomas",
        "latitude": 16.2798,
        "longitude": 120.3792
    },
    {
        "name": "Santol",
        "latitude": 16.76666667,
        "longitude": 120.45
    },
    {
        "name": "Sarrat",
        "latitude": 18.162222,
        "longitude": 120.647778
    },
    {
        "name": "Sigay",
        "latitude": 17.03333333,
        "longitude": 120.58333333
    },
    {
        "name": "Sinait",
        "latitude": 17.86666667,
        "longitude": 120.45833333
    },
    {
        "name": "Sison",
        "latitude": 16.17389,
        "longitude": 120.51528
    },
    {
        "name": "Solsona",
        "latitude": 18.1,
        "longitude": 120.76666667
    },
    {
        "name": "Sonquil",
        "latitude": 15.98805556,
        "longitude": 120.39055556
    },
    {
        "name": "Sual",
        "latitude": 16.06666667,
        "longitude": 120.1
    },
    {
        "name": "Subusub",
        "latitude": 16.22694444,
        "longitude": 120.495
    },
    {
        "name": "Sudipen",
        "latitude": 16.9,
        "longitude": 120.46666667
    },
    {
        "name": "Sugpon",
        "latitude": 16.85,
        "longitude": 120.51666667
    },
    {
        "name": "Sumabnit",
        "latitude": 16.03027778,
        "longitude": 120.58333333
    },
    {
        "name": "Suso",
        "latitude": 17.35944444,
        "longitude": 120.46111111
    },
    {
        "name": "Suyo",
        "latitude": 16.96666667,
        "longitude": 120.55
    },
    {
        "name": "Tablac",
        "latitude": 17.21555556,
        "longitude": 120.45416667
    },
    {
        "name": "Tabug",
        "latitude": 18.03416667,
        "longitude": 120.54888889
    },
    {
        "name": "Tagudin",
        "latitude": 16.93333333,
        "longitude": 120.45
    },
    {
        "name": "Talospatang",
        "latitude": 15.91694444,
        "longitude": 120.44138889
    },
    {
        "name": "Taloy",
        "latitude": 15.92416667,
        "longitude": 120.39638889
    },
    {
        "name": "Tamayo",
        "latitude": 15.8775,
        "longitude": 120.28444444
    },
    {
        "name": "Tamorong",
        "latitude": 17.33333333,
        "longitude": 120.43333333
    },
    {
        "name": "Tandoc",
        "latitude": 15.95916667,
        "longitude": 120.32916667
    },
    {
        "name": "Tanolong",
        "latitude": 15.80416667,
        "longitude": 120.41416667
    },
    {
        "name": "Tayug",
        "latitude": 16.026667,
        "longitude": 120.747778
    },
    {
        "name": "Tebag East",
        "latitude": 15.98111111,
        "longitude": 120.4675
    },
    {
        "name": "Telbang",
        "latitude": 16.1725,
        "longitude": 120.06083333
    },
    {
        "name": "Tiep",
        "latitude": 16.23833333,
        "longitude": 119.86083333
    },
    {
        "name": "Toboy",
        "latitude": 16.02722222,
        "longitude": 120.63694444
    },
    {
        "name": "Tobuan",
        "latitude": 16.05555556,
        "longitude": 120.11027778
    },
    {
        "name": "Tococ East",
        "latitude": 15.825,
        "longitude": 120.42611111
    },
    {
        "name": "Tocok",
        "latitude": 15.75,
        "longitude": 120.3
    },
    {
        "name": "Tombod",
        "latitude": 15.93166667,
        "longitude": 120.56722222
    },
    {
        "name": "Tondol",
        "latitude": 16.31027778,
        "longitude": 120.01305556
    },
    {
        "name": "Toritori",
        "latitude": 16.23833333,
        "longitude": 119.99555556
    },
    {
        "name": "Tubao",
        "latitude": 16.35,
        "longitude": 120.41666667
    },
    {
        "name": "Umanday Centro",
        "latitude": 15.93805556,
        "longitude": 120.21527778
    },
    {
        "name": "Umingan",
        "latitude": 15.9,
        "longitude": 120.8
    },
    {
        "name": "Unzad",
        "latitude": 15.91888889,
        "longitude": 120.53916667
    },
    {
        "name": "Urbiztondo",
        "latitude": 15.8227,
        "longitude": 120.3295
    },
    {
        "name": "Urdaneta",
        "latitude": 15.97611111,
        "longitude": 120.57111111
    },
    {
        "name": "Uyong",
        "latitude": 16.05,
        "longitude": 120.12083333
    },
    {
        "name": "Vigan",
        "latitude": 17.57472,
        "longitude": 120.38694
    },
    {
        "name": "Villasis",
        "latitude": 15.9,
        "longitude": 120.58333333
    },
    {
        "name": "Vintar",
        "latitude": 18.225,
        "longitude": 120.65
    },
    {
        "name": "Zaragoza",
        "latitude": 16.38722222,
        "longitude": 119.94416667
    },
    {
        "name": "Abut",
        "latitude": 17.35416667,
        "longitude": 121.60138889
    },
    {
        "name": "Accusilian",
        "latitude": 17.74777778,
        "longitude": 121.4625
    },
    {
        "name": "Afusing Centro",
        "latitude": 17.8525,
        "longitude": 121.62694444
    },
    {
        "name": "Aglipay",
        "latitude": 16.488875,
        "longitude": 121.58735
    },
    {
        "name": "Alabug",
        "latitude": 17.7325,
        "longitude": 121.46777778
    },
    {
        "name": "Alannay",
        "latitude": 18.06111111,
        "longitude": 121.58611111
    },
    {
        "name": "Alcala",
        "latitude": 17.90314167,
        "longitude": 121.65896111
    },
    {
        "name": "Alfonso Casta\u00f1eda",
        "latitude": 15.79401389,
        "longitude": 121.29996389
    },
    {
        "name": "Alicia",
        "latitude": 16.77868611,
        "longitude": 121.69718056
    },
    {
        "name": "Allacapan",
        "latitude": 18.22696667,
        "longitude": 121.55558333
    },
    {
        "name": "Almaguer North",
        "latitude": 16.34972222,
        "longitude": 121.0925
    },
    {
        "name": "Ambaguio",
        "latitude": 16.53160833,
        "longitude": 121.02816944
    },
    {
        "name": "Amulung",
        "latitude": 17.83865556,
        "longitude": 121.72348333
    },
    {
        "name": "Angadanan",
        "latitude": 16.75715,
        "longitude": 121.74792778
    },
    {
        "name": "Antagan Segunda",
        "latitude": 17.28277778,
        "longitude": 121.87138889
    },
    {
        "name": "Aparri",
        "latitude": 18.354975,
        "longitude": 121.64185
    },
    {
        "name": "Aritao",
        "latitude": 16.29725833,
        "longitude": 121.03381944
    },
    {
        "name": "Atulayan",
        "latitude": 17.66472222,
        "longitude": 121.69361111
    },
    {
        "name": "Aurora",
        "latitude": 16.99184722,
        "longitude": 121.63568889
    },
    {
        "name": "Awallan",
        "latitude": 17.92444444,
        "longitude": 121.91305556
    },
    {
        "name": "Bacnor East",
        "latitude": 17.03444444,
        "longitude": 121.70361111
    },
    {
        "name": "Bagabag",
        "latitude": 16.60443056,
        "longitude": 121.25209444
    },
    {
        "name": "Baggabag B",
        "latitude": 16.50583333,
        "longitude": 121.19027778
    },
    {
        "name": "Baggao",
        "latitude": 17.88935278,
        "longitude": 121.87092222
    },
    {
        "name": "Bagong Tanza",
        "latitude": 16.98277778,
        "longitude": 121.61111111
    },
    {
        "name": "Bagu",
        "latitude": 18.42444444,
        "longitude": 121.35583333
    },
    {
        "name": "Bagumbayan",
        "latitude": 17.72277778,
        "longitude": 121.44694444
    },
    {
        "name": "Ballesteros",
        "latitude": 18.4,
        "longitude": 121.51666667
    },
    {
        "name": "Bambang",
        "latitude": 16.3825,
        "longitude": 121.11
    },
    {
        "name": "Bangad",
        "latitude": 17.49555556,
        "longitude": 121.77722222
    },
    {
        "name": "Banganan",
        "latitude": 16.31444444,
        "longitude": 121.05444444
    },
    {
        "name": "Banquero",
        "latitude": 17.02305556,
        "longitude": 121.77833333
    },
    {
        "name": "Barucboc Norte",
        "latitude": 17.25861111,
        "longitude": 121.60555556
    },
    {
        "name": "Basco",
        "latitude": 20.45,
        "longitude": 121.96666667
    },
    {
        "name": "Batal",
        "latitude": 16.6875,
        "longitude": 121.60083
    },
    {
        "name": "Battung",
        "latitude": 17.7225,
        "longitude": 121.45916667
    },
    {
        "name": "Bauan",
        "latitude": 17.7225,
        "longitude": 121.68027778
    },
    {
        "name": "Bayombong",
        "latitude": 16.48333333,
        "longitude": 121.15
    },
    {
        "name": "Belance",
        "latitude": 16.18333333,
        "longitude": 121.25
    },
    {
        "name": "Benito Soliven",
        "latitude": 16.98333333,
        "longitude": 121.95
    },
    {
        "name": "Binalan",
        "latitude": 18.3275,
        "longitude": 121.545
    },
    {
        "name": "Binguang",
        "latitude": 17.45888889,
        "longitude": 121.79527778
    },
    {
        "name": "Bintawan",
        "latitude": 16.57583333,
        "longitude": 121.18777778
    },
    {
        "name": "Bitag Grande",
        "latitude": 17.9025,
        "longitude": 121.85
    },
    {
        "name": "Bone South",
        "latitude": 16.24472222,
        "longitude": 120.99583333
    },
    {
        "name": "Buguey",
        "latitude": 18.28823,
        "longitude": 121.8331
    },
    {
        "name": "Buliwao",
        "latitude": 16.48333333,
        "longitude": 121.23333333
    },
    {
        "name": "Bulu",
        "latitude": 17.33333333,
        "longitude": 121.76666667
    },
    {
        "name": "Burgos",
        "latitude": 17.06666667,
        "longitude": 121.7
    },
    {
        "name": "Busilak",
        "latitude": 16.4775,
        "longitude": 121.12416667
    },
    {
        "name": "Cabagan",
        "latitude": 17.43333333,
        "longitude": 121.76666667
    },
    {
        "name": "Cabannungan Second",
        "latitude": 17.125,
        "longitude": 121.85055556
    },
    {
        "name": "Cabaritan East",
        "latitude": 18.41777778,
        "longitude": 121.48861111
    },
    {
        "name": "Cabarroguis",
        "latitude": 16.583333,
        "longitude": 121.5
    },
    {
        "name": "Cabatuan",
        "latitude": 16.95888889,
        "longitude": 121.66916667
    },
    {
        "name": "Cabiraoan",
        "latitude": 18.32388889,
        "longitude": 122.08583333
    },
    {
        "name": "Calamagui East",
        "latitude": 17.48805556,
        "longitude": 121.76833333
    },
    {
        "name": "Calantac",
        "latitude": 17.90916667,
        "longitude": 121.72277778
    },
    {
        "name": "Calaoagan",
        "latitude": 18.04277778,
        "longitude": 121.72333333
    },
    {
        "name": "Calayan",
        "latitude": 19.26666667,
        "longitude": 121.48333333
    },
    {
        "name": "Calinaoan Malasin",
        "latitude": 17.35194444,
        "longitude": 121.74083333
    },
    {
        "name": "Calog Norte",
        "latitude": 18.36361111,
        "longitude": 121.38527778
    },
    {
        "name": "Camalaniugan",
        "latitude": 18.26666667,
        "longitude": 121.68333333
    },
    {
        "name": "Capissayan Sur",
        "latitude": 18.05083333,
        "longitude": 121.81777778
    },
    {
        "name": "Carig",
        "latitude": 17.65916667,
        "longitude": 121.74361111
    },
    {
        "name": "Casambalangan",
        "latitude": 18.37638889,
        "longitude": 122.1275
    },
    {
        "name": "Catayauan",
        "latitude": 18.16083333,
        "longitude": 121.65277778
    },
    {
        "name": "Cauayan",
        "latitude": 16.76666667,
        "longitude": 121.78333333
    },
    {
        "name": "Claveria",
        "latitude": 18.6,
        "longitude": 121.08333333
    },
    {
        "name": "Cordon",
        "latitude": 16.66666667,
        "longitude": 121.45
    },
    {
        "name": "Cullalabo del Sur",
        "latitude": 17.10277778,
        "longitude": 121.70388889
    },
    {
        "name": "Dagupan",
        "latitude": 17.70027778,
        "longitude": 121.50444444
    },
    {
        "name": "Dalaoig",
        "latitude": 17.94916667,
        "longitude": 121.71472222
    },
    {
        "name": "Daragutan",
        "latitude": 17.0,
        "longitude": 122.03333333
    },
    {
        "name": "Dassun",
        "latitude": 17.74527778,
        "longitude": 121.71138889
    },
    {
        "name": "Delfin Albano",
        "latitude": 17.31666667,
        "longitude": 121.78333333
    },
    {
        "name": "Diadi",
        "latitude": 16.63333333,
        "longitude": 121.35
    },
    {
        "name": "Diamantina",
        "latitude": 16.91805556,
        "longitude": 121.62666667
    },
    {
        "name": "Dibuluan",
        "latitude": 16.51916667,
        "longitude": 121.76472222
    },
    {
        "name": "Dicabisagan",
        "latitude": 17.08194444,
        "longitude": 122.41583333
    },
    {
        "name": "Dicamay",
        "latitude": 16.75611111,
        "longitude": 122.00361111
    },
    {
        "name": "Diffun",
        "latitude": 16.6,
        "longitude": 121.46666667
    },
    {
        "name": "Dinapigui",
        "latitude": 16.66667,
        "longitude": 122.23333
    },
    {
        "name": "Divilican",
        "latitude": 17.24194,
        "longitude": 122.31548
    },
    {
        "name": "Divisoria",
        "latitude": 17.52277778,
        "longitude": 121.77416667
    },
    {
        "name": "Dodan",
        "latitude": 17.64111111,
        "longitude": 121.79444444
    },
    {
        "name": "Dumabato",
        "latitude": 16.31666667,
        "longitude": 121.7
    },
    {
        "name": "Dupax del Norte",
        "latitude": 16.28638889,
        "longitude": 121.09416667
    },
    {
        "name": "Dupax del Sur",
        "latitude": 16.28333333,
        "longitude": 121.1
    },
    {
        "name": "Echague (town)",
        "latitude": 16.705,
        "longitude": 121.67638889
    },
    {
        "name": "Eden",
        "latitude": 17.03805556,
        "longitude": 121.59805556
    },
    {
        "name": "Enrile",
        "latitude": 17.55,
        "longitude": 121.7
    },
    {
        "name": "Esperanza East",
        "latitude": 17.02333333,
        "longitude": 121.68388889
    },
    {
        "name": "Estefania",
        "latitude": 17.79944444,
        "longitude": 121.72305556
    },
    {
        "name": "Furao",
        "latitude": 17.03472222,
        "longitude": 121.79694444
    },
    {
        "name": "Gadu",
        "latitude": 17.62916667,
        "longitude": 121.61055556
    },
    {
        "name": "Gammad",
        "latitude": 17.71027778,
        "longitude": 121.74361111
    },
    {
        "name": "Gamu",
        "latitude": 17.05,
        "longitude": 121.83333333
    },
    {
        "name": "Ganapi",
        "latitude": 17.20166667,
        "longitude": 121.86527778
    },
    {
        "name": "Gappal",
        "latitude": 16.83638889,
        "longitude": 121.82194444
    },
    {
        "name": "Gattaran",
        "latitude": 18.06166667,
        "longitude": 121.64416667
    },
    {
        "name": "Gonzaga",
        "latitude": 18.26666667,
        "longitude": 122.0
    },
    {
        "name": "Guiddam",
        "latitude": 18.335,
        "longitude": 121.46611111
    },
    {
        "name": "Ibung",
        "latitude": 16.60938,
        "longitude": 121.18614
    },
    {
        "name": "Iguig",
        "latitude": 17.75,
        "longitude": 121.73333333
    },
    {
        "name": "Ilagan",
        "latitude": 17.13333333,
        "longitude": 121.88333333
    },
    {
        "name": "Ineangan",
        "latitude": 16.31805556,
        "longitude": 121.09305556
    },
    {
        "name": "Itbayat",
        "latitude": 20.76667,
        "longitude": 121.83333
    },
    {
        "name": "Ivana",
        "latitude": 20.36666667,
        "longitude": 121.91666667
    },
    {
        "name": "Jones",
        "latitude": 16.55833333,
        "longitude": 121.7
    },
    {
        "name": "Kasibu",
        "latitude": 16.31666667,
        "longitude": 121.28333333
    },
    {
        "name": "Kayapa",
        "latitude": 16.41666667,
        "longitude": 120.91666667
    },
    {
        "name": "La Paz",
        "latitude": 16.91083333,
        "longitude": 121.66833333
    },
    {
        "name": "Lal-lo",
        "latitude": 18.2,
        "longitude": 121.66666667
    },
    {
        "name": "Lallayug",
        "latitude": 17.70694444,
        "longitude": 121.44166667
    },
    {
        "name": "Lanna",
        "latitude": 17.69611111,
        "longitude": 121.70027778
    },
    {
        "name": "Lapi",
        "latitude": 17.71611111,
        "longitude": 121.89777778
    },
    {
        "name": "Larion Alto",
        "latitude": 17.63083333,
        "longitude": 121.76055556
    },
    {
        "name": "Lasam",
        "latitude": 18.06666667,
        "longitude": 121.6
    },
    {
        "name": "Lucban",
        "latitude": 18.33638889,
        "longitude": 121.43083333
    },
    {
        "name": "Luna",
        "latitude": 16.96666667,
        "longitude": 121.73333333
    },
    {
        "name": "Mabasa",
        "latitude": 16.32111111,
        "longitude": 121.12611111
    },
    {
        "name": "Mabini",
        "latitude": 17.09944444,
        "longitude": 121.73444444
    },
    {
        "name": "Mabuttal East",
        "latitude": 18.37611111,
        "longitude": 121.51472222
    },
    {
        "name": "Maconacon",
        "latitude": 17.387125,
        "longitude": 122.23791667
    },
    {
        "name": "Maddarulug Norte",
        "latitude": 17.60722222,
        "longitude": 121.67666667
    },
    {
        "name": "Maddela",
        "latitude": 16.34138889,
        "longitude": 121.685
    },
    {
        "name": "Magalalag",
        "latitude": 17.57722222,
        "longitude": 121.735
    },
    {
        "name": "Magdalena",
        "latitude": 16.95222222,
        "longitude": 121.66555556
    },
    {
        "name": "Maguilling",
        "latitude": 17.76972222,
        "longitude": 121.49777778
    },
    {
        "name": "Mahatao",
        "latitude": 20.41666667,
        "longitude": 121.95
    },
    {
        "name": "Malasin",
        "latitude": 16.30444444,
        "longitude": 121.10611111
    },
    {
        "name": "Mallig",
        "latitude": 17.2,
        "longitude": 121.61666667
    },
    {
        "name": "Maluno Sur",
        "latitude": 16.99888889,
        "longitude": 121.96444444
    },
    {
        "name": "Manaring",
        "latitude": 17.17305556,
        "longitude": 121.9025
    },
    {
        "name": "Manga",
        "latitude": 17.70111111,
        "longitude": 121.86055556
    },
    {
        "name": "Masaya Sur",
        "latitude": 16.50027778,
        "longitude": 121.7475
    },
    {
        "name": "Masipi West",
        "latitude": 17.37944444,
        "longitude": 121.83861111
    },
    {
        "name": "Maxingal",
        "latitude": 18.215,
        "longitude": 121.66805556
    },
    {
        "name": "Minallo",
        "latitude": 16.98694444,
        "longitude": 121.85388889
    },
    {
        "name": "Minanga Norte",
        "latitude": 17.45222222,
        "longitude": 121.78527778
    },
    {
        "name": "Minante Segundo",
        "latitude": 16.90222222,
        "longitude": 121.76194444
    },
    {
        "name": "Minuri",
        "latitude": 16.53222222,
        "longitude": 121.85527778
    },
    {
        "name": "Mozzozzin Sur",
        "latitude": 17.45694444,
        "longitude": 121.74611111
    },
    {
        "name": "Mungo",
        "latitude": 17.72416667,
        "longitude": 121.47083333
    },
    {
        "name": "Municipality of Delfin Albano",
        "latitude": 17.26667,
        "longitude": 121.73333
    },
    {
        "name": "Mu\u00f1oz East",
        "latitude": 17.1575,
        "longitude": 121.61361111
    },
    {
        "name": "Nabannagan West",
        "latitude": 18.07166667,
        "longitude": 121.53638889
    },
    {
        "name": "Nagrumbuan",
        "latitude": 16.89944444,
        "longitude": 121.70972222
    },
    {
        "name": "Nagtipunan",
        "latitude": 16.21666667,
        "longitude": 121.6
    },
    {
        "name": "Naguilian",
        "latitude": 17.01667,
        "longitude": 121.86667
    },
    {
        "name": "Namuac",
        "latitude": 18.61083333,
        "longitude": 121.16583333
    },
    {
        "name": "Nattapian",
        "latitude": 17.67527778,
        "longitude": 121.70305556
    },
    {
        "name": "Paddaya",
        "latitude": 18.32361111,
        "longitude": 121.73861111
    },
    {
        "name": "Palagao Norte",
        "latitude": 18.04416667,
        "longitude": 121.71861111
    },
    {
        "name": "Palanan",
        "latitude": 17.05888889,
        "longitude": 122.43
    },
    {
        "name": "Pamplona",
        "latitude": 18.45,
        "longitude": 121.34166667
    },
    {
        "name": "Pangal Sur",
        "latitude": 16.60027778,
        "longitude": 121.66972222
    },
    {
        "name": "Pata",
        "latitude": 17.71527778,
        "longitude": 121.50166667
    },
    {
        "name": "Pattao",
        "latitude": 18.24694444,
        "longitude": 121.81472222
    },
    {
        "name": "Pe\u00f1ablanca",
        "latitude": 17.63333333,
        "longitude": 121.78333333
    },
    {
        "name": "Piat",
        "latitude": 17.79166667,
        "longitude": 121.475
    },
    {
        "name": "Pinoma",
        "latitude": 16.87416667,
        "longitude": 121.70666667
    },
    {
        "name": "Quezon",
        "latitude": 17.31666667,
        "longitude": 121.61666667
    },
    {
        "name": "Quibal",
        "latitude": 17.71583333,
        "longitude": 121.81138889
    },
    {
        "name": "Quirino",
        "latitude": 17.13333333,
        "longitude": 121.7
    },
    {
        "name": "Ragan Norte",
        "latitude": 17.32305556,
        "longitude": 121.77416667
    },
    {
        "name": "Ramon (municipal capital)",
        "latitude": 16.78416,
        "longitude": 121.53504
    },
    {
        "name": "Ramos West",
        "latitude": 16.69833333,
        "longitude": 121.61361111
    },
    {
        "name": "Reina Mercedes",
        "latitude": 16.98333333,
        "longitude": 121.78333333
    },
    {
        "name": "Rizal",
        "latitude": 17.85,
        "longitude": 121.35
    },
    {
        "name": "Roxas",
        "latitude": 17.11666667,
        "longitude": 121.61666667
    },
    {
        "name": "Sabtang",
        "latitude": 20.33333333,
        "longitude": 121.86666667
    },
    {
        "name": "Saguday",
        "latitude": 16.51666667,
        "longitude": 121.6
    },
    {
        "name": "Salinas",
        "latitude": 16.36944444,
        "longitude": 121.01888889
    },
    {
        "name": "Salinungan Proper",
        "latitude": 16.86916667,
        "longitude": 121.61444444
    },
    {
        "name": "San Agustin",
        "latitude": 16.51666667,
        "longitude": 121.75
    },
    {
        "name": "San Antonio",
        "latitude": 16.35027778,
        "longitude": 121.10916667
    },
    {
        "name": "San Bernardo",
        "latitude": 17.40472222,
        "longitude": 121.75166667
    },
    {
        "name": "San Fernando",
        "latitude": 16.38916667,
        "longitude": 121.1325
    },
    {
        "name": "San Guillermo",
        "latitude": 16.73333,
        "longitude": 121.86667
    },
    {
        "name": "San Isidro",
        "latitude": 16.73333,
        "longitude": 121.61667
    },
    {
        "name": "San Jose",
        "latitude": 17.15,
        "longitude": 121.6
    },
    {
        "name": "San Luis",
        "latitude": 16.96444444,
        "longitude": 121.82777778
    },
    {
        "name": "San Manuel",
        "latitude": 17.01666667,
        "longitude": 121.63333333
    },
    {
        "name": "San Mariano",
        "latitude": 16.98277778,
        "longitude": 122.01416667
    },
    {
        "name": "San Mateo",
        "latitude": 16.88333333,
        "longitude": 121.58333333
    },
    {
        "name": "San Pablo",
        "latitude": 17.48305556,
        "longitude": 121.98777778
    },
    {
        "name": "San Pedro",
        "latitude": 17.2,
        "longitude": 121.88333333
    },
    {
        "name": "San Vicente",
        "latitude": 18.5075,
        "longitude": 122.15027778
    },
    {
        "name": "Sanchez Mira",
        "latitude": 18.56666667,
        "longitude": 121.23333333
    },
    {
        "name": "Sandiat Centro",
        "latitude": 17.07305556,
        "longitude": 121.6375
    },
    {
        "name": "Santa Ana",
        "latitude": 18.46666667,
        "longitude": 122.15
    },
    {
        "name": "Santa Cruz",
        "latitude": 18.51638889,
        "longitude": 121.31055556
    },
    {
        "name": "Santa Fe",
        "latitude": 16.16194444,
        "longitude": 120.93888889
    },
    {
        "name": "Santa Maria",
        "latitude": 17.46666667,
        "longitude": 121.75
    },
    {
        "name": "Santa Praxedes",
        "latitude": 18.56666667,
        "longitude": 121.0
    },
    {
        "name": "Santa Teresita",
        "latitude": 18.25,
        "longitude": 121.88333333
    },
    {
        "name": "Santiago",
        "latitude": 16.68333333,
        "longitude": 121.55
    },
    {
        "name": "Santo Domingo",
        "latitude": 17.16,
        "longitude": 121.75194444
    },
    {
        "name": "Santo Ni\u00f1o",
        "latitude": 17.8861,
        "longitude": 121.5691
    },
    {
        "name": "Santo Tomas",
        "latitude": 17.4,
        "longitude": 121.76666667
    },
    {
        "name": "Siempre Viva",
        "latitude": 17.22861111,
        "longitude": 121.63305556
    },
    {
        "name": "Sillawit",
        "latitude": 16.87305556,
        "longitude": 121.75916667
    },
    {
        "name": "Simanu Sur",
        "latitude": 17.48527778,
        "longitude": 121.83416667
    },
    {
        "name": "Simimbaan",
        "latitude": 17.11861111,
        "longitude": 121.58138889
    },
    {
        "name": "Sinamar",
        "latitude": 16.9,
        "longitude": 121.56666667
    },
    {
        "name": "Sindon",
        "latitude": 17.06027778,
        "longitude": 122.01527778
    },
    {
        "name": "Solana",
        "latitude": 17.65,
        "longitude": 121.68333333
    },
    {
        "name": "Solano",
        "latitude": 16.52388889,
        "longitude": 121.19194444
    },
    {
        "name": "Soyung",
        "latitude": 16.7,
        "longitude": 121.66555556
    },
    {
        "name": "Taguing",
        "latitude": 17.94638889,
        "longitude": 121.75527778
    },
    {
        "name": "Tapel",
        "latitude": 18.28916667,
        "longitude": 122.02916667
    },
    {
        "name": "Tuao",
        "latitude": 17.73333333,
        "longitude": 121.45
    },
    {
        "name": "Tuguegarao",
        "latitude": 17.61577,
        "longitude": 121.72285
    },
    {
        "name": "Tuguegarao City",
        "latitude": 17.61667,
        "longitude": 121.75
    },
    {
        "name": "Tumauini",
        "latitude": 17.26666667,
        "longitude": 121.8
    },
    {
        "name": "Tupang",
        "latitude": 17.90472222,
        "longitude": 121.64111111
    },
    {
        "name": "Uddiawan",
        "latitude": 16.55888889,
        "longitude": 121.15111111
    },
    {
        "name": "Ugac Sur",
        "latitude": 17.61333333,
        "longitude": 121.71583333
    },
    {
        "name": "Ugad",
        "latitude": 17.3075,
        "longitude": 121.80027778
    },
    {
        "name": "Upi",
        "latitude": 17.0825,
        "longitude": 121.83444444
    },
    {
        "name": "Uyugan",
        "latitude": 20.35,
        "longitude": 121.93333333
    },
    {
        "name": "Villaverde",
        "latitude": 16.58333333,
        "longitude": 121.2
    },
    {
        "name": "Yeban Norte",
        "latitude": 17.02194444,
        "longitude": 121.94194444
    },
    {
        "name": "Acli",
        "latitude": 15.12277778,
        "longitude": 120.64472222
    },
    {
        "name": "Agbannawag",
        "latitude": 15.67916667,
        "longitude": 121.08333333
    },
    {
        "name": "Akle",
        "latitude": 15.04833333,
        "longitude": 121.07333333
    },
    {
        "name": "Aliaga",
        "latitude": 15.49879722,
        "longitude": 120.84103611
    },
    {
        "name": "Alua",
        "latitude": 15.31166667,
        "longitude": 120.89444444
    },
    {
        "name": "Amacalan",
        "latitude": 15.58138889,
        "longitude": 120.61111111
    },
    {
        "name": "Amucao",
        "latitude": 15.46416667,
        "longitude": 120.68638889
    },
    {
        "name": "Amu\u00f1gan",
        "latitude": 15.36527778,
        "longitude": 119.95833333
    },
    {
        "name": "Anao",
        "latitude": 15.73038611,
        "longitude": 120.62641389
    },
    {
        "name": "Angat",
        "latitude": 14.92814722,
        "longitude": 121.02931944
    },
    {
        "name": "Angeles",
        "latitude": 15.14718056,
        "longitude": 120.58473333
    },
    {
        "name": "Antipolo",
        "latitude": 15.61805556,
        "longitude": 121.19
    },
    {
        "name": "Apalit",
        "latitude": 14.94956111,
        "longitude": 120.75869167
    },
    {
        "name": "Arayat",
        "latitude": 15.14926111,
        "longitude": 120.76915833
    },
    {
        "name": "Arenas",
        "latitude": 15.17055556,
        "longitude": 120.68583333
    },
    {
        "name": "Arminia",
        "latitude": 15.43555556,
        "longitude": 120.56388889
    },
    {
        "name": "Bacabac",
        "latitude": 15.72472222,
        "longitude": 120.42805556
    },
    {
        "name": "Bacolor",
        "latitude": 14.99842778,
        "longitude": 120.65265
    },
    {
        "name": "Bacsay",
        "latitude": 15.62055556,
        "longitude": 120.34333333
    },
    {
        "name": "Bagac",
        "latitude": 14.58333,
        "longitude": 120.41667
    },
    {
        "name": "Bagong Barrio",
        "latitude": 14.89,
        "longitude": 120.94083333
    },
    {
        "name": "Bagong-Sikat",
        "latitude": 15.48,
        "longitude": 121.30722222
    },
    {
        "name": "Bahay Pare",
        "latitude": 15.0325,
        "longitude": 120.88083333
    },
    {
        "name": "Bakulong",
        "latitude": 15.53777778,
        "longitude": 120.63861111
    },
    {
        "name": "Balagtas",
        "latitude": 14.814467,
        "longitude": 120.908467
    },
    {
        "name": "Balanga",
        "latitude": 14.68333333,
        "longitude": 120.53333333
    },
    {
        "name": "Balaoang",
        "latitude": 15.66333333,
        "longitude": 120.51472222
    },
    {
        "name": "Balas",
        "latitude": 15.05,
        "longitude": 120.58611111
    },
    {
        "name": "Balasing",
        "latitude": 14.85444444,
        "longitude": 121.01277778
    },
    {
        "name": "Balayang",
        "latitude": 15.54944444,
        "longitude": 120.69416667
    },
    {
        "name": "Baler",
        "latitude": 15.758333,
        "longitude": 121.5625
    },
    {
        "name": "Balingcanaway",
        "latitude": 15.48222222,
        "longitude": 120.68555556
    },
    {
        "name": "Balite",
        "latitude": 15.64444444,
        "longitude": 120.64194444
    },
    {
        "name": "Baliuag",
        "latitude": 14.95,
        "longitude": 120.9
    },
    {
        "name": "Baloc",
        "latitude": 15.64361111,
        "longitude": 120.88527778
    },
    {
        "name": "Baloy",
        "latitude": 15.80527778,
        "longitude": 120.77416667
    },
    {
        "name": "Balsic",
        "latitude": 14.85916667,
        "longitude": 120.4825
    },
    {
        "name": "Balucuc",
        "latitude": 14.95277778,
        "longitude": 120.81444444
    },
    {
        "name": "Balut",
        "latitude": 14.68333333,
        "longitude": 120.55
    },
    {
        "name": "Balutu",
        "latitude": 15.29861111,
        "longitude": 120.69222222
    },
    {
        "name": "Bamban",
        "latitude": 15.65,
        "longitude": 120.25
    },
    {
        "name": "Banawang",
        "latitude": 14.61222222,
        "longitude": 120.39
    },
    {
        "name": "Bani",
        "latitude": 15.58222222,
        "longitude": 119.93361111
    },
    {
        "name": "Baquero Norte",
        "latitude": 15.71611111,
        "longitude": 120.55416667
    },
    {
        "name": "Batasan Bata",
        "latitude": 15.14444444,
        "longitude": 120.94083333
    },
    {
        "name": "Batitang",
        "latitude": 15.40027778,
        "longitude": 120.80277778
    },
    {
        "name": "Bayanan",
        "latitude": 13.35916667,
        "longitude": 121.17
    },
    {
        "name": "Beddeng",
        "latitude": 14.97722222,
        "longitude": 120.085
    },
    {
        "name": "Biay",
        "latitude": 15.74027778,
        "longitude": 119.90666667
    },
    {
        "name": "Bibiclat",
        "latitude": 15.52194444,
        "longitude": 120.86222222
    },
    {
        "name": "Bicos",
        "latitude": 15.66027778,
        "longitude": 121.04138889
    },
    {
        "name": "Biga",
        "latitude": 13.31055556,
        "longitude": 121.16111111
    },
    {
        "name": "Bilad",
        "latitude": 15.73666667,
        "longitude": 120.43333333
    },
    {
        "name": "Bobon Second",
        "latitude": 15.65666667,
        "longitude": 120.38111111
    },
    {
        "name": "Bocaue",
        "latitude": 14.8,
        "longitude": 120.93333333
    },
    {
        "name": "Bodega",
        "latitude": 14.92277778,
        "longitude": 120.47972222
    },
    {
        "name": "Bolitoc",
        "latitude": 15.73944444,
        "longitude": 119.87694444
    },
    {
        "name": "Bongabon",
        "latitude": 15.6321,
        "longitude": 121.1448
    },
    {
        "name": "Botolan",
        "latitude": 15.2896,
        "longitude": 120.0245
    },
    {
        "name": "Buenlag",
        "latitude": 15.6275,
        "longitude": 120.58194444
    },
    {
        "name": "Buensuseso",
        "latitude": 15.19333333,
        "longitude": 120.67305556
    },
    {
        "name": "Bulakan",
        "latitude": 14.79278,
        "longitude": 120.87889
    },
    {
        "name": "Bulaon",
        "latitude": 15.0825,
        "longitude": 120.66277778
    },
    {
        "name": "Bularit",
        "latitude": 15.56833333,
        "longitude": 120.62166667
    },
    {
        "name": "Bulawin",
        "latitude": 15.41722222,
        "longitude": 119.95638889
    },
    {
        "name": "Bulihan",
        "latitude": 14.87583333,
        "longitude": 120.89555556
    },
    {
        "name": "Buliran",
        "latitude": 15.54611111,
        "longitude": 120.95972222
    },
    {
        "name": "Buliran Segundo",
        "latitude": 15.26666667,
        "longitude": 120.86666667
    },
    {
        "name": "Bulualto",
        "latitude": 15.22138889,
        "longitude": 120.95333333
    },
    {
        "name": "Bundoc",
        "latitude": 15.48583333,
        "longitude": 120.7175
    },
    {
        "name": "Bunol",
        "latitude": 15.66722222,
        "longitude": 120.83444444
    },
    {
        "name": "Burgos",
        "latitude": 15.72888889,
        "longitude": 120.57222222
    },
    {
        "name": "Bustos",
        "latitude": 14.95806,
        "longitude": 120.91778
    },
    {
        "name": "Cabanatuan",
        "latitude": 15.48333333,
        "longitude": 120.96666667
    },
    {
        "name": "Cabangan",
        "latitude": 15.13333333,
        "longitude": 120.15
    },
    {
        "name": "Cabayaoasan",
        "latitude": 15.66333333,
        "longitude": 120.55138889
    },
    {
        "name": "Cabcaben",
        "latitude": 14.45388889,
        "longitude": 120.59138889
    },
    {
        "name": "Cabiao",
        "latitude": 15.25,
        "longitude": 120.85
    },
    {
        "name": "Cabog",
        "latitude": 15.31527778,
        "longitude": 121.37027778
    },
    {
        "name": "Cafe",
        "latitude": 15.33694444,
        "longitude": 120.70611111
    },
    {
        "name": "Calaba",
        "latitude": 15.30055556,
        "longitude": 120.87416667
    },
    {
        "name": "Calancuasan Norte",
        "latitude": 15.80138889,
        "longitude": 120.64111111
    },
    {
        "name": "Calangain",
        "latitude": 14.89805556,
        "longitude": 120.55888889
    },
    {
        "name": "Calantas",
        "latitude": 15.01944444,
        "longitude": 120.51805556
    },
    {
        "name": "Calayaan",
        "latitude": 15.5675,
        "longitude": 120.51444444
    },
    {
        "name": "Calibungan",
        "latitude": 15.59833333,
        "longitude": 120.72388889
    },
    {
        "name": "Calibutbut",
        "latitude": 15.115,
        "longitude": 120.59805556
    },
    {
        "name": "Calingcuan",
        "latitude": 15.33333333,
        "longitude": 120.58333333
    },
    {
        "name": "Calumpang",
        "latitude": 15.17388889,
        "longitude": 121.025
    },
    {
        "name": "Calumpit",
        "latitude": 14.91666667,
        "longitude": 120.76666667
    },
    {
        "name": "Cama Juan",
        "latitude": 15.39222222,
        "longitude": 120.76861111
    },
    {
        "name": "Camachile",
        "latitude": 14.64361111,
        "longitude": 120.58083333
    },
    {
        "name": "Camias",
        "latitude": 15.16666667,
        "longitude": 120.97416667
    },
    {
        "name": "Camiling",
        "latitude": 15.7,
        "longitude": 120.41666667
    },
    {
        "name": "Candaba",
        "latitude": 15.093333,
        "longitude": 120.828333
    },
    {
        "name": "Candating",
        "latitude": 15.15055556,
        "longitude": 120.81861111
    },
    {
        "name": "Candelaria",
        "latitude": 15.63333333,
        "longitude": 119.93333333
    },
    {
        "name": "Capas",
        "latitude": 15.35,
        "longitude": 120.46667
    },
    {
        "name": "Cardona",
        "latitude": 15.57222222,
        "longitude": 120.58972222
    },
    {
        "name": "Carmen",
        "latitude": 15.44694444,
        "longitude": 120.82666667
    },
    {
        "name": "Carranglan",
        "latitude": 15.96138889,
        "longitude": 121.06416667
    },
    {
        "name": "Casiguran",
        "latitude": 16.28333333,
        "longitude": 122.11666667
    },
    {
        "name": "Castillejos",
        "latitude": 14.93333333,
        "longitude": 120.2
    },
    {
        "name": "Cauayan",
        "latitude": 15.15138889,
        "longitude": 120.67166667
    },
    {
        "name": "Cavite",
        "latitude": 15.67777778,
        "longitude": 120.76972222
    },
    {
        "name": "Cawayan Bugtong",
        "latitude": 15.63361111,
        "longitude": 120.77694444
    },
    {
        "name": "City of Balanga",
        "latitude": 14.66695,
        "longitude": 120.4943
    },
    {
        "name": "City of Gapan",
        "latitude": 15.28333,
        "longitude": 120.98333
    },
    {
        "name": "City of Malolos",
        "latitude": 14.82978,
        "longitude": 120.83713
    },
    {
        "name": "City of Meycauayan",
        "latitude": 14.75238,
        "longitude": 120.96794
    },
    {
        "name": "City of San Fernando",
        "latitude": 15.04574,
        "longitude": 120.70373
    },
    {
        "name": "City of San Jose del Monte",
        "latitude": 14.81667,
        "longitude": 121.11667
    },
    {
        "name": "Comillas",
        "latitude": 15.39833333,
        "longitude": 120.70055556
    },
    {
        "name": "Communal",
        "latitude": 13.25472222,
        "longitude": 121.13666667
    },
    {
        "name": "Concepcion",
        "latitude": 14.8,
        "longitude": 120.93333333
    },
    {
        "name": "Conversion",
        "latitude": 15.89833333,
        "longitude": 121.12777778
    },
    {
        "name": "Culianin",
        "latitude": 14.915,
        "longitude": 120.89861111
    },
    {
        "name": "Culubasa",
        "latitude": 15.14444444,
        "longitude": 120.65222222
    },
    {
        "name": "Cut-cut Primero",
        "latitude": 15.48277778,
        "longitude": 120.58611111
    },
    {
        "name": "Cuyapo",
        "latitude": 15.78333333,
        "longitude": 120.66666667
    },
    {
        "name": "Dampol",
        "latitude": 14.90138889,
        "longitude": 120.82194444
    },
    {
        "name": "Del Carmen",
        "latitude": 15.00555556,
        "longitude": 120.53416667
    },
    {
        "name": "Del Pilar",
        "latitude": 15.03611111,
        "longitude": 120.69944444
    },
    {
        "name": "Digdig",
        "latitude": 15.94888889,
        "longitude": 120.97777778
    },
    {
        "name": "Dilasag",
        "latitude": 16.4,
        "longitude": 122.21666667
    },
    {
        "name": "Diliman Primero",
        "latitude": 15.02472222,
        "longitude": 120.95194444
    },
    {
        "name": "Dinalongan",
        "latitude": 16.18333,
        "longitude": 121.88333
    },
    {
        "name": "Dinalupihan",
        "latitude": 14.88333333,
        "longitude": 120.46666667
    },
    {
        "name": "Dingalan",
        "latitude": 15.38972222,
        "longitude": 121.39277778
    },
    {
        "name": "Dipaculao",
        "latitude": 15.98333333,
        "longitude": 121.63333333
    },
    {
        "name": "Dolores",
        "latitude": 15.095,
        "longitude": 120.52888889
    },
    {
        "name": "Do\u00f1a Remedios Trinidad",
        "latitude": 15.0,
        "longitude": 121.08333333
    },
    {
        "name": "Entablado",
        "latitude": 15.28666667,
        "longitude": 120.86305556
    },
    {
        "name": "Estipona",
        "latitude": 15.59027778,
        "longitude": 120.63777778
    },
    {
        "name": "Estrella",
        "latitude": 15.75,
        "longitude": 121.03333333
    },
    {
        "name": "Floridablanca",
        "latitude": 14.93333333,
        "longitude": 120.5
    },
    {
        "name": "Gabaldon",
        "latitude": 15.54777778,
        "longitude": 120.67722222
    },
    {
        "name": "Gapan",
        "latitude": 15.3075,
        "longitude": 120.945278
    },
    {
        "name": "General Luna",
        "latitude": 15.73055556,
        "longitude": 121.17916667
    },
    {
        "name": "General Mamerto Natividad",
        "latitude": 15.6025,
        "longitude": 121.0515
    },
    {
        "name": "General Tinio",
        "latitude": 15.35075,
        "longitude": 121.04773
    },
    {
        "name": "Gerona",
        "latitude": 15.6,
        "longitude": 120.6
    },
    {
        "name": "Guagua",
        "latitude": 14.96666667,
        "longitude": 120.63333333
    },
    {
        "name": "Gueset",
        "latitude": 15.95,
        "longitude": 120.63333333
    },
    {
        "name": "Guiguinto",
        "latitude": 14.83333333,
        "longitude": 120.88333333
    },
    {
        "name": "Guimba",
        "latitude": 15.65805556,
        "longitude": 120.76888889
    },
    {
        "name": "Guisguis",
        "latitude": 15.79277778,
        "longitude": 119.97666667
    },
    {
        "name": "Guyong",
        "latitude": 14.83611111,
        "longitude": 120.97833333
    },
    {
        "name": "Hagonoy",
        "latitude": 14.83416667,
        "longitude": 120.73277778
    },
    {
        "name": "Hermosa",
        "latitude": 14.83333333,
        "longitude": 120.5
    },
    {
        "name": "Iba",
        "latitude": 15.33333333,
        "longitude": 119.98333333
    },
    {
        "name": "Jaen",
        "latitude": 15.33333333,
        "longitude": 120.9
    },
    {
        "name": "La Paz",
        "latitude": 15.44305556,
        "longitude": 120.72888889
    },
    {
        "name": "Lambakin",
        "latitude": 14.75,
        "longitude": 120.86666667
    },
    {
        "name": "Lanat",
        "latitude": 15.79194444,
        "longitude": 120.60472222
    },
    {
        "name": "Laug",
        "latitude": 15.04666667,
        "longitude": 120.75138889
    },
    {
        "name": "Laur",
        "latitude": 15.58333333,
        "longitude": 121.18333333
    },
    {
        "name": "Lawang Kupang",
        "latitude": 15.34805556,
        "longitude": 120.8575
    },
    {
        "name": "Lennec",
        "latitude": 15.68361111,
        "longitude": 120.73388889
    },
    {
        "name": "Licab",
        "latitude": 15.5439,
        "longitude": 120.7634
    },
    {
        "name": "Ligaya",
        "latitude": 15.50916667,
        "longitude": 121.28722222
    },
    {
        "name": "Limay",
        "latitude": 14.56194,
        "longitude": 120.59833
    },
    {
        "name": "Liozon",
        "latitude": 15.39916667,
        "longitude": 119.93305556
    },
    {
        "name": "Lipay",
        "latitude": 15.45611111,
        "longitude": 119.92083333
    },
    {
        "name": "Llanera",
        "latitude": 15.66666667,
        "longitude": 121.01666667
    },
    {
        "name": "Lomboy",
        "latitude": 15.4925,
        "longitude": 120.71722222
    },
    {
        "name": "Lourdes",
        "latitude": 14.96666667,
        "longitude": 120.68333333
    },
    {
        "name": "Lubao",
        "latitude": 14.93333333,
        "longitude": 120.6
    },
    {
        "name": "Lucapon",
        "latitude": 15.69972222,
        "longitude": 119.93194444
    },
    {
        "name": "Lupao",
        "latitude": 15.8793,
        "longitude": 120.8983
    },
    {
        "name": "Maasim",
        "latitude": 14.99555556,
        "longitude": 121.03083333
    },
    {
        "name": "Mabalacat",
        "latitude": 15.21666667,
        "longitude": 120.58333333
    },
    {
        "name": "Mabayo",
        "latitude": 14.73166667,
        "longitude": 120.27805556
    },
    {
        "name": "Mabilang",
        "latitude": 15.675,
        "longitude": 120.48833333
    },
    {
        "name": "Mabilog",
        "latitude": 15.39472222,
        "longitude": 120.66583333
    },
    {
        "name": "Mabini",
        "latitude": 15.6,
        "longitude": 120.98333333
    },
    {
        "name": "Macabebe",
        "latitude": 14.90805556,
        "longitude": 120.71555556
    },
    {
        "name": "Macapsing",
        "latitude": 15.67833333,
        "longitude": 121.13194444
    },
    {
        "name": "Macarse",
        "latitude": 15.425,
        "longitude": 120.77472222
    },
    {
        "name": "Macatbong",
        "latitude": 15.50472222,
        "longitude": 121.07916667
    },
    {
        "name": "Magalang",
        "latitude": 15.21666667,
        "longitude": 120.66666667
    },
    {
        "name": "Magliman",
        "latitude": 15.03555556,
        "longitude": 120.66416667
    },
    {
        "name": "Magtangol",
        "latitude": 15.75805556,
        "longitude": 120.91555556
    },
    {
        "name": "Maguinao",
        "latitude": 15.02222222,
        "longitude": 120.93416667
    },
    {
        "name": "Malabon",
        "latitude": 15.63611111,
        "longitude": 119.93777778
    },
    {
        "name": "Malacampa",
        "latitude": 15.64333333,
        "longitude": 120.41111111
    },
    {
        "name": "Maligaya",
        "latitude": 15.67472222,
        "longitude": 120.88861111
    },
    {
        "name": "Malino",
        "latitude": 15.12694444,
        "longitude": 120.67444444
    },
    {
        "name": "Malolos",
        "latitude": 14.84333333,
        "longitude": 120.81138889
    },
    {
        "name": "Maloma",
        "latitude": 15.11361111,
        "longitude": 120.06388889
    },
    {
        "name": "Maluid",
        "latitude": 15.54916667,
        "longitude": 120.65277778
    },
    {
        "name": "Malusac",
        "latitude": 14.85833333,
        "longitude": 120.62111111
    },
    {
        "name": "Mambog",
        "latitude": 15.31361111,
        "longitude": 120.03027778
    },
    {
        "name": "Mamonit",
        "latitude": 15.58722222,
        "longitude": 120.39638889
    },
    {
        "name": "Manacsac",
        "latitude": 15.59527778,
        "longitude": 120.79111111
    },
    {
        "name": "Manatal",
        "latitude": 14.87694444,
        "longitude": 120.91638889
    },
    {
        "name": "Mandili",
        "latitude": 15.17916667,
        "longitude": 120.87722222
    },
    {
        "name": "Mangga",
        "latitude": 15.25027778,
        "longitude": 120.90888889
    },
    {
        "name": "Manibaug Pasig",
        "latitude": 15.09611111,
        "longitude": 120.56444444
    },
    {
        "name": "Manogpi",
        "latitude": 13.31083333,
        "longitude": 121.20388889
    },
    {
        "name": "Mapalacsiao",
        "latitude": 15.42833333,
        "longitude": 120.6525
    },
    {
        "name": "Mapalad",
        "latitude": 15.45138889,
        "longitude": 121.08388889
    },
    {
        "name": "Mapaniqui",
        "latitude": 15.10694444,
        "longitude": 120.92277778
    },
    {
        "name": "Maquiapo",
        "latitude": 14.98555556,
        "longitude": 120.55861111
    },
    {
        "name": "Marawa",
        "latitude": 15.41722222,
        "longitude": 120.83805556
    },
    {
        "name": "Maria Aurora",
        "latitude": 15.7967,
        "longitude": 121.4737
    },
    {
        "name": "Marilao",
        "latitude": 14.75805556,
        "longitude": 120.94805556
    },
    {
        "name": "Mariveles",
        "latitude": 14.43333333,
        "longitude": 120.48333333
    },
    {
        "name": "Masalipit",
        "latitude": 15.14805556,
        "longitude": 121.03722222
    },
    {
        "name": "Masantol",
        "latitude": 14.9,
        "longitude": 120.71666667
    },
    {
        "name": "Masinloc",
        "latitude": 15.53333333,
        "longitude": 119.95
    },
    {
        "name": "Matayumtayum",
        "latitude": 15.51666667,
        "longitude": 120.70972222
    },
    {
        "name": "Maturanoc",
        "latitude": 15.65722222,
        "longitude": 120.79222222
    },
    {
        "name": "Mayantoc",
        "latitude": 15.61666667,
        "longitude": 120.38333333
    },
    {
        "name": "Mexico",
        "latitude": 15.06666667,
        "longitude": 120.71666667
    },
    {
        "name": "Meycauayan",
        "latitude": 14.73333333,
        "longitude": 120.95
    },
    {
        "name": "Minalin",
        "latitude": 14.96666667,
        "longitude": 120.68333333
    },
    {
        "name": "Moncada",
        "latitude": 15.73333333,
        "longitude": 120.56666667
    },
    {
        "name": "Moriones",
        "latitude": 15.46111111,
        "longitude": 120.46583333
    },
    {
        "name": "Morong",
        "latitude": 14.68,
        "longitude": 120.26833333
    },
    {
        "name": "Motrico",
        "latitude": 15.41361111,
        "longitude": 120.67666667
    },
    {
        "name": "Mu\u00f1oz",
        "latitude": 15.71666667,
        "longitude": 120.9
    },
    {
        "name": "Murcia",
        "latitude": 15.40416667,
        "longitude": 120.60916667
    },
    {
        "name": "Nagpandayan",
        "latitude": 15.60138889,
        "longitude": 120.76888889
    },
    {
        "name": "Nambalan",
        "latitude": 15.59916667,
        "longitude": 120.46027778
    },
    {
        "name": "Nampicuan",
        "latitude": 15.73333333,
        "longitude": 120.63333333
    },
    {
        "name": "Nancamarinan",
        "latitude": 15.67527778,
        "longitude": 120.53638889
    },
    {
        "name": "Nieves",
        "latitude": 15.32833333,
        "longitude": 120.94888889
    },
    {
        "name": "Niugan",
        "latitude": 14.94611111,
        "longitude": 120.96722222
    },
    {
        "name": "Norzagaray",
        "latitude": 14.91083333,
        "longitude": 121.04916667
    },
    {
        "name": "Obando",
        "latitude": 14.7,
        "longitude": 120.91666667
    },
    {
        "name": "Olongapo",
        "latitude": 14.83333333,
        "longitude": 120.28333333
    },
    {
        "name": "Orani",
        "latitude": 14.8,
        "longitude": 120.53333333
    },
    {
        "name": "Orion",
        "latitude": 14.62056,
        "longitude": 120.58167
    },
    {
        "name": "Paco Roman",
        "latitude": 15.65972222,
        "longitude": 121.08777778
    },
    {
        "name": "Padapada",
        "latitude": 15.55166667,
        "longitude": 120.51638889
    },
    {
        "name": "Paitan Norte",
        "latitude": 15.83333333,
        "longitude": 120.74083333
    },
    {
        "name": "Palauig",
        "latitude": 15.43333333,
        "longitude": 120.05
    },
    {
        "name": "Palayan",
        "latitude": 15.53333333,
        "longitude": 121.08333333
    },
    {
        "name": "Palusapis",
        "latitude": 15.68333333,
        "longitude": 120.86277778
    },
    {
        "name": "Pamatawan",
        "latitude": 14.92777778,
        "longitude": 120.21361111
    },
    {
        "name": "Panabingan",
        "latitude": 15.37722222,
        "longitude": 120.765
    },
    {
        "name": "Panan",
        "latitude": 15.21333333,
        "longitude": 120.02722222
    },
    {
        "name": "Pance",
        "latitude": 15.68861111,
        "longitude": 120.62
    },
    {
        "name": "Pandacaqui",
        "latitude": 15.17194444,
        "longitude": 120.65444444
    },
    {
        "name": "Pandi",
        "latitude": 14.86666667,
        "longitude": 120.95
    },
    {
        "name": "Pando",
        "latitude": 15.39388889,
        "longitude": 120.68472222
    },
    {
        "name": "Paniqui",
        "latitude": 15.66666667,
        "longitude": 120.58333333
    },
    {
        "name": "Pantabangan",
        "latitude": 15.81666667,
        "longitude": 121.15
    },
    {
        "name": "Pantubig",
        "latitude": 14.96805556,
        "longitude": 120.95472222
    },
    {
        "name": "Paombong",
        "latitude": 14.831111,
        "longitude": 120.789167
    },
    {
        "name": "Papaya",
        "latitude": 15.32027778,
        "longitude": 120.83583333
    },
    {
        "name": "Parang",
        "latitude": 14.63305556,
        "longitude": 120.44916667
    },
    {
        "name": "Parista",
        "latitude": 15.85361111,
        "longitude": 120.92833333
    },
    {
        "name": "Pau",
        "latitude": 15.02777778,
        "longitude": 120.72416667
    },
    {
        "name": "Pe\u00f1aranda",
        "latitude": 15.35,
        "longitude": 121.0
    },
    {
        "name": "Pias",
        "latitude": 15.34527778,
        "longitude": 121.07472222
    },
    {
        "name": "Pilar",
        "latitude": 14.66666667,
        "longitude": 120.56666667
    },
    {
        "name": "Pi\u00f1ahan",
        "latitude": 15.62666667,
        "longitude": 121.06222222
    },
    {
        "name": "Pinambaran",
        "latitude": 15.20222222,
        "longitude": 120.97805556
    },
    {
        "name": "Pio",
        "latitude": 15.0475,
        "longitude": 120.51888889
    },
    {
        "name": "Plaridel",
        "latitude": 14.88694444,
        "longitude": 120.85694444
    },
    {
        "name": "Porac",
        "latitude": 15.07194444,
        "longitude": 120.54194444
    },
    {
        "name": "Porais",
        "latitude": 15.755,
        "longitude": 121.04277778
    },
    {
        "name": "Prado Siongco",
        "latitude": 14.87888889,
        "longitude": 120.51305556
    },
    {
        "name": "Pulilan",
        "latitude": 14.9,
        "longitude": 120.85
    },
    {
        "name": "Pulo",
        "latitude": 14.96222222,
        "longitude": 121.01472222
    },
    {
        "name": "Pulong Gubat",
        "latitude": 14.85944444,
        "longitude": 120.90611111
    },
    {
        "name": "Pulong Sampalok",
        "latitude": 14.96111111,
        "longitude": 121.06083333
    },
    {
        "name": "Pulung Santol",
        "latitude": 15.04583333,
        "longitude": 120.56194444
    },
    {
        "name": "Pulungmasle",
        "latitude": 15.00027778,
        "longitude": 120.55777778
    },
    {
        "name": "Puncan",
        "latitude": 15.90722222,
        "longitude": 120.99083333
    },
    {
        "name": "Pura",
        "latitude": 15.6248,
        "longitude": 120.648
    },
    {
        "name": "Purac",
        "latitude": 15.25194444,
        "longitude": 120.01694444
    },
    {
        "name": "Putlod",
        "latitude": 15.37055556,
        "longitude": 120.8675
    },
    {
        "name": "Quezon",
        "latitude": 15.55,
        "longitude": 120.81666667
    },
    {
        "name": "Rajal Norte",
        "latitude": 15.44472222,
        "longitude": 120.8625
    },
    {
        "name": "Ramos",
        "latitude": 15.66666667,
        "longitude": 120.64166667
    },
    {
        "name": "Rizal",
        "latitude": 15.68333333,
        "longitude": 121.16666667
    },
    {
        "name": "Sabang",
        "latitude": 14.695,
        "longitude": 120.25083333
    },
    {
        "name": "Sagana",
        "latitude": 15.56888889,
        "longitude": 121.15222222
    },
    {
        "name": "Salapungan",
        "latitude": 15.13388889,
        "longitude": 120.92805556
    },
    {
        "name": "Salaza",
        "latitude": 15.45416667,
        "longitude": 119.95527778
    },
    {
        "name": "Salcedo",
        "latitude": 15.85722222,
        "longitude": 120.6
    },
    {
        "name": "Salvacion I",
        "latitude": 15.83972222,
        "longitude": 120.91583333
    },
    {
        "name": "Samal",
        "latitude": 14.76778,
        "longitude": 120.54306
    },
    {
        "name": "Sampaloc",
        "latitude": 15.81666667,
        "longitude": 120.86666667
    },
    {
        "name": "San Agustin",
        "latitude": 14.93333333,
        "longitude": 120.15
    },
    {
        "name": "San Alejandro",
        "latitude": 15.56111111,
        "longitude": 120.84888889
    },
    {
        "name": "San Andres",
        "latitude": 15.71916667,
        "longitude": 120.7775
    },
    {
        "name": "San Anton",
        "latitude": 15.34777778,
        "longitude": 120.92
    },
    {
        "name": "San Antonio",
        "latitude": 15.38333333,
        "longitude": 120.8
    },
    {
        "name": "San Basilio",
        "latitude": 15.03333333,
        "longitude": 120.58416667
    },
    {
        "name": "San Benito",
        "latitude": 14.85166667,
        "longitude": 120.42694444
    },
    {
        "name": "San Carlos",
        "latitude": 15.03972222,
        "longitude": 120.76277778
    },
    {
        "name": "San Casimiro",
        "latitude": 15.55305556,
        "longitude": 120.78083333
    },
    {
        "name": "San Clemente",
        "latitude": 15.71666667,
        "longitude": 120.36666667
    },
    {
        "name": "San Cristobal",
        "latitude": 15.55388889,
        "longitude": 120.76694444
    },
    {
        "name": "San Fabian",
        "latitude": 15.59638889,
        "longitude": 120.90666667
    },
    {
        "name": "San Felipe",
        "latitude": 15.06194444,
        "longitude": 120.07
    },
    {
        "name": "San Felipe Old",
        "latitude": 15.50138889,
        "longitude": 120.90777778
    },
    {
        "name": "San Fernando",
        "latitude": 15.03333333,
        "longitude": 120.68333333
    },
    {
        "name": "San Francisco",
        "latitude": 15.35555556,
        "longitude": 120.84
    },
    {
        "name": "San Ildefonso",
        "latitude": 15.078889,
        "longitude": 120.941944
    },
    {
        "name": "San Isidro",
        "latitude": 15.26666667,
        "longitude": 120.9
    },
    {
        "name": "San Jacinto",
        "latitude": 15.545,
        "longitude": 120.66972222
    },
    {
        "name": "San Jose",
        "latitude": 15.78333333,
        "longitude": 121.0
    },
    {
        "name": "San Jose del Monte",
        "latitude": 14.81388889,
        "longitude": 121.04527778
    },
    {
        "name": "San Juan",
        "latitude": 15.28972222,
        "longitude": 120.06472222
    },
    {
        "name": "San Juan de Mata",
        "latitude": 15.53527778,
        "longitude": 120.53027778
    },
    {
        "name": "San Leonardo",
        "latitude": 15.36666667,
        "longitude": 120.96666667
    },
    {
        "name": "San Lorenzo",
        "latitude": 15.48611111,
        "longitude": 119.96222222
    },
    {
        "name": "San Luis",
        "latitude": 15.04,
        "longitude": 120.79194444
    },
    {
        "name": "San Manuel",
        "latitude": 15.83333333,
        "longitude": 120.58333333
    },
    {
        "name": "San Marcelino",
        "latitude": 14.97418,
        "longitude": 120.15733
    },
    {
        "name": "San Mariano",
        "latitude": 15.32083333,
        "longitude": 120.87611111
    },
    {
        "name": "San Mateo",
        "latitude": 15.2,
        "longitude": 120.79472222
    },
    {
        "name": "San Miguel",
        "latitude": 15.14222222,
        "longitude": 120.97555556
    },
    {
        "name": "San Narciso",
        "latitude": 15.01666667,
        "longitude": 120.08333333
    },
    {
        "name": "San Nicolas",
        "latitude": 15.58416667,
        "longitude": 120.67638889
    },
    {
        "name": "San Pascual",
        "latitude": 15.50138889,
        "longitude": 120.66722222
    },
    {
        "name": "San Patricio",
        "latitude": 15.09777778,
        "longitude": 120.72888889
    },
    {
        "name": "San Rafael",
        "latitude": 14.95,
        "longitude": 120.96666667
    },
    {
        "name": "San Ricardo",
        "latitude": 15.59583333,
        "longitude": 120.97277778
    },
    {
        "name": "San Roque",
        "latitude": 15.00944444,
        "longitude": 120.93833333
    },
    {
        "name": "San Roque Dau First",
        "latitude": 14.97722222,
        "longitude": 120.57694444
    },
    {
        "name": "San Simon",
        "latitude": 14.9996,
        "longitude": 120.7808
    },
    {
        "name": "San Vicente",
        "latitude": 15.29222222,
        "longitude": 120.655
    },
    {
        "name": "San Vincente",
        "latitude": 13.40666667,
        "longitude": 121.175
    },
    {
        "name": "Santa Ana",
        "latitude": 15.09388889,
        "longitude": 120.76805556
    },
    {
        "name": "Santa Barbara",
        "latitude": 15.385,
        "longitude": 120.79611111
    },
    {
        "name": "Santa Cruz",
        "latitude": 15.76527778,
        "longitude": 119.90916667
    },
    {
        "name": "Santa Fe",
        "latitude": 15.01027778,
        "longitude": 120.21027778
    },
    {
        "name": "Santa Ignacia",
        "latitude": 15.61666667,
        "longitude": 120.43333333
    },
    {
        "name": "Santa Ines West",
        "latitude": 15.55694444,
        "longitude": 120.46444444
    },
    {
        "name": "Santa Juliana",
        "latitude": 15.32833333,
        "longitude": 120.42861111
    },
    {
        "name": "Santa Lucia",
        "latitude": 15.36805556,
        "longitude": 120.48638889
    },
    {
        "name": "Santa Maria",
        "latitude": 14.81833333,
        "longitude": 120.95633333
    },
    {
        "name": "Santa Monica",
        "latitude": 15.35777778,
        "longitude": 120.72
    },
    {
        "name": "Santa Rita",
        "latitude": 14.995278,
        "longitude": 120.615278
    },
    {
        "name": "Santa Rosa",
        "latitude": 15.42388889,
        "longitude": 120.93888889
    },
    {
        "name": "Santa Teresa First",
        "latitude": 14.92638889,
        "longitude": 120.55777778
    },
    {
        "name": "Santiago",
        "latitude": 14.90361111,
        "longitude": 120.51138889
    },
    {
        "name": "Santo Cristo",
        "latitude": 15.29694444,
        "longitude": 120.89027778
    },
    {
        "name": "Santo Domingo",
        "latitude": 15.58333333,
        "longitude": 120.86666667
    },
    {
        "name": "Santo Ni\u00f1o",
        "latitude": 15.33444444,
        "longitude": 120.62611111
    },
    {
        "name": "Santo Rosario",
        "latitude": 15.43416667,
        "longitude": 120.88972222
    },
    {
        "name": "Santo Tomas",
        "latitude": 14.96666667,
        "longitude": 120.71666667
    },
    {
        "name": "Santol",
        "latitude": 15.16222,
        "longitude": 120.5675
    },
    {
        "name": "Sapang",
        "latitude": 15.70333333,
        "longitude": 120.52444444
    },
    {
        "name": "Sapang Buho",
        "latitude": 15.59027778,
        "longitude": 121.12444444
    },
    {
        "name": "Sapol",
        "latitude": 13.365,
        "longitude": 121.18916667
    },
    {
        "name": "Sasmuan",
        "latitude": 14.93333333,
        "longitude": 120.61666667
    },
    {
        "name": "Saysain",
        "latitude": 14.56111111,
        "longitude": 120.3925
    },
    {
        "name": "Sibul",
        "latitude": 15.16888889,
        "longitude": 121.06166667
    },
    {
        "name": "Siclong",
        "latitude": 15.58083333,
        "longitude": 121.22388889
    },
    {
        "name": "Sinait",
        "latitude": 15.53666667,
        "longitude": 120.585
    },
    {
        "name": "Sinilian First",
        "latitude": 15.69333333,
        "longitude": 120.45944444
    },
    {
        "name": "Soledad",
        "latitude": 15.42833333,
        "longitude": 120.98361111
    },
    {
        "name": "Subic",
        "latitude": 14.9,
        "longitude": 120.23333333
    },
    {
        "name": "Suklayin",
        "latitude": 15.7575,
        "longitude": 121.55027778
    },
    {
        "name": "Sula",
        "latitude": 15.45722222,
        "longitude": 120.39555556
    },
    {
        "name": "Sulucan",
        "latitude": 14.79444444,
        "longitude": 120.92583333
    },
    {
        "name": "Tabacao",
        "latitude": 15.64972222,
        "longitude": 120.94055556
    },
    {
        "name": "Tabon",
        "latitude": 15.27111111,
        "longitude": 120.91277778
    },
    {
        "name": "Tabuating",
        "latitude": 15.39222222,
        "longitude": 120.94083333
    },
    {
        "name": "Tal I Mun Doc",
        "latitude": 15.21222222,
        "longitude": 120.685
    },
    {
        "name": "Talaga",
        "latitude": 15.38388889,
        "longitude": 120.58944444
    },
    {
        "name": "Talang",
        "latitude": 15.025,
        "longitude": 120.83777778
    },
    {
        "name": "Talavera",
        "latitude": 15.58388889,
        "longitude": 120.91888889
    },
    {
        "name": "Taltal",
        "latitude": 15.58777778,
        "longitude": 119.94555556
    },
    {
        "name": "Talugtug",
        "latitude": 15.77888889,
        "longitude": 120.81111111
    },
    {
        "name": "Tariji",
        "latitude": 15.52111111,
        "longitude": 120.61444444
    },
    {
        "name": "Tarlac City",
        "latitude": 15.48562,
        "longitude": 120.61616
    },
    {
        "name": "Tayabo",
        "latitude": 15.83444444,
        "longitude": 121.03083333
    },
    {
        "name": "Telabastagan",
        "latitude": 15.11861111,
        "longitude": 120.60777778
    },
    {
        "name": "Tikiw",
        "latitude": 15.31194444,
        "longitude": 120.86111111
    },
    {
        "name": "Tinang",
        "latitude": 15.37638889,
        "longitude": 120.65333333
    },
    {
        "name": "Tondod",
        "latitude": 15.71833333,
        "longitude": 120.96805556
    },
    {
        "name": "Uacon",
        "latitude": 15.67861111,
        "longitude": 119.94027778
    },
    {
        "name": "Umiray",
        "latitude": 15.22055556,
        "longitude": 121.41111111
    },
    {
        "name": "Upig",
        "latitude": 15.02555556,
        "longitude": 120.99194444
    },
    {
        "name": "Vargas",
        "latitude": 15.59333333,
        "longitude": 120.48722222
    },
    {
        "name": "Victoria",
        "latitude": 15.57805556,
        "longitude": 120.68194444
    },
    {
        "name": "Villa Aglipay",
        "latitude": 15.46611111,
        "longitude": 120.45277778
    },
    {
        "name": "Villa Isla",
        "latitude": 15.77027778,
        "longitude": 120.86666667
    },