[
    {
        "name": "Дакар",
        "latitude": 14.6937,
        "longitude": -17.44406
    },
    {
        "name": "Департамент Дакар",
        "latitude": 14.71403,
        "longitude": -17.45534
    },
    {
        "name": "Департамент Гедиауэй",
        "latitude": 14.7761,
        "longitude": -17.3956
    },
    {
        "name": "Мермоз Боабаб",
        "latitude": 14.70649,
        "longitude": -17.47581
    },
    {
        "name": "Ндиареме Лимулайе",
        "latitude": 14.78148,
        "longitude": -17.3841
    },
    {
        "name": "пикин",
        "latitude": 14.76457,
        "longitude": -17.39071
    },
    {
        "name": "Пикинский отдел",
        "latitude": 14.76515,
        "longitude": -17.35198
    },
    {
        "name": "Департамент Руфиск",
        "latitude": 14.74339,
        "longitude": -17.19841
    },
    {
        "name": "Мбаке",
        "latitude": 14.80828,
        "longitude": -15.86454
    },
    {
        "name": "Мбаке",
        "latitude": 14.79032,
        "longitude": -15.90803
    },
    {
        "name": "Тьебо",
        "latitude": 14.63333,
        "longitude": -16.23333
    },
    {
        "name": "Туба",
        "latitude": 14.85,
        "longitude": -15.88333
    },
    {
        "name": "Диофиор",
        "latitude": 14.18333,
        "longitude": -16.66667
    },
    {
        "name": "Департамент Фатик",
        "latitude": 14.25909,
        "longitude": -16.49884
    },
    {
        "name": "Фаундьюнь",
        "latitude": 14.13333,
        "longitude": -16.46667
    },
    {
        "name": "Гвинея",
        "latitude": 14.26667,
        "longitude": -15.95
    },
    {
        "name": "Шаги",
        "latitude": 13.98333,
        "longitude": -16.26667
    },
    {
        "name": "Поурэм",
        "latitude": 14.35,
        "longitude": -16.41667
    },
    {
        "name": "Соконе",
        "latitude": 13.88333,
        "longitude": -16.36667
    },
    {
        "name": "Каффрин",
        "latitude": 14.10594,
        "longitude": -15.5508
    },
    {
        "name": "Кунгыль",
        "latitude": 13.98333,
        "longitude": -14.8
    },
    {
        "name": "Гандиай",
        "latitude": 14.23333,
        "longitude": -16.26667
    },
    {
        "name": "Каолак",
        "latitude": 14.15197,
        "longitude": -16.07259
    },
    {
        "name": "я такой",
        "latitude": 13.91667,
        "longitude": -15.93333
    },
    {
        "name": "Ниоро-дю-Рип",
        "latitude": 13.75,
        "longitude": -15.8
    },
    {
        "name": "Департамент Салемата",
        "latitude": 12.59971,
        "longitude": -12.77619
    },
    {
        "name": "Кедугу",
        "latitude": 12.55561,
        "longitude": -12.18076
    },
    {
        "name": "Департамент Кедугу",
        "latitude": 12.81716,
        "longitude": -12.17834
    },
    {
        "name": "во дворец",
        "latitude": 13.0015,
        "longitude": -11.79627
    },
    {
        "name": "на руке",
        "latitude": 12.8939,
        "longitude": -14.94125
    },
    {
        "name": "Колдинский отдел",
        "latitude": 12.883,
        "longitude": -14.95
    },
    {
        "name": "Марсассум",
        "latitude": 12.8275,
        "longitude": -15.98056
    },
    {
        "name": "Велингара",
        "latitude": 13.15,
        "longitude": -14.11667
    },
    {
        "name": "Хороший",
        "latitude": 15.34844,
        "longitude": -15.47993
    },
    {
        "name": "Геуль",
        "latitude": 15.48333,
        "longitude": -16.35
    },
    {
        "name": "Лингвистический факультет",
        "latitude": 15.359,
        "longitude": -15.158
    },
    {
        "name": "Луга",
        "latitude": 15.61867,
        "longitude": -16.22436
    },
    {
        "name": "я буду Дахрой",
        "latitude": 15.3338,
        "longitude": -15.4766
    },
    {
        "name": "Объявлено",
        "latitude": 15.02196,
        "longitude": -12.54374
    },
    {
        "name": "Корица",
        "latitude": 15.4916,
        "longitude": -13.17627
    },
    {
        "name": "сладкий",
        "latitude": 15.65587,
        "longitude": -13.25544
    },
    {
        "name": "Департамент Матам",
        "latitude": 15.73191,
        "longitude": -13.63393
    },
    {
        "name": "Золотой Соги",
        "latitude": 15.60588,
        "longitude": -13.3223
    },
    {
        "name": "Ранера",
        "latitude": 15.3,
        "longitude": -13.96667
    },
    {
        "name": "Мем",
        "latitude": 15.19422,
        "longitude": -12.94482
    },
    {
        "name": "Ваунде",
        "latitude": 15.26367,
        "longitude": -12.86821
    },
    {
        "name": "Голере",
        "latitude": 16.25575,
        "longitude": -14.10165
    },
    {
        "name": "Да",
        "latitude": 16.51293,
        "longitude": -14.64706
    },
    {
        "name": "Полель Диаубе",
        "latitude": 15.26667,
        "longitude": -13.0
    },
    {
        "name": "Ричард-Толл",
        "latitude": 16.4625,
        "longitude": -15.70083
    },
    {
        "name": "Россо",
        "latitude": 16.42028,
        "longitude": -15.79834
    },
    {
        "name": "Сент-Луис",
        "latitude": 16.01793,
        "longitude": -16.48962
    },
    {
        "name": "Департамент Гудомпа",
        "latitude": 12.57778,
        "longitude": -15.87222
    },
    {
        "name": "Седиу",
        "latitude": 12.70806,
        "longitude": -15.55694
    },
    {
        "name": "Тамбакунда",
        "latitude": 13.77073,
        "longitude": -13.66734
    },
    {
        "name": "Департамент Тамбакунда",
        "latitude": 13.605,
        "longitude": -13.647
    },
    {
        "name": "Джоал-Фадиут",
        "latitude": 14.16667,
        "longitude": -16.83333
    },
    {
        "name": "Поражение",
        "latitude": 14.91893,
        "longitude": -17.11978
    },
    {
        "name": "Помнить",
        "latitude": 14.76667,
        "longitude": -16.7
    },
    {
        "name": "Мбур",
        "latitude": 14.40569,
        "longitude": -16.85559
    },
    {
        "name": "Мехе",
        "latitude": 15.1097,
        "longitude": -16.6218
    },
    {
        "name": "Это то что",
        "latitude": 14.51255,
        "longitude": -17.00447
    },
    {
        "name": "Надутся",
        "latitude": 14.77099,
        "longitude": -17.06107
    },
    {
        "name": "Тьес",
        "latitude": 14.73004,
        "longitude": -16.86974
    },
    {
        "name": "Тьес Нонс",
        "latitude": 14.78333,
        "longitude": -16.96667
    },
    {
        "name": "Тиадиайе",
        "latitude": 14.41667,
        "longitude": -16.7
    },
    {
        "name": "Тивауан",
        "latitude": 15.08519,
        "longitude": -16.71058
    },
    {
        "name": "мышьяк",
        "latitude": 14.37349,
        "longitude": -16.94366
    },
    {
        "name": "Адин",
        "latitude": 12.63,
        "longitude": -16.01694
    },
    {
        "name": "Биньона",
        "latitude": 12.81028,
        "longitude": -16.22639
    },
    {
        "name": "Уссуе",
        "latitude": 12.485,
        "longitude": -16.54694
    },
    {
        "name": "Тионк Эссил",
        "latitude": 12.78556,
        "longitude": -16.52167
    },
    {
        "name": "Зигиншор",
        "latitude": 12.56801,
        "longitude": -16.27326
    }
]