[
    {
        "name": "Tayeeglow",
        "latitude": 4.01897,
        "longitude": 44.51111
    },
    {
        "name": "Waajid",
        "latitude": 3.80958,
        "longitude": 43.24627
    },
    {
        "name": "Xuddur",
        "latitude": 4.12129,
        "longitude": 43.88945
    },
    {
        "name": "Yeed",
        "latitude": 4.55,
        "longitude": 43.03333
    },
    {
        "name": "Mogadishu",
        "latitude": 2.03711,
        "longitude": 45.34375
    },
    {
        "name": "Bandarbeyla",
        "latitude": 9.4942,
        "longitude": 50.8122
    },
    {
        "name": "Bargaal",
        "latitude": 11.28636,
        "longitude": 51.0773
    },
    {
        "name": "Bereeda",
        "latitude": 11.87037,
        "longitude": 51.05795
    },
    {
        "name": "Bosaso",
        "latitude": 11.28421,
        "longitude": 49.18158
    },
    {
        "name": "Caluula",
        "latitude": 11.96611,
        "longitude": 50.75694
    },
    {
        "name": "Iskushuban",
        "latitude": 10.2837,
        "longitude": 50.23
    },
    {
        "name": "Qandala",
        "latitude": 11.47197,
        "longitude": 49.87282
    },
    {
        "name": "Baidoa",
        "latitude": 3.11383,
        "longitude": 43.6498
    },
    {
        "name": "Buurhakaba",
        "latitude": 2.80257,
        "longitude": 44.07805
    },
    {
        "name": "Ceelbuur",
        "latitude": 4.68501,
        "longitude": 46.6176
    },
    {
        "name": "Ceeldheer",
        "latitude": 3.84878,
        "longitude": 47.18064
    },
    {
        "name": "Dhuusamarreeb",
        "latitude": 5.53597,
        "longitude": 46.38666
    },
    {
        "name": "Baardheere",
        "latitude": 2.34464,
        "longitude": 42.27644
    },
    {
        "name": "Garbahaarrey",
        "latitude": 3.32892,
        "longitude": 42.22091
    },
    {
        "name": "Luuq",
        "latitude": 3.80315,
        "longitude": 42.54417
    },
    {
        "name": "Beledweyne",
        "latitude": 4.73583,
        "longitude": 45.20361
    },
    {
        "name": "Buulobarde",
        "latitude": 3.85375,
        "longitude": 45.56744
    },
    {
        "name": "Jalalaqsi",
        "latitude": 3.3766,
        "longitude": 45.5996
    },
    {
        "name": "Buur Gaabo",
        "latitude": -1.21917,
        "longitude": 41.83725
    },
    {
        "name": "Jamaame",
        "latitude": 0.06968,
        "longitude": 42.74497
    },
    {
        "name": "Kismayo",
        "latitude": -0.35817,
        "longitude": 42.54536
    },
    {
        "name": "Afgooye",
        "latitude": 2.1381,
        "longitude": 45.1212
    },
    {
        "name": "Marka",
        "latitude": 1.71594,
        "longitude": 44.77166
    },
    {
        "name": "Qoryooley",
        "latitude": 1.78784,
        "longitude": 44.52999
    },
    {
        "name": "Wanlaweyn",
        "latitude": 2.6185,
        "longitude": 44.8938
    },
    {
        "name": "Dujuuma",
        "latitude": 1.25311,
        "longitude": 42.57377
    },
    {
        "name": "Jilib",
        "latitude": 0.48829,
        "longitude": 42.78535
    },
    {
        "name": "Saacow",
        "latitude": 1.62794,
        "longitude": 42.44067
    },
    {
        "name": "Cadale",
        "latitude": 2.7603,
        "longitude": 46.3222
    },
    {
        "name": "Jawhar",
        "latitude": 2.78087,
        "longitude": 45.50048
    },
    {
        "name": "Mahaddayweyne",
        "latitude": 2.9726,
        "longitude": 45.5347
    },
    {
        "name": "Gaalkacyo",
        "latitude": 6.76972,
        "longitude": 47.43083
    },
    {
        "name": "Hobyo",
        "latitude": 5.3505,
        "longitude": 48.5268
    },
    {
        "name": "Xarardheere",
        "latitude": 4.6544,
        "longitude": 47.8575
    },
    {
        "name": "Eyl",
        "latitude": 7.9803,
        "longitude": 49.8164
    },
    {
        "name": "Garoowe",
        "latitude": 8.40207,
        "longitude": 48.48284
    },
    {
        "name": "Ceerigaabo",
        "latitude": 10.61616,
        "longitude": 47.36795
    },
    {
        "name": "Las Khorey",
        "latitude": 11.1595,
        "longitude": 48.1967
    },
    {
        "name": "Burao",
        "latitude": 9.52213,
        "longitude": 45.53363
    },
    {
        "name": "Ceek",
        "latitude": 8.99907,
        "longitude": 45.35824
    },
    {
        "name": "Oodweyne",
        "latitude": 9.4092,
        "longitude": 45.06397
    }
]