[
    {
        "name": "Alada\u011f",
        "latitude": 37.55854,
        "longitude": 35.40196
    },
    {
        "name": "Ceyhan",
        "latitude": 37.02472,
        "longitude": 35.8175
    },
    {
        "name": "\u00c7ukurova",
        "latitude": 37.05627,
        "longitude": 35.13119
    },
    {
        "name": "Feke",
        "latitude": 37.82405,
        "longitude": 35.91826
    },
    {
        "name": "\u0130mamo\u011flu",
        "latitude": 37.275,
        "longitude": 35.66649
    },
    {
        "name": "Karaisal\u0131",
        "latitude": 37.26655,
        "longitude": 35.05033
    },
    {
        "name": "Karata\u015f",
        "latitude": 36.57186,
        "longitude": 35.36784
    },
    {
        "name": "Kozan",
        "latitude": 37.5,
        "longitude": 35.75
    },
    {
        "name": "Pozant\u0131",
        "latitude": 37.43671,
        "longitude": 34.88057
    },
    {
        "name": "Saimbeyli",
        "latitude": 37.99615,
        "longitude": 36.09909
    },
    {
        "name": "Sar\u0131\u00e7am",
        "latitude": 37.14971,
        "longitude": 35.50949
    },
    {
        "name": "Seyhan",
        "latitude": 36.9554,
        "longitude": 35.21637
    },
    {
        "name": "Tufanbeyli",
        "latitude": 38.27343,
        "longitude": 36.22731
    },
    {
        "name": "Yumurtal\u0131k",
        "latitude": 36.78245,
        "longitude": 35.79949
    },
    {
        "name": "Y\u00fcre\u011fir",
        "latitude": 36.99205,
        "longitude": 35.45402
    },
    {
        "name": "Besni",
        "latitude": 37.69278,
        "longitude": 37.86111
    },
    {
        "name": "\u00c7elikhan",
        "latitude": 38.0256,
        "longitude": 38.23665
    },
    {
        "name": "Gerger",
        "latitude": 37.95,
        "longitude": 39.01667
    },
    {
        "name": "G\u00f6lba\u015f\u0131",
        "latitude": 37.78361,
        "longitude": 37.63667
    },
    {
        "name": "K\u00e2hta",
        "latitude": 37.78552,
        "longitude": 38.6237
    },
    {
        "name": "Merkez",
        "latitude": 37.74454,
        "longitude": 38.26801
    },
    {
        "name": "Samsat",
        "latitude": 37.58194,
        "longitude": 38.47417
    },
    {
        "name": "Sincik",
        "latitude": 38.03645,
        "longitude": 38.61257
    },
    {
        "name": "Tut",
        "latitude": 37.79529,
        "longitude": 37.9161
    },
    {
        "name": "Ba\u015fmak\u00e7\u0131",
        "latitude": 37.89722,
        "longitude": 30.01167
    },
    {
        "name": "Bayat",
        "latitude": 38.98306,
        "longitude": 30.92472
    },
    {
        "name": "Bolvadin",
        "latitude": 38.71111,
        "longitude": 31.04861
    },
    {
        "name": "\u00c7ay",
        "latitude": 38.59167,
        "longitude": 31.02861
    },
    {
        "name": "\u00c7obanlar",
        "latitude": 38.71085,
        "longitude": 30.78874
    },
    {
        "name": "Dazk\u0131r\u0131",
        "latitude": 37.91861,
        "longitude": 29.86056
    },
    {
        "name": "Dinar",
        "latitude": 38.065,
        "longitude": 30.16557
    },
    {
        "name": "Emirda\u011f",
        "latitude": 39.01972,
        "longitude": 31.15
    },
    {
        "name": "Evciler",
        "latitude": 38.04139,
        "longitude": 29.88667
    },
    {
        "name": "Hocalar",
        "latitude": 38.57824,
        "longitude": 29.96768
    },
    {
        "name": "\u0130hsaniye",
        "latitude": 39.02916,
        "longitude": 30.41639
    },
    {
        "name": "\u0130scehisar",
        "latitude": 38.939,
        "longitude": 30.75002
    },
    {
        "name": "K\u0131z\u0131l\u00f6ren",
        "latitude": 38.25806,
        "longitude": 30.15167
    },
    {
        "name": "Merkez",
        "latitude": 38.79698,
        "longitude": 30.51951
    },
    {
        "name": "Sand\u0131kl\u0131",
        "latitude": 38.46472,
        "longitude": 30.26946
    },
    {
        "name": "Sinanpa\u015fa",
        "latitude": 38.74444,
        "longitude": 30.24278
    },
    {
        "name": "\u015euhut",
        "latitude": 38.53111,
        "longitude": 30.54583
    },
    {
        "name": "Sultanda\u011f\u0131",
        "latitude": 38.53111,
        "longitude": 31.22806
    },
    {
        "name": "Diyadin",
        "latitude": 39.54056,
        "longitude": 43.67135
    },
    {
        "name": "Do\u011fubayaz\u0131t",
        "latitude": 39.54694,
        "longitude": 44.08417
    },
    {
        "name": "Ele\u015fkirt",
        "latitude": 39.79803,
        "longitude": 42.67574
    },
    {
        "name": "Hamur",
        "latitude": 39.60561,
        "longitude": 42.985
    },
    {
        "name": "Merkez",
        "latitude": 39.71944,
        "longitude": 43.05139
    },
    {
        "name": "Patnos",
        "latitude": 39.22493,
        "longitude": 42.85693
    },
    {
        "name": "Ta\u015fl\u0131\u00e7ay",
        "latitude": 39.62966,
        "longitude": 43.36878
    },
    {
        "name": "Tutak",
        "latitude": 39.55042,
        "longitude": 42.77572
    },
    {
        "name": "A\u011fa\u00e7\u00f6ren",
        "latitude": 38.87484,
        "longitude": 33.91674
    },
    {
        "name": "Eskil",
        "latitude": 38.41158,
        "longitude": 33.41994
    },
    {
        "name": "G\u00fcla\u011fa\u00e7",
        "latitude": 38.40641,
        "longitude": 34.35071
    },
    {
        "name": "G\u00fczelyurt",
        "latitude": 38.27722,
        "longitude": 34.37194
    },
    {
        "name": "Merkez",
        "latitude": 38.3706,
        "longitude": 34.02843
    },
    {
        "name": "Ortak\u00f6y",
        "latitude": 38.73728,
        "longitude": 34.03866
    },
    {
        "name": "Sar\u0131yah\u015fi",
        "latitude": 38.98349,
        "longitude": 33.84136
    },
    {
        "name": "Sultanhan\u0131",
        "latitude": 38.2471,
        "longitude": 33.54961
    },
    {
        "name": "G\u00f6yn\u00fccek",
        "latitude": 40.39917,
        "longitude": 35.525
    },
    {
        "name": "G\u00fcm\u00fc\u015fhac\u0131k\u00f6y",
        "latitude": 40.87306,
        "longitude": 35.21472
    },
    {
        "name": "Hamam\u00f6z\u00fc",
        "latitude": 40.79539,
        "longitude": 35.03367
    },
    {
        "name": "Merkez",
        "latitude": 40.61939,
        "longitude": 35.87016
    },
    {
        "name": "Merzifon",
        "latitude": 40.88348,
        "longitude": 35.47116
    },
    {
        "name": "Suluova",
        "latitude": 40.83129,
        "longitude": 35.64788
    },
    {
        "name": "Ta\u015fova",
        "latitude": 40.75972,
        "longitude": 36.3225
    },
    {
        "name": "Akyurt",
        "latitude": 40.13512,
        "longitude": 33.08614
    },
    {
        "name": "Alt\u0131nda\u011f",
        "latitude": 40.0011,
        "longitude": 32.97022
    },
    {
        "name": "Aya\u015f",
        "latitude": 40.01933,
        "longitude": 32.33221
    },
    {
        "name": "Bala",
        "latitude": 39.56374,
        "longitude": 33.12962
    },
    {
        "name": "Beypazar\u0131",
        "latitude": 40.1675,
        "longitude": 31.92111
    },
    {
        "name": "\u00c7aml\u0131dere",
        "latitude": 40.48958,
        "longitude": 32.47499
    },
    {
        "name": "\u00c7ankaya",
        "latitude": 39.9179,
        "longitude": 32.86268
    },
    {
        "name": "\u00c7ubuk",
        "latitude": 40.23861,
        "longitude": 33.03222
    },
    {
        "name": "Elmada\u011f",
        "latitude": 39.92083,
        "longitude": 33.23083
    },
    {
        "name": "Etimesgut",
        "latitude": 39.96335,
        "longitude": 32.63744
    },
    {
        "name": "Evren",
        "latitude": 39.02402,
        "longitude": 33.80626
    },
    {
        "name": "G\u00f6lba\u015f\u0131",
        "latitude": 39.79043,
        "longitude": 32.80903
    },
    {
        "name": "G\u00fcd\u00fcl",
        "latitude": 40.21051,
        "longitude": 32.24552
    },
    {
        "name": "Haymana",
        "latitude": 39.43212,
        "longitude": 32.49732
    },
    {
        "name": "Kahramankazan",
        "latitude": 40.16502,
        "longitude": 32.63904
    },
    {
        "name": "Kalecik",
        "latitude": 40.09722,
        "longitude": 33.40833
    },
    {
        "name": "Ke\u00e7i\u00f6ren",
        "latitude": 40.02106,
        "longitude": 32.83102
    },
    {
        "name": "K\u0131z\u0131lcahamam",
        "latitude": 40.46972,
        "longitude": 32.65056
    },
    {
        "name": "Mamak",
        "latitude": 39.94587,
        "longitude": 32.90811
    },
    {
        "name": "Nall\u0131han",
        "latitude": 40.18593,
        "longitude": 31.35179
    },
    {
        "name": "Polatl\u0131",
        "latitude": 39.57715,
        "longitude": 32.14132
    },
    {
        "name": "Pursaklar",
        "latitude": 40.03961,
        "longitude": 32.90139
    },
    {
        "name": "\u015eerefliko\u00e7hisar",
        "latitude": 38.93925,
        "longitude": 33.5386
    },
    {
        "name": "Sincan",
        "latitude": 39.95943,
        "longitude": 32.49567
    },
    {
        "name": "Yenimahalle",
        "latitude": 39.99043,
        "longitude": 32.69555
    },
    {
        "name": "Akseki",
        "latitude": 37.04861,
        "longitude": 31.79
    },
    {
        "name": "Aksu",
        "latitude": 36.95389,
        "longitude": 30.84778
    },
    {
        "name": "Alanya",
        "latitude": 36.54375,
        "longitude": 31.99982
    },
    {
        "name": "Demre",
        "latitude": 36.24444,
        "longitude": 29.985
    },
    {
        "name": "D\u00f6\u015femealt\u0131",
        "latitude": 37.02366,
        "longitude": 30.5904
    },
    {
        "name": "Elmal\u0131",
        "latitude": 36.73583,
        "longitude": 29.91775
    },
    {
        "name": "Finike",
        "latitude": 36.42355,
        "longitude": 30.06645
    },
    {
        "name": "Gazipa\u015fa",
        "latitude": 36.26942,
        "longitude": 32.31792
    },
    {
        "name": "G\u00fcndo\u011fmu\u015f",
        "latitude": 36.82446,
        "longitude": 32.00679
    },
    {
        "name": "\u0130brad\u0131",
        "latitude": 37.09694,
        "longitude": 31.59917
    },
    {
        "name": "Ka\u015f",
        "latitude": 36.20176,
        "longitude": 29.63766
    },
    {
        "name": "Kemer",
        "latitude": 36.59778,
        "longitude": 30.56056
    },
    {
        "name": "Kepez",
        "latitude": 37.01187,
        "longitude": 30.75966
    },
    {
        "name": "Konyaalt\u0131",
        "latitude": 36.86424,
        "longitude": 30.62714
    },
    {
        "name": "Korkuteli",
        "latitude": 37.06498,
        "longitude": 30.19565
    },
    {
        "name": "Kumluca",
        "latitude": 36.58,
        "longitude": 30.3
    },
    {
        "name": "Manavgat",
        "latitude": 36.78667,
        "longitude": 31.44306
    },
    {
        "name": "Muratpa\u015fa",
        "latitude": 36.89157,
        "longitude": 30.76498
    },
    {
        "name": "Serik",
        "latitude": 37.07743,
        "longitude": 31.00677
    },
    {
        "name": "\u00c7\u0131ld\u0131r",
        "latitude": 41.13783,
        "longitude": 43.14169
    },
    {
        "name": "Damal",
        "latitude": 41.34145,
        "longitude": 42.8368
    },
    {
        "name": "G\u00f6le",
        "latitude": 40.78746,
        "longitude": 42.60603
    },
    {
        "name": "Hanak",
        "latitude": 41.23344,
        "longitude": 42.84037
    },
    {
        "name": "Merkez",
        "latitude": 41.10871,
        "longitude": 42.70222
    },
    {
        "name": "Posof",
        "latitude": 41.51111,
        "longitude": 42.72917
    },
    {
        "name": "Ardanu\u00e7",
        "latitude": 41.12738,
        "longitude": 42.06292
    },
    {
        "name": "Arhavi",
        "latitude": 41.35121,
        "longitude": 41.30456
    },
    {
        "name": "Bor\u00e7ka",
        "latitude": 41.35792,
        "longitude": 41.66579
    },
    {
        "name": "Hopa",
        "latitude": 41.39046,
        "longitude": 41.41966
    },
    {
        "name": "Kemalpa\u015fa",
        "latitude": 41.48336,
        "longitude": 41.5275
    },
    {
        "name": "Merkez",
        "latitude": 41.18161,
        "longitude": 41.82172
    },
    {
        "name": "Murgul",
        "latitude": 41.27937,
        "longitude": 41.55514
    },
    {
        "name": "\u015eav\u015fat",
        "latitude": 41.24027,
        "longitude": 42.36109
    },
    {
        "name": "Yusufeli",
        "latitude": 40.82042,
        "longitude": 41.53743
    },
    {
        "name": "Bozdo\u011fan",
        "latitude": 37.67134,
        "longitude": 28.31395
    },
    {
        "name": "Buharkent",
        "latitude": 37.96397,
        "longitude": 28.7427
    },
    {
        "name": "\u00c7ine",
        "latitude": 37.61266,
        "longitude": 28.05912
    },
    {
        "name": "Didim",
        "latitude": 37.39305,
        "longitude": 27.29357
    },
    {
        "name": "Efeler",
        "latitude": 37.83835,
        "longitude": 27.84557
    },
    {
        "name": "Germencik",
        "latitude": 37.87056,
        "longitude": 27.60283
    },
    {
        "name": "\u0130ncirliova",
        "latitude": 37.85222,
        "longitude": 27.72361
    },
    {
        "name": "Karacasu",
        "latitude": 37.74731,
        "longitude": 28.59402
    },
    {
        "name": "Karpuzlu",
        "latitude": 37.55861,
        "longitude": 27.83528
    },
    {
        "name": "Ko\u00e7arl\u0131",
        "latitude": 37.76113,
        "longitude": 27.70583
    },
    {
        "name": "K\u00f6\u015fk",
        "latitude": 37.85333,
        "longitude": 28.05167
    },
    {
        "name": "Ku\u015fadas\u0131",
        "latitude": 37.86014,
        "longitude": 27.25713
    },
    {
        "name": "Kuyucak",
        "latitude": 37.9133,
        "longitude": 28.45917
    },
    {
        "name": "Nazilli",
        "latitude": 37.9357,
        "longitude": 28.30609
    },
    {
        "name": "S\u00f6ke",
        "latitude": 37.7482,
        "longitude": 27.40614
    },
    {
        "name": "Sultanhisar",
        "latitude": 37.88989,
        "longitude": 28.15436
    },
    {
        "name": "Yenipazar",
        "latitude": 37.82332,
        "longitude": 28.19573
    },
    {
        "name": "Alt\u0131eyl\u00fcl",
        "latitude": 39.64099,
        "longitude": 27.88639
    },
    {
        "name": "Ayval\u0131k",
        "latitude": 39.31927,
        "longitude": 26.69341
    },
    {
        "name": "Balya",
        "latitude": 39.74861,
        "longitude": 27.57889
    },
    {
        "name": "Band\u0131rma",
        "latitude": 40.35222,
        "longitude": 27.97667
    },
    {
        "name": "Bigadi\u00e7",
        "latitude": 39.3925,
        "longitude": 28.13111
    },
    {
        "name": "Burhaniye",
        "latitude": 39.50041,
        "longitude": 26.97269
    },
    {
        "name": "Dursunbey",
        "latitude": 39.58596,
        "longitude": 28.62568
    },
    {
        "name": "Edremit",
        "latitude": 39.59611,
        "longitude": 27.02444
    },
    {
        "name": "Erdek",
        "latitude": 40.3996,
        "longitude": 27.79348
    },
    {
        "name": "G\u00f6me\u00e7",
        "latitude": 39.39016,
        "longitude": 26.84127
    },
    {
        "name": "G\u00f6nen",
        "latitude": 40.1049,
        "longitude": 27.65399
    },
    {
        "name": "Havran",
        "latitude": 39.55833,
        "longitude": 27.09833
    },
    {
        "name": "\u0130vrindi",
        "latitude": 39.58389,
        "longitude": 27.48639
    },
    {
        "name": "Karesi",
        "latitude": 39.648333,
        "longitude": 27.8825
    },
    {
        "name": "Kepsut",
        "latitude": 39.68889,
        "longitude": 28.15222
    },
    {
        "name": "Manyas",
        "latitude": 40.04639,
        "longitude": 27.97
    },
    {
        "name": "Marmara",
        "latitude": 40.58633,
        "longitude": 27.55541
    },
    {
        "name": "Sava\u015ftepe",
        "latitude": 39.38319,
        "longitude": 27.65612
    },
    {
        "name": "S\u0131nd\u0131rg\u0131",
        "latitude": 39.24128,
        "longitude": 28.17842
    },
    {
        "name": "Susurluk",
        "latitude": 39.91361,
        "longitude": 28.15778
    },
    {
        "name": "Amasra",
        "latitude": 41.74633,
        "longitude": 32.38633
    },
    {
        "name": "Kuruca\u015file",
        "latitude": 41.83781,
        "longitude": 32.71621
    },
    {
        "name": "Merkez",
        "latitude": 41.63583,
        "longitude": 32.3375
    },
    {
        "name": "Ulus",
        "latitude": 41.59373,
        "longitude": 32.65066
    },
    {
        "name": "Be\u015firi",
        "latitude": 37.91573,
        "longitude": 41.2865
    },
    {
        "name": "Gerc\u00fc\u015f",
        "latitude": 37.59139,
        "longitude": 41.33278
    },
    {
        "name": "Hasankeyf",
        "latitude": 37.70612,
        "longitude": 41.4048
    },
    {
        "name": "Kozluk",
        "latitude": 38.19249,
        "longitude": 41.48705
    },
    {
        "name": "Merkez",
        "latitude": 37.84362,
        "longitude": 41.18341
    },
    {
        "name": "Sason",
        "latitude": 38.32767,
        "longitude": 41.41377
    },
    {
        "name": "Ayd\u0131ntepe",
        "latitude": 40.38325,
        "longitude": 40.14272
    },
    {
        "name": "Demir\u00f6z\u00fc",
        "latitude": 40.1656,
        "longitude": 39.89343
    },
    {
        "name": "Merkez",
        "latitude": 40.25631,
        "longitude": 40.22289
    },
    {
        "name": "Boz\u00fcy\u00fck",
        "latitude": 39.90778,
        "longitude": 30.03667
    },
    {
        "name": "G\u00f6lpazar\u0131",
        "latitude": 40.28472,
        "longitude": 30.31722
    },
    {
        "name": "\u0130nhisar",
        "latitude": 40.04932,
        "longitude": 30.38521
    },
    {
        "name": "Merkez",
        "latitude": 40.14192,
        "longitude": 29.97932
    },
    {
        "name": "Osmaneli",
        "latitude": 40.35722,
        "longitude": 30.01417
    },
    {
        "name": "Pazaryeri",
        "latitude": 39.99395,
        "longitude": 29.90424
    },
    {
        "name": "S\u00f6\u011f\u00fct",
        "latitude": 40.02479,
        "longitude": 30.173
    },
    {
        "name": "Yenipazar",
        "latitude": 40.17833,
        "longitude": 30.52
    },
    {
        "name": "Adakl\u0131",
        "latitude": 39.2287,
        "longitude": 40.48252
    },
    {
        "name": "Gen\u00e7",
        "latitude": 38.74773,
        "longitude": 40.55343
    },
    {
        "name": "Karl\u0131ova",
        "latitude": 39.29044,
        "longitude": 41.00594
    },
    {
        "name": "Ki\u011f\u0131",
        "latitude": 39.30894,
        "longitude": 40.34995
    },
    {
        "name": "Merkez",
        "latitude": 38.95025,
        "longitude": 40.52802
    },
    {
        "name": "Solhan",
        "latitude": 38.96525,
        "longitude": 41.05443
    },
    {
        "name": "Yayladere",
        "latitude": 39.22614,
        "longitude": 40.0695
    },
    {
        "name": "Yedisu",
        "latitude": 39.43277,
        "longitude": 40.53368
    },
    {
        "name": "Adilcevaz",
        "latitude": 38.79911,
        "longitude": 42.73159
    },
    {
        "name": "Ahlat",
        "latitude": 38.7489,
        "longitude": 42.48007
    },
    {
        "name": "G\u00fcroymak",
        "latitude": 38.5758,
        "longitude": 42.01558
    },
    {
        "name": "Hizan",
        "latitude": 38.22498,
        "longitude": 42.4183
    },
    {
        "name": "Merkez",
        "latitude": 38.31702,
        "longitude": 42.10065
    },
    {
        "name": "Mutki",
        "latitude": 38.40624,
        "longitude": 41.92018
    },
    {
        "name": "Tatvan",
        "latitude": 38.49221,
        "longitude": 42.28269
    },
    {
        "name": "D\u00f6rtdivan",
        "latitude": 40.72052,
        "longitude": 32.06314
    },
    {
        "name": "Gerede",
        "latitude": 40.71364,
        "longitude": 32.31263
    },
    {
        "name": "G\u00f6yn\u00fck",
        "latitude": 40.40028,
        "longitude": 30.78833
    },
    {
        "name": "K\u0131br\u0131sc\u0131k",
        "latitude": 40.40778,
        "longitude": 31.85194
    },
    {
        "name": "Mengen",
        "latitude": 40.93877,
        "longitude": 32.07642
    },
    {
        "name": "Merkez",
        "latitude": 40.73583,
        "longitude": 31.60611
    },
    {
        "name": "Mudurnu",
        "latitude": 40.473,
        "longitude": 31.20755
    },
    {
        "name": "Seben",
        "latitude": 40.41134,
        "longitude": 31.57359
    },
    {
        "name": "Yeni\u00e7a\u011fa",
        "latitude": 40.77115,
        "longitude": 32.03375
    },
    {
        "name": "A\u011flasun",
        "latitude": 37.64944,
        "longitude": 30.53417
    },
    {
        "name": "Alt\u0131nyayla",
        "latitude": 36.99722,
        "longitude": 29.54579
    },
    {
        "name": "Bucak",
        "latitude": 37.45917,
        "longitude": 30.595
    },
    {
        "name": "\u00c7avd\u0131r",
        "latitude": 37.16483,
        "longitude": 29.69937
    },
    {
        "name": "\u00c7eltik\u00e7i",
        "latitude": 37.53885,
        "longitude": 30.46823
    },
    {
        "name": "G\u00f6lhisar",
        "latitude": 37.1459,
        "longitude": 29.50876
    },
    {
        "name": "Karamanl\u0131",
        "latitude": 37.37301,
        "longitude": 29.82308
    },
    {
        "name": "Kemer",
        "latitude": 37.35222,
        "longitude": 30.06306
    },
    {
        "name": "Merkez",
        "latitude": 37.62762,
        "longitude": 30.20408
    },
    {
        "name": "Tefenni",
        "latitude": 37.30968,
        "longitude": 29.77538
    },
    {
        "name": "Ye\u015filova",
        "latitude": 37.50806,
        "longitude": 29.75472
    },
    {
        "name": "B\u00fcy\u00fckorhan",
        "latitude": 39.78223,
        "longitude": 28.89338
    },
    {
        "name": "Gemlik",
        "latitude": 40.4351,
        "longitude": 29.14943
    },
    {
        "name": "G\u00fcrsu",
        "latitude": 40.25498,
        "longitude": 29.21183
    },
    {
        "name": "Harmanc\u0131k",
        "latitude": 39.67743,
        "longitude": 29.15523
    },
    {
        "name": "\u0130neg\u00f6l",
        "latitude": 40.07806,
        "longitude": 29.51333
    },
    {
        "name": "\u0130znik",
        "latitude": 40.42861,
        "longitude": 29.72111
    },
    {
        "name": "Karacabey",
        "latitude": 40.21323,
        "longitude": 28.3612
    },
    {
        "name": "Keles",
        "latitude": 39.91361,
        "longitude": 29.22944
    },
    {
        "name": "Kestel",
        "latitude": 40.19828,
        "longitude": 29.21237
    },
    {
        "name": "Mudanya",
        "latitude": 40.33342,
        "longitude": 28.77218
    },
    {
        "name": "Mustafakemalpa\u015fa",
        "latitude": 40.03815,
        "longitude": 28.40866
    },
    {
        "name": "Nil\u00fcfer",
        "latitude": 40.21375,
        "longitude": 28.98464
    },
    {
        "name": "Orhaneli",
        "latitude": 39.90333,
        "longitude": 28.99056
    },
    {
        "name": "Orhangazi",
        "latitude": 40.48917,
        "longitude": 29.30889
    },
    {
        "name": "Osmangazi",
        "latitude": 40.15644,
        "longitude": 29.08753
    },
    {
        "name": "Yeni\u015fehir",
        "latitude": 40.26444,
        "longitude": 29.65306
    },
    {
        "name": "Y\u0131ld\u0131r\u0131m",
        "latitude": 40.19567,
        "longitude": 29.0364
    },
    {
        "name": "Ayvac\u0131k",
        "latitude": 39.60111,
        "longitude": 26.40472
    },
    {
        "name": "Bayrami\u00e7",
        "latitude": 39.81951,
        "longitude": 26.6249
    },
    {
        "name": "Biga",
        "latitude": 40.26921,
        "longitude": 27.20841
    },
    {
        "name": "Bozcaada",
        "latitude": 39.82409,
        "longitude": 26.04069
    },
    {
        "name": "\u00c7an",
        "latitude": 40.03328,
        "longitude": 27.05236
    },
    {
        "name": "Eceabat",
        "latitude": 40.18416,
        "longitude": 26.3574
    },
    {
        "name": "Ezine",
        "latitude": 39.78561,
        "longitude": 26.34083
    },
    {
        "name": "Gelibolu",
        "latitude": 40.41028,
        "longitude": 26.67083
    },
    {
        "name": "G\u00f6k\u00e7eada",
        "latitude": 40.16523,
        "longitude": 25.85907
    },
    {
        "name": "Lapseki",
        "latitude": 40.34417,
        "longitude": 26.68556
    },
    {
        "name": "Merkez",
        "latitude": 40.05093,
        "longitude": 26.49489
    },
    {
        "name": "Yenice",
        "latitude": 39.93083,
        "longitude": 27.25806
    },
    {
        "name": "Atkaracalar",
        "latitude": 40.81593,
        "longitude": 33.07556
    },
    {
        "name": "Bayram\u00f6ren",
        "latitude": 40.94329,
        "longitude": 33.203
    },
    {
        "name": "\u00c7erke\u015f",
        "latitude": 40.81164,
        "longitude": 32.89358
    },
    {
        "name": "Eldivan",
        "latitude": 40.52975,
        "longitude": 33.49903
    },
    {
        "name": "Ilgaz",
        "latitude": 40.92511,
        "longitude": 33.62586
    },
    {
        "name": "K\u0131z\u0131l\u0131rmak",
        "latitude": 40.34556,
        "longitude": 33.98639
    },
    {
        "name": "Korgun",
        "latitude": 40.73479,
        "longitude": 33.51844
    },
    {
        "name": "Kur\u015funlu",
        "latitude": 40.84101,
        "longitude": 33.26028
    },
    {
        "name": "Merkez",
        "latitude": 40.6,
        "longitude": 33.616667
    },
    {
        "name": "Orta",
        "latitude": 40.6242,
        "longitude": 33.10928
    },
    {
        "name": "\u015eaban\u00f6z\u00fc",
        "latitude": 40.48333,
        "longitude": 33.28333
    },
    {
        "name": "Yaprakl\u0131",
        "latitude": 40.75785,
        "longitude": 33.77819
    },
    {
        "name": "Alaca",
        "latitude": 40.16833,
        "longitude": 34.8425
    },
    {
        "name": "Bayat",
        "latitude": 40.64583,
        "longitude": 34.26139
    },
    {
        "name": "Bo\u011fazkale",
        "latitude": 40.03031,
        "longitude": 34.61745
    },
    {
        "name": "Dodurga",
        "latitude": 40.85489,
        "longitude": 34.80703
    },
    {
        "name": "\u0130skilip",
        "latitude": 40.73528,
        "longitude": 34.47389
    },
    {
        "name": "Karg\u0131",
        "latitude": 41.14377,
        "longitude": 34.49342
    },
    {
        "name": "La\u00e7in",
        "latitude": 40.77486,
        "longitude": 34.88068
    },
    {
        "name": "Mecit\u00f6z\u00fc",
        "latitude": 40.52,
        "longitude": 35.29528
    },
    {
        "name": "Merkez",
        "latitude": 40.50905,
        "longitude": 34.85791
    },
    {
        "name": "O\u011fuzlar",
        "latitude": 40.76323,
        "longitude": 34.70813
    },
    {
        "name": "Ortak\u00f6y",
        "latitude": 40.27352,
        "longitude": 35.25175
    },
    {
        "name": "Osmanc\u0131k",
        "latitude": 41.0024,
        "longitude": 34.78243
    },
    {
        "name": "Sungurlu",
        "latitude": 40.18213,
        "longitude": 34.28217
    },
    {
        "name": "U\u011furluda\u011f",
        "latitude": 40.44631,
        "longitude": 34.45259
    },
    {
        "name": "Ac\u0131payam",
        "latitude": 37.42385,
        "longitude": 29.34941
    },
    {
        "name": "Babada\u011f",
        "latitude": 37.80764,
        "longitude": 28.85665
    },
    {
        "name": "Baklan",
        "latitude": 37.97694,
        "longitude": 29.60861
    },
    {
        "name": "Bekilli",
        "latitude": 38.24027,
        "longitude": 29.42559
    },
    {
        "name": "Beya\u011fa\u00e7",
        "latitude": 37.24546,
        "longitude": 28.90041
    },
    {
        "name": "Bozkurt",
        "latitude": 37.77583,
        "longitude": 29.60811
    },
    {
        "name": "Buldan",
        "latitude": 38.045,
        "longitude": 28.83056
    },
    {
        "name": "\u00c7al",
        "latitude": 38.09371,
        "longitude": 29.40467
    },
    {
        "name": "\u00c7ameli",
        "latitude": 37.0866,
        "longitude": 29.35225
    },
    {
        "name": "\u00c7ardak",
        "latitude": 37.77485,
        "longitude": 29.70593
    },
    {
        "name": "\u00c7ivril",
        "latitude": 38.30139,
        "longitude": 29.73861
    },
    {
        "name": "G\u00fcney",
        "latitude": 38.16454,
        "longitude": 29.07324
    },
    {
        "name": "Honaz",
        "latitude": 37.77146,
        "longitude": 29.34466
    },
    {
        "name": "Kale",
        "latitude": 37.43917,
        "longitude": 28.84528
    },
    {
        "name": "Merkezefendi",
        "latitude": 37.80544,
        "longitude": 29.04236
    },
    {
        "name": "Pamukkale",
        "latitude": 37.91644,
        "longitude": 29.11729
    },
    {
        "name": "Sarayk\u00f6y",
        "latitude": 37.9158,
        "longitude": 28.87999
    },
    {
        "name": "Serinhisar",
        "latitude": 37.58105,
        "longitude": 29.26639
    },
    {
        "name": "Tavas",
        "latitude": 37.57351,
        "longitude": 29.07058
    },
    {
        "name": "Ba\u011flar",
        "latitude": 37.91068,
        "longitude": 40.22627
    },
    {
        "name": "Bismil",
        "latitude": 37.84514,
        "longitude": 40.65931
    },
    {
        "name": "\u00c7ermik",
        "latitude": 38.13538,
        "longitude": 39.445
    },
    {
        "name": "\u00c7\u0131nar",
        "latitude": 37.72562,
        "longitude": 40.41484
    },
    {
        "name": "\u00c7\u00fcng\u00fc\u015f",
        "latitude": 38.20798,
        "longitude": 39.28554
    },
    {
        "name": "Dicle",
        "latitude": 38.36571,
        "longitude": 40.0645
    },
    {
        "name": "E\u011fil",
        "latitude": 38.25748,
        "longitude": 40.07435
    },
    {
        "name": "Ergani",
        "latitude": 38.26899,
        "longitude": 39.75446
    },
    {
        "name": "Hani",
        "latitude": 38.40741,
        "longitude": 40.38578
    },
    {
        "name": "Hazro",
        "latitude": 38.24903,
        "longitude": 40.77129
    },
    {
        "name": "Kayap\u0131nar",
        "latitude": 37.938,
        "longitude": 40.1731
    },
    {
        "name": "Kocak\u00f6y",
        "latitude": 38.28889,
        "longitude": 40.49786
    },
    {
        "name": "Kulp",
        "latitude": 38.49754,
        "longitude": 41.00668
    },
    {
        "name": "Lice",
        "latitude": 38.45821,
        "longitude": 40.63888
    },
    {
        "name": "Silvan",
        "latitude": 38.13708,
        "longitude": 41.00817
    },
    {
        "name": "Sur",
        "latitude": 37.91356,
        "longitude": 40.23743
    },
    {
        "name": "Yeni\u015fehir",
        "latitude": 37.91373,
        "longitude": 40.2061
    },
    {
        "name": "Ak\u00e7akoca",
        "latitude": 41.08663,
        "longitude": 31.11623
    },
    {
        "name": "\u00c7ilimli",
        "latitude": 40.90267,
        "longitude": 31.05913
    },
    {
        "name": "Cumayeri",
        "latitude": 40.88176,
        "longitude": 30.94094
    },
    {
        "name": "G\u00f6lyaka",
        "latitude": 40.78644,
        "longitude": 31.00276
    },
    {
        "name": "G\u00fcm\u00fc\u015fova",
        "latitude": 40.8564,
        "longitude": 30.94935
    },
    {
        "name": "Kayna\u015fl\u0131",
        "latitude": 40.77908,
        "longitude": 31.31135
    },
    {
        "name": "Merkez",
        "latitude": 40.83889,
        "longitude": 31.16389
    },
    {
        "name": "Y\u0131\u011f\u0131lca",
        "latitude": 40.96497,
        "longitude": 31.45672
    },
    {
        "name": "Enez",
        "latitude": 40.72472,
        "longitude": 26.0825
    },
    {
        "name": "Havsa",
        "latitude": 41.54898,
        "longitude": 26.82207
    },
    {
        "name": "\u0130psala",
        "latitude": 40.92115,
        "longitude": 26.38273
    },
    {
        "name": "Ke\u015fan",
        "latitude": 40.85583,
        "longitude": 26.63028
    },
    {
        "name": "L\u00e2lapa\u015fa",
        "latitude": 41.83951,
        "longitude": 26.73561
    },
    {
        "name": "Meri\u00e7",
        "latitude": 41.19183,
        "longitude": 26.42097
    },
    {
        "name": "Merkez",
        "latitude": 41.67719,
        "longitude": 26.55597
    },
    {
        "name": "S\u00fclo\u011flu",
        "latitude": 41.77956,
        "longitude": 26.92602
    },
    {
        "name": "Uzunk\u00f6pr\u00fc",
        "latitude": 41.26597,
        "longitude": 26.6885
    },
    {
        "name": "A\u011f\u0131n",
        "latitude": 38.93792,
        "longitude": 38.71155
    },
    {
        "name": "Alacakaya",
        "latitude": 38.462698,
        "longitude": 39.862758
    },
    {
        "name": "Ar\u0131cak",
        "latitude": 38.5634,
        "longitude": 40.1248
    },
    {
        "name": "Baskil",
        "latitude": 38.56866,
        "longitude": 38.81634
    },
    {
        "name": "Karako\u00e7an",
        "latitude": 38.95178,
        "longitude": 40.02706
    },
    {
        "name": "Keban",
        "latitude": 38.7938,
        "longitude": 38.73517
    },
    {
        "name": "Kovanc\u0131lar",
        "latitude": 38.71882,
        "longitude": 39.86268
    },
    {
        "name": "Maden",
        "latitude": 38.39354,
        "longitude": 39.67252
    },
    {
        "name": "Merkez",
        "latitude": 38.6679,
        "longitude": 39.21567
    },
    {
        "name": "Palu",
        "latitude": 38.69135,
        "longitude": 39.91984
    },
    {
        "name": "Sivrice",
        "latitude": 38.44223,
        "longitude": 39.30938
    },
    {
        "name": "\u00c7ay\u0131rl\u0131",
        "latitude": 39.80454,
        "longitude": 40.03724
    },
    {
        "name": "\u0130li\u00e7",
        "latitude": 39.45587,
        "longitude": 38.56409
    },
    {
        "name": "Kemah",
        "latitude": 39.59606,
        "longitude": 39.02329
    },
    {
        "name": "Kemaliye",
        "latitude": 39.26288,
        "longitude": 38.49674
    },
    {
        "name": "Merkez",
        "latitude": 39.73919,
        "longitude": 39.49015
    },
    {
        "name": "Otlukbeli",
        "latitude": 39.97,
        "longitude": 40.01872
    },
    {
        "name": "Refahiye",
        "latitude": 39.89315,
        "longitude": 38.76607
    },
    {
        "name": "Tercan",
        "latitude": 39.77709,
        "longitude": 40.37783
    },
    {
        "name": "\u00dcz\u00fcml\u00fc",
        "latitude": 39.70943,
        "longitude": 39.70125
    },
    {
        "name": "A\u015fkale",
        "latitude": 39.92083,
        "longitude": 40.695
    },
    {
        "name": "Aziziye",
        "latitude": 39.94028,
        "longitude": 41.11153
    },
    {
        "name": "\u00c7at",
        "latitude": 39.61055,
        "longitude": 40.97851
    },
    {
        "name": "H\u0131n\u0131s",
        "latitude": 39.35766,
        "longitude": 41.69253
    },
    {
        "name": "Horasan",
        "latitude": 40.03885,
        "longitude": 42.16366
    },
    {
        "name": "\u0130spir",
        "latitude": 40.47981,
        "longitude": 40.99373
    },
    {
        "name": "Kara\u00e7oban",
        "latitude": 39.34364,
        "longitude": 42.09918
    },
    {
        "name": "Karayaz\u0131",
        "latitude": 39.69604,
        "longitude": 42.14277
    },
    {
        "name": "K\u00f6pr\u00fck\u00f6y",
        "latitude": 39.97178,
        "longitude": 41.86804
    },
    {
        "name": "Narman",
        "latitude": 40.34449,
        "longitude": 41.86088
    },
    {
        "name": "Oltu",
        "latitude": 40.53945,
        "longitude": 41.98722
    },
    {
        "name": "Olur",
        "latitude": 40.82165,
        "longitude": 42.13055
    },
    {
        "name": "Paland\u00f6ken",
        "latitude": 39.8556,
        "longitude": 41.27975
    },
    {
        "name": "Pasinler",
        "latitude": 39.97975,
        "longitude": 41.66997
    },
    {
        "name": "Pazaryolu",
        "latitude": 40.41142,
        "longitude": 40.7678
    },
    {
        "name": "\u015eenkaya",
        "latitude": 40.55652,
        "longitude": 42.34266
    },
    {
        "name": "Tekman",
        "latitude": 39.64111,
        "longitude": 41.50542
    },
    {
        "name": "Tortum",
        "latitude": 40.28892,
        "longitude": 41.54096
    },
    {
        "name": "Uzundere",
        "latitude": 40.53218,
        "longitude": 41.53832
    },
    {
        "name": "Yakutiye",
        "latitude": 40.00132,
        "longitude": 41.30997
    },
    {
        "name": "Alpu",
        "latitude": 39.76903,
        "longitude": 30.9606
    },
    {
        "name": "Beylikova",
        "latitude": 39.68694,
        "longitude": 31.20556
    },
    {
        "name": "\u00c7ifteler",
        "latitude": 39.38306,
        "longitude": 31.03917
    },
    {
        "name": "G\u00fcny\u00fcz\u00fc",
        "latitude": 39.3941,
        "longitude": 31.814
    },
    {
        "name": "Han",
        "latitude": 39.15917,
        "longitude": 30.86139
    },
    {
        "name": "\u0130n\u00f6n\u00fc",
        "latitude": 39.81534,
        "longitude": 30.14549
    },
    {
        "name": "Mahmudiye",
        "latitude": 39.50724,
        "longitude": 30.99247
    },
    {
        "name": "Mihalgazi",
        "latitude": 40.02621,
        "longitude": 30.57707
    },
    {
        "name": "Mihal\u0131\u00e7\u00e7\u0131k",
        "latitude": 39.87564,
        "longitude": 31.50091
    },
    {
        "name": "Odunpazar\u0131",
        "latitude": 39.76699,
        "longitude": 30.54113
    },
    {
        "name": "Sar\u0131cakaya",
        "latitude": 40.04671,
        "longitude": 30.61994
    },
    {
        "name": "Seyitgazi",
        "latitude": 39.44472,
        "longitude": 30.69472
    },
    {
        "name": "Sivrihisar",
        "latitude": 39.45037,
        "longitude": 31.53409
    },
    {
        "name": "Tepeba\u015f\u0131",
        "latitude": 39.7843,
        "longitude": 30.50206
    },
    {
        "name": "Araban",
        "latitude": 37.42559,
        "longitude": 37.78175
    },
    {
        "name": "\u0130slahiye",
        "latitude": 36.96528,
        "longitude": 36.70972
    },
    {
        "name": "Karkam\u0131\u015f",
        "latitude": 36.83452,
        "longitude": 37.9983
    },
    {
        "name": "Nizip",
        "latitude": 37.00972,
        "longitude": 37.79417
    },
    {
        "name": "Nurda\u011f\u0131",
        "latitude": 37.16821,
        "longitude": 36.73623
    },
    {
        "name": "O\u011fuzeli",
        "latitude": 36.96572,
        "longitude": 37.51339
    },
    {
        "name": "\u015eahinbey",
        "latitude": 37.03741,
        "longitude": 37.37822
    },
    {
        "name": "\u015eehitkamil",
        "latitude": 37.17217,
        "longitude": 37.36974
    },
    {
        "name": "Yavuzeli",
        "latitude": 37.31772,
        "longitude": 37.56824
    },
    {
        "name": "Alucra",
        "latitude": 40.31924,
        "longitude": 38.76528
    },
    {
        "name": "Bulancak",
        "latitude": 40.93805,
        "longitude": 38.23148
    },
    {
        "name": "\u00c7amoluk",
        "latitude": 40.13418,
        "longitude": 38.73389
    },
    {
        "name": "\u00c7anak\u00e7\u0131",
        "latitude": 40.86,
        "longitude": 39.05
    },
    {
        "name": "Dereli",
        "latitude": 40.613,
        "longitude": 38.39
    },
    {
        "name": "Do\u011fankent",
        "latitude": 40.8075,
        "longitude": 38.91722
    },
    {
        "name": "Espiye",
        "latitude": 40.94705,
        "longitude": 38.70299
    },
    {
        "name": "Eynesil",
        "latitude": 41.06436,
        "longitude": 39.14274
    },
    {
        "name": "G\u00f6rele",
        "latitude": 41.03083,
        "longitude": 39.00306
    },
    {
        "name": "G\u00fcce",
        "latitude": 40.89368,
        "longitude": 38.80855
    },
    {
        "name": "Ke\u015fap",
        "latitude": 40.91387,
        "longitude": 38.51442
    },
    {
        "name": "Merkez",
        "latitude": 40.8266,
        "longitude": 38.36085
    },
    {
        "name": "Piraziz",
        "latitude": 40.92244,
        "longitude": 38.12458
    },
    {
        "name": "\u015eebinkarahisar",
        "latitude": 40.28833,
        "longitude": 38.42361
    },
    {
        "name": "Tirebolu",
        "latitude": 41.00633,
        "longitude": 38.8498
    },
    {
        "name": "Ya\u011fl\u0131dere",
        "latitude": 40.85711,
        "longitude": 38.63242
    },
    {
        "name": "Kelkit",
        "latitude": 40.12682,
        "longitude": 39.43424
    },
    {
        "name": "K\u00f6se",
        "latitude": 40.20692,
        "longitude": 39.64626
    },
    {
        "name": "K\u00fcrt\u00fcn",
        "latitude": 40.69516,
        "longitude": 39.09468
    },
    {
        "name": "Merkez",
        "latitude": 40.46843,
        "longitude": 39.67441
    },
    {
        "name": "\u015eiran",
        "latitude": 40.19064,
        "longitude": 39.11747
    },
    {
        "name": "Torul",
        "latitude": 40.55071,
        "longitude": 39.28344
    },
    {
        "name": "\u00c7ukurca",
        "latitude": 37.24806,
        "longitude": 43.61361
    },
    {
        "name": "Derecik",
        "latitude": 37.072423,
        "longitude": 44.324348
    },
    {
        "name": "Merkez",
        "latitude": 37.57444,
        "longitude": 43.74083
    },
    {
        "name": "\u015eemdinli",
        "latitude": 37.30514,
        "longitude": 44.5742
    },
    {
        "name": "Y\u00fcksekova",
        "latitude": 37.54627,
        "longitude": 44.25827
    },
    {
        "name": "Alt\u0131n\u00f6z\u00fc",
        "latitude": 36.11244,
        "longitude": 36.24488
    },
    {
        "name": "Antakya",
        "latitude": 36.20655,
        "longitude": 36.15722
    },
    {
        "name": "Arsuz",
        "latitude": 36.41305,
        "longitude": 35.89033
    },
    {
        "name": "Belen",
        "latitude": 36.48866,
        "longitude": 36.19489
    },
    {
        "name": "Defne",
        "latitude": 36.23739,
        "longitude": 36.16364
    },
    {
        "name": "D\u00f6rtyol",
        "latitude": 36.83917,
        "longitude": 36.23025
    },
    {
        "name": "Erzin",
        "latitude": 36.95348,
        "longitude": 36.19839
    },
    {
        "name": "Hassa",
        "latitude": 36.79944,
        "longitude": 36.51778
    },
    {
        "name": "\u0130skenderun",
        "latitude": 36.58718,
        "longitude": 36.17347
    },
    {
        "name": "K\u0131r\u0131khan",
        "latitude": 36.49939,
        "longitude": 36.35755
    },
    {
        "name": "Kumlu",
        "latitude": 36.36508,
        "longitude": 36.45526
    },
    {
        "name": "Payas",
        "latitude": 36.756,
        "longitude": 36.21432
    },
    {
        "name": "Reyhanl\u0131",
        "latitude": 36.26791,
        "longitude": 36.56747
    },
    {
        "name": "Samanda\u011f",
        "latitude": 36.085,
        "longitude": 35.980556
    },
    {
        "name": "Yaylada\u011f\u0131",
        "latitude": 35.9025,
        "longitude": 36.06272
    },
    {
        "name": "Aral\u0131k",
        "latitude": 39.872778,
        "longitude": 44.519167
    },
    {
        "name": "Karakoyunlu",
        "latitude": 39.87036,
        "longitude": 43.63014
    },
    {
        "name": "Merkez",
        "latitude": 39.92371,
        "longitude": 44.045
    },
    {
        "name": "Tuzluca",
        "latitude": 40.03863,
        "longitude": 43.65212
    },
    {
        "name": "Aksu",
        "latitude": 37.79889,
        "longitude": 31.07111
    },
    {
        "name": "Atabey",
        "latitude": 37.95083,
        "longitude": 30.63861
    },
    {
        "name": "E\u011firdir",
        "latitude": 37.87462,
        "longitude": 30.85042
    },
    {
        "name": "Gelendost",
        "latitude": 38.12083,
        "longitude": 31.01528
    },
    {
        "name": "G\u00f6nen",
        "latitude": 37.95639,
        "longitude": 30.5114
    },
    {
        "name": "Ke\u00e7iborlu",
        "latitude": 37.9425,
        "longitude": 30.30222
    },
    {
        "name": "Merkez",
        "latitude": 37.76444,
        "longitude": 30.55222
    },
    {
        "name": "\u015earkikaraa\u011fa\u00e7",
        "latitude": 38.07944,
        "longitude": 31.36639
    },
    {
        "name": "Senirkent",
        "latitude": 38.10444,
        "longitude": 30.54861
    },
    {
        "name": "S\u00fct\u00e7\u00fcler",
        "latitude": 37.5112,
        "longitude": 30.95661
    },
    {
        "name": "Uluborlu",
        "latitude": 38.07825,
        "longitude": 30.45019
    },
    {
        "name": "Yalva\u00e7",
        "latitude": 38.29556,
        "longitude": 31.17778
    },
    {
        "name": "Yeni\u015farbademli",
        "latitude": 37.70778,
        "longitude": 31.38639
    },
    {
        "name": "Adalar",
        "latitude": 40.86913,
        "longitude": 29.12064
    },
    {
        "name": "Arnavutk\u00f6y",
        "latitude": 41.19674,
        "longitude": 28.73405
    },
    {
        "name": "Ata\u015fehir",
        "latitude": 40.99104,
        "longitude": 29.13471
    },
    {
        "name": "Avc\u0131lar",
        "latitude": 41.02355,
        "longitude": 28.7186
    },
    {
        "name": "Ba\u011fc\u0131lar",
        "latitude": 41.04275,
        "longitude": 28.83625
    },
    {
        "name": "Bah\u00e7elievler",
        "latitude": 41.00652,
        "longitude": 28.84099
    },
    {
        "name": "Bak\u0131rk\u00f6y",
        "latitude": 40.98388,
        "longitude": 28.83541
    },
    {
        "name": "Ba\u015fak\u015fehir",
        "latitude": 41.09203,
        "longitude": 28.80203
    },
    {
        "name": "Bayrampa\u015fa",
        "latitude": 41.04691,
        "longitude": 28.90278
    },
    {
        "name": "Be\u015fikta\u015f",
        "latitude": 41.07122,
        "longitude": 29.02321
    },
    {
        "name": "Beykoz",
        "latitude": 41.13774,
        "longitude": 29.16932
    },
    {
        "name": "Beylikd\u00fcz\u00fc",
        "latitude": 41.00322,
        "longitude": 28.64067
    },
    {
        "name": "Beyo\u011flu",
        "latitude": 41.03786,
        "longitude": 28.96767
    },
    {
        "name": "B\u00fcy\u00fck\u00e7ekmece",
        "latitude": 41.04521,
        "longitude": 28.59573
    },
    {
        "name": "\u00c7atalca",
        "latitude": 41.29651,
        "longitude": 28.45419
    },
    {
        "name": "\u00c7ekmek\u00f6y",
        "latitude": 41.03819,
        "longitude": 29.20029
    },
    {
        "name": "Esenler",
        "latitude": 41.07925,
        "longitude": 28.85235
    },
    {
        "name": "Esenyurt",
        "latitude": 41.04,
        "longitude": 28.66161
    },
    {
        "name": "Ey\u00fcpsultan",
        "latitude": 41.19904,
        "longitude": 28.88667
    },
    {
        "name": "Fatih",
        "latitude": 41.01746,
        "longitude": 28.94053
    },
    {
        "name": "Gaziosmanpa\u015fa",
        "latitude": 41.07857,
        "longitude": 28.89679
    },
    {
        "name": "G\u00fcng\u00f6ren",
        "latitude": 41.01787,
        "longitude": 28.87882
    },
    {
        "name": "Kad\u0131k\u00f6y",
        "latitude": 40.98229,
        "longitude": 29.09032
    },
    {
        "name": "K\u00e2\u011f\u0131thane",
        "latitude": 41.08319,
        "longitude": 28.97826
    },
    {
        "name": "Kartal",
        "latitude": 40.91197,
        "longitude": 29.2119
    },
    {
        "name": "K\u00fc\u00e7\u00fck\u00e7ekmece",
        "latitude": 41.06947,
        "longitude": 28.76983
    },
    {
        "name": "Maltepe",
        "latitude": 40.9589,
        "longitude": 29.17866
    },
    {
        "name": "Pendik",
        "latitude": 40.94577,
        "longitude": 29.33019
    },
    {
        "name": "Sancaktepe",
        "latitude": 40.98949,
        "longitude": 29.2432
    },
    {
        "name": "Sar\u0131yer",
        "latitude": 41.21482,
        "longitude": 29.05678
    },
    {
        "name": "\u015eile",
        "latitude": 41.12902,
        "longitude": 29.61845
    },
    {
        "name": "Silivri",
        "latitude": 41.18116,
        "longitude": 28.1989
    },
    {
        "name": "\u015ei\u015fli",
        "latitude": 41.12514,
        "longitude": 29.00013
    },
    {
        "name": "Sultanbeyli",
        "latitude": 40.95264,
        "longitude": 29.26797
    },
    {
        "name": "Sultangazi",
        "latitude": 41.21792,
        "longitude": 28.7174
    },
    {
        "name": "Tuzla",
        "latitude": 40.86368,
        "longitude": 29.31942
    },
    {
        "name": "\u00dcmraniye",
        "latitude": 41.01643,
        "longitude": 29.12476
    },
    {
        "name": "\u00dcsk\u00fcdar",
        "latitude": 41.02274,
        "longitude": 29.01366
    },
    {
        "name": "Zeytinburnu",
        "latitude": 41.00824,
        "longitude": 28.90952
    },
    {
        "name": "Alia\u011fa",
        "latitude": 38.80078,
        "longitude": 27.04375
    },
    {
        "name": "Bal\u00e7ova",
        "latitude": 38.37302,
        "longitude": 27.08714
    },
    {
        "name": "Bay\u0131nd\u0131r",
        "latitude": 38.21741,
        "longitude": 27.64744
    },
    {
        "name": "Bayrakl\u0131",
        "latitude": 38.46222,
        "longitude": 27.16667
    },
    {
        "name": "Bergama",
        "latitude": 39.17088,
        "longitude": 27.18918
    },
    {
        "name": "Beyda\u011f",
        "latitude": 38.08241,
        "longitude": 28.21609
    },
    {
        "name": "Bornova",
        "latitude": 38.48492,
        "longitude": 27.25235
    },
    {
        "name": "Buca",
        "latitude": 38.34813,
        "longitude": 27.25053
    },
    {
        "name": "\u00c7e\u015fme",
        "latitude": 38.32614,
        "longitude": 26.30574
    },
    {
        "name": "\u00c7i\u011fli",
        "latitude": 38.48802,
        "longitude": 26.96596
    },
    {
        "name": "Dikili",
        "latitude": 39.071,
        "longitude": 26.89017
    },
    {
        "name": "Fo\u00e7a",
        "latitude": 38.6703,
        "longitude": 26.75656
    },
    {
        "name": "Gaziemir",
        "latitude": 38.31098,
        "longitude": 27.15178
    },
    {
        "name": "G\u00fczelbah\u00e7e",
        "latitude": 38.37046,
        "longitude": 26.8693
    },
    {
        "name": "Karaba\u011flar",
        "latitude": 38.36912,
        "longitude": 27.12696
    },
    {
        "name": "Karaburun",
        "latitude": 38.6364,
        "longitude": 26.51094
    },
    {
        "name": "Kar\u015f\u0131yaka",
        "latitude": 38.46775,
        "longitude": 27.11502
    },
    {
        "name": "Kemalpa\u015fa",
        "latitude": 38.40883,
        "longitude": 27.491
    },
    {
        "name": "Kiraz",
        "latitude": 38.23056,
        "longitude": 28.20444
    },
    {
        "name": "K\u0131n\u0131k",
        "latitude": 39.08722,
        "longitude": 27.38333
    },
    {
        "name": "Konak",
        "latitude": 38.41448,
        "longitude": 27.14412
    },
    {
        "name": "Menderes",
        "latitude": 38.24963,
        "longitude": 27.13429
    },
    {
        "name": "Menemen",
        "latitude": 38.61608,
        "longitude": 27.06315
    },
    {
        "name": "Narl\u0131dere",
        "latitude": 38.38957,
        "longitude": 27.02431
    },
    {
        "name": "\u00d6demi\u015f",
        "latitude": 38.2278,
        "longitude": 27.96955
    },
    {
        "name": "Seferihisar",
        "latitude": 38.18144,
        "longitude": 26.88877
    },
    {
        "name": "Sel\u00e7uk",
        "latitude": 37.95137,
        "longitude": 27.36849
    },
    {
        "name": "Tire",
        "latitude": 38.06582,
        "longitude": 27.7273
    },
    {
        "name": "Torbal\u0131",
        "latitude": 38.17603,
        "longitude": 27.37182
    },
    {
        "name": "Urla",
        "latitude": 38.32292,
        "longitude": 26.76403
    },
    {
        "name": "Af\u015fin",
        "latitude": 38.24769,
        "longitude": 36.91399
    },
    {
        "name": "And\u0131r\u0131n",
        "latitude": 37.57757,
        "longitude": 36.35492
    },
    {
        "name": "\u00c7a\u011flayancerit",
        "latitude": 37.74523,
        "longitude": 37.28618
    },
    {
        "name": "Dulkadiro\u011flu",
        "latitude": 37.58254,
        "longitude": 36.91973
    },
    {
        "name": "Ekin\u00f6z\u00fc",
        "latitude": 38.07007,
        "longitude": 37.19414
    },
    {
        "name": "Elbistan",
        "latitude": 38.20591,
        "longitude": 37.1983
    },
    {
        "name": "G\u00f6ksun",
        "latitude": 38.02096,
        "longitude": 36.4973
    },
    {
        "name": "Nurhak",
        "latitude": 37.96366,
        "longitude": 37.44047
    },
    {
        "name": "Oniki\u015fubat",
        "latitude": 37.59002,
        "longitude": 36.90548
    },
    {
        "name": "Pazarc\u0131k",
        "latitude": 37.48685,
        "longitude": 37.29961
    },
    {
        "name": "T\u00fcrko\u011flu",
        "latitude": 37.38417,
        "longitude": 36.84626
    },
    {
        "name": "Eflani",
        "latitude": 41.42289,
        "longitude": 32.95761
    },
    {
        "name": "Eskipazar",
        "latitude": 40.95207,
        "longitude": 32.54604
    },
    {
        "name": "Merkez",
        "latitude": 41.20488,
        "longitude": 32.62768
    },
    {
        "name": "Ovac\u0131k",
        "latitude": 41.08029,
        "longitude": 32.93224
    },
    {
        "name": "Safranbolu",
        "latitude": 41.25083,
        "longitude": 32.69417
    },
    {
        "name": "Yenice",
        "latitude": 41.19962,
        "longitude": 32.33133
    },
    {
        "name": "Ayranc\u0131",
        "latitude": 37.37111,
        "longitude": 33.69291
    },
    {
        "name": "Ba\u015fyayla",
        "latitude": 36.75337,
        "longitude": 32.68018
    },
    {
        "name": "Ermenek",
        "latitude": 36.64043,
        "longitude": 32.89179
    },
    {
        "name": "Kaz\u0131mkarabekir",
        "latitude": 37.23028,
        "longitude": 32.95889
    },
    {
        "name": "Merkez",
        "latitude": 37.18111,
        "longitude": 33.215
    },
    {
        "name": "Sar\u0131veliler",
        "latitude": 36.69705,
        "longitude": 32.61203
    },
    {
        "name": "Akyaka",
        "latitude": 40.74093,
        "longitude": 43.61432
    },
    {
        "name": "Arpa\u00e7ay",
        "latitude": 40.84522,
        "longitude": 43.32747
    },
    {
        "name": "Digor",
        "latitude": 40.37515,
        "longitude": 43.41361
    },
    {
        "name": "Ka\u011f\u0131zman",
        "latitude": 40.15669,
        "longitude": 43.13424
    },
    {
        "name": "Merkez",
        "latitude": 40.59825,
        "longitude": 43.08548
    },
    {
        "name": "Sar\u0131kam\u0131\u015f",
        "latitude": 40.32769,
        "longitude": 42.58705
    },
    {
        "name": "Selim",
        "latitude": 40.45772,
        "longitude": 42.78287
    },
    {
        "name": "Susuz",
        "latitude": 40.7791,
        "longitude": 43.12769
    },
    {
        "name": "Abana",
        "latitude": 41.97858,
        "longitude": 34.011
    },
    {
        "name": "A\u011fl\u0131",
        "latitude": 41.69283,
        "longitude": 33.54487
    },
    {
        "name": "Ara\u00e7",
        "latitude": 41.24222,
        "longitude": 33.32767
    },
    {
        "name": "Azdavay",
        "latitude": 41.64267,
        "longitude": 33.3
    },
    {
        "name": "Bozkurt",
        "latitude": 41.95769,
        "longitude": 34.01087
    },
    {
        "name": "\u00c7atalzeytin",
        "latitude": 41.93795,
        "longitude": 34.20285
    },
    {
        "name": "Cide",
        "latitude": 41.85583,
        "longitude": 33.03977
    },
    {
        "name": "Daday",
        "latitude": 41.47866,
        "longitude": 33.46667
    },
    {
        "name": "Devrekani",
        "latitude": 41.60303,
        "longitude": 33.83922
    },
    {
        "name": "Do\u011fanyurt",
        "latitude": 42.00457,
        "longitude": 33.46029
    },
    {
        "name": "Han\u00f6n\u00fc",
        "latitude": 41.62705,
        "longitude": 34.46667
    },
    {
        "name": "\u0130hsangazi",
        "latitude": 41.20432,
        "longitude": 33.55455
    },
    {
        "name": "\u0130nebolu",
        "latitude": 41.97472,
        "longitude": 33.76083
    },
    {
        "name": "K\u00fcre",
        "latitude": 41.80578,
        "longitude": 33.71161
    },
    {
        "name": "Merkez",
        "latitude": 41.37805,
        "longitude": 33.77528
    },
    {
        "name": "P\u0131narba\u015f\u0131",
        "latitude": 41.60388,
        "longitude": 33.11099
    },
    {
        "name": "\u015eenpazar",
        "latitude": 41.81651,
        "longitude": 33.21766
    },
    {
        "name": "Seydiler",
        "latitude": 41.62005,
        "longitude": 33.71815
    },
    {
        "name": "Ta\u015fk\u00f6pr\u00fc",
        "latitude": 41.5098,
        "longitude": 34.21414
    },
    {
        "name": "Tosya",
        "latitude": 41.01545,
        "longitude": 34.04013
    },
    {
        "name": "Akk\u0131\u015fla",
        "latitude": 39.00222,
        "longitude": 36.17381
    },
    {
        "name": "B\u00fcnyan",
        "latitude": 38.8463,
        "longitude": 35.86033
    },
    {
        "name": "Develi",
        "latitude": 38.26789,
        "longitude": 35.59161
    },
    {
        "name": "Felahiye",
        "latitude": 39.09056,
        "longitude": 35.56722
    },
    {
        "name": "Hac\u0131lar",
        "latitude": 38.64631,
        "longitude": 35.44937
    },
    {
        "name": "\u0130ncesu",
        "latitude": 38.63789,
        "longitude": 35.19394
    },
    {
        "name": "Kocasinan",
        "latitude": 38.87959,
        "longitude": 35.3554
    },
    {
        "name": "Melikgazi",
        "latitude": 38.77933,
        "longitude": 35.66076
    },
    {
        "name": "\u00d6zvatan",
        "latitude": 39.11737,
        "longitude": 35.71149
    },
    {
        "name": "P\u0131narba\u015f\u0131",
        "latitude": 38.72285,
        "longitude": 36.39314
    },
    {
        "name": "Sar\u0131o\u011flan",
        "latitude": 39.07694,
        "longitude": 35.96671
    },
    {
        "name": "Sar\u0131z",
        "latitude": 38.47917,
        "longitude": 36.49898
    },
    {
        "name": "Talas",
        "latitude": 38.6908,
        "longitude": 35.5538
    },
    {
        "name": "Tomarza",
        "latitude": 38.44722,
        "longitude": 35.79917
    },
    {
        "name": "Yahyal\u0131",
        "latitude": 38.10228,
        "longitude": 35.35704
    },
    {
        "name": "Ye\u015filhisar",
        "latitude": 38.33475,
        "longitude": 35.11795
    },
    {
        "name": "Elbeyli",
        "latitude": 36.67417,
        "longitude": 37.46667
    },
    {
        "name": "Merkez",
        "latitude": 36.71611,
        "longitude": 37.115
    },
    {
        "name": "Musabeyli",
        "latitude": 36.88639,
        "longitude": 36.91861
    },
    {
        "name": "Polateli",
        "latitude": 36.83694,
        "longitude": 37.15083
    },
    {
        "name": "Bah\u015f\u0131l\u0131",
        "latitude": 39.80979,
        "longitude": 33.4408
    },
    {
        "name": "Bal\u0131\u015feyh",
        "latitude": 39.91411,
        "longitude": 33.72333
    },
    {
        "name": "\u00c7elebi",
        "latitude": 39.4747,
        "longitude": 33.52895
    },
    {
        "name": "Delice",
        "latitude": 39.95371,
        "longitude": 34.02587
    },
    {
        "name": "Karake\u00e7ili",
        "latitude": 39.59417,
        "longitude": 33.37778
    },
    {
        "name": "Keskin",
        "latitude": 39.67306,
        "longitude": 33.61361
    },
    {
        "name": "Merkez",
        "latitude": 39.84528,
        "longitude": 33.50639
    },
    {
        "name": "Sulakyurt",
        "latitude": 40.15733,
        "longitude": 33.716
    },
    {
        "name": "Yah\u015fihan",
        "latitude": 39.85992,
        "longitude": 33.45615
    },
    {
        "name": "Babaeski",
        "latitude": 41.4325,
        "longitude": 27.09306
    },
    {
        "name": "Demirk\u00f6y",
        "latitude": 41.83567,
        "longitude": 27.77137
    },
    {
        "name": "Kof\u00e7az",
        "latitude": 41.94481,
        "longitude": 27.15829
    },
    {
        "name": "L\u00fcleburgaz",
        "latitude": 41.41495,
        "longitude": 27.37325
    },
    {
        "name": "Merkez",
        "latitude": 41.73508,
        "longitude": 27.22521
    },
    {
        "name": "Pehlivank\u00f6y",
        "latitude": 41.34812,
        "longitude": 26.92522
    },
    {
        "name": "P\u0131narhisar",
        "latitude": 41.62417,
        "longitude": 27.52
    },
    {
        "name": "Vize",
        "latitude": 41.5725,
        "longitude": 27.76583
    },
    {
        "name": "Ak\u00e7akent",
        "latitude": 39.63184,
        "longitude": 34.08468
    },
    {
        "name": "Akp\u0131nar",
        "latitude": 39.45005,
        "longitude": 33.96484
    },
    {
        "name": "Boztepe",
        "latitude": 39.27979,
        "longitude": 34.26657
    },
    {
        "name": "\u00c7i\u00e7ekda\u011f\u0131",
        "latitude": 39.60694,
        "longitude": 34.40861
    },
    {
        "name": "Kaman",
        "latitude": 39.3575,
        "longitude": 33.72389
    },
    {
        "name": "Merkez",
        "latitude": 39.14583,
        "longitude": 34.16389
    },
    {
        "name": "Mucur",
        "latitude": 39.06147,
        "longitude": 34.38286
    },
    {
        "name": "Ba\u015fiskele",
        "latitude": 40.64574,
        "longitude": 29.90015
    },
    {
        "name": "\u00c7ay\u0131rova",
        "latitude": 40.82784,
        "longitude": 29.39014
    },
    {
        "name": "Dar\u0131ca",
        "latitude": 40.7678,
        "longitude": 29.37126
    },
    {
        "name": "Derince",
        "latitude": 40.75694,
        "longitude": 29.81472
    },
    {
        "name": "Dilovas\u0131",
        "latitude": 40.77972,
        "longitude": 29.535
    },
    {
        "name": "Gebze",
        "latitude": 40.80276,
        "longitude": 29.43068
    },
    {
        "name": "G\u00f6lc\u00fck",
        "latitude": 40.70323,
        "longitude": 29.87216
    },
    {
        "name": "\u0130zmit",
        "latitude": 40.77521,
        "longitude": 29.94624
    },
    {
        "name": "Kand\u0131ra",
        "latitude": 41.07,
        "longitude": 30.15262
    },
    {
        "name": "Karam\u00fcrsel",
        "latitude": 40.69129,
        "longitude": 29.61649
    },
    {
        "name": "Kartepe",
        "latitude": 40.75246,
        "longitude": 30.02787
    },
    {
        "name": "K\u00f6rfez",
        "latitude": 40.76704,
        "longitude": 29.78275
    },
    {
        "name": "Ah\u0131rl\u0131",
        "latitude": 37.24828,
        "longitude": 32.12419
    },
    {
        "name": "Ak\u00f6ren",
        "latitude": 37.46265,
        "longitude": 32.37489
    },
    {
        "name": "Ak\u015fehir",
        "latitude": 38.3575,
        "longitude": 31.41639
    },
    {
        "name": "Alt\u0131nekin",
        "latitude": 38.30778,
        "longitude": 32.86861
    },
    {
        "name": "Bey\u015fehir",
        "latitude": 37.67735,
        "longitude": 31.72458
    },
    {
        "name": "Bozk\u0131r",
        "latitude": 37.18963,
        "longitude": 32.24736
    },
    {
        "name": "\u00c7eltik",
        "latitude": 39.03388,
        "longitude": 31.79408
    },
    {
        "name": "Cihanbeyli",
        "latitude": 38.66072,
        "longitude": 32.92437
    },
    {
        "name": "\u00c7umra",
        "latitude": 37.5732,
        "longitude": 32.77446
    },
    {
        "name": "Derbent",
        "latitude": 38.01422,
        "longitude": 32.01639
    },
    {
        "name": "Derebucak",
        "latitude": 37.39179,
        "longitude": 31.50918
    },
    {
        "name": "Do\u011fanhisar",
        "latitude": 38.1463,
        "longitude": 31.67648
    },
    {
        "name": "Emirgazi",
        "latitude": 37.90222,
        "longitude": 33.83722
    },
    {
        "name": "Ere\u011fli",
        "latitude": 37.51333,
        "longitude": 34.04672
    },
    {
        "name": "G\u00fcneys\u0131n\u0131r",
        "latitude": 37.27977,
        "longitude": 32.73735
    },
    {
        "name": "Hadim",
        "latitude": 36.98776,
        "longitude": 32.45674
    },
    {
        "name": "Halkap\u0131nar",
        "latitude": 37.43394,
        "longitude": 34.18743
    },
    {
        "name": "H\u00fcy\u00fck",
        "latitude": 37.95388,
        "longitude": 31.59639
    },
    {
        "name": "Ilg\u0131n",
        "latitude": 38.27917,
        "longitude": 31.91389
    },
    {
        "name": "Kad\u0131nhan\u0131",
        "latitude": 38.23972,
        "longitude": 32.21139
    },
    {
        "name": "Karap\u0131nar",
        "latitude": 37.71596,
        "longitude": 33.55064
    },
    {
        "name": "Karatay",
        "latitude": 37.94001,
        "longitude": 32.99828
    },
    {
        "name": "Kulu",
        "latitude": 39.09513,
        "longitude": 33.07989
    },
    {
        "name": "Meram",
        "latitude": 37.83984,
        "longitude": 32.47111
    },
    {
        "name": "Saray\u00f6n\u00fc",
        "latitude": 38.26201,
        "longitude": 32.40457
    },
    {
        "name": "Sel\u00e7uklu",
        "latitude": 38.05761,
        "longitude": 32.54088
    },
    {
        "name": "Seydi\u015fehir",
        "latitude": 37.41926,
        "longitude": 31.84527
    },
    {
        "name": "Ta\u015fkent",
        "latitude": 36.9243,
        "longitude": 32.49131
    },
    {
        "name": "Tuzluk\u00e7u",
        "latitude": 38.47778,
        "longitude": 31.62639
    },
    {
        "name": "Yal\u0131h\u00fcy\u00fck",
        "latitude": 37.30077,
        "longitude": 32.08548
    },
    {
        "name": "Yunak",
        "latitude": 38.81418,
        "longitude": 31.73223
    },
    {
        "name": "Alt\u0131nta\u015f",
        "latitude": 39.06932,
        "longitude": 30.12048
    },
    {
        "name": "Aslanapa",
        "latitude": 39.21581,
        "longitude": 29.8699
    },
    {
        "name": "\u00c7avdarhisar",
        "latitude": 39.20333,
        "longitude": 29.63094
    },
    {
        "name": "Domani\u00e7",
        "latitude": 39.80194,
        "longitude": 29.60918
    },
    {
        "name": "Dumlup\u0131nar",
        "latitude": 38.85408,
        "longitude": 29.9772
    },
    {
        "name": "Emet",
        "latitude": 39.343,
        "longitude": 29.25847
    },
    {
        "name": "Gediz",
        "latitude": 38.99389,
        "longitude": 29.39131
    },
    {
        "name": "Hisarc\u0131k",
        "latitude": 39.25987,
        "longitude": 29.24134
    },
    {
        "name": "Merkez",
        "latitude": 39.42417,
        "longitude": 29.98333
    },
    {
        "name": "Pazarlar",
        "latitude": 38.995,
        "longitude": 29.12583
    },
    {
        "name": "\u015eaphane",
        "latitude": 39.0273,
        "longitude": 29.22218
    },
    {
        "name": "Simav",
        "latitude": 39.0882,
        "longitude": 28.97767
    },
    {
        "name": "Tav\u015fanl\u0131",
        "latitude": 39.54237,
        "longitude": 29.49866
    },
    {
        "name": "Ak\u00e7ada\u011f",
        "latitude": 38.33899,
        "longitude": 37.97021
    },
    {
        "name": "Arapgir",
        "latitude": 39.04117,
        "longitude": 38.49516
    },
    {
        "name": "Arguvan",
        "latitude": 38.78172,
        "longitude": 38.26349
    },
    {
        "name": "Battalgazi",
        "latitude": 38.43932,
        "longitude": 38.45764
    },
    {
        "name": "Darende",
        "latitude": 38.54583,
        "longitude": 37.50583
    },
    {
        "name": "Do\u011fan\u015fehir",
        "latitude": 38.08574,
        "longitude": 37.87116
    },
    {
        "name": "Do\u011fanyol",
        "latitude": 38.30746,
        "longitude": 39.03431
    },
    {
        "name": "Hekimhan",
        "latitude": 38.81622,
        "longitude": 37.92882
    },
    {
        "name": "Kale",
        "latitude": 39.03333,
        "longitude": 38.0
    },
    {
        "name": "Kuluncak",
        "latitude": 38.87656,
        "longitude": 37.66279
    },
    {
        "name": "P\u00fct\u00fcrge",
        "latitude": 38.1963,
        "longitude": 38.87418
    },
    {
        "name": "Yaz\u0131han",
        "latitude": 38.59292,
        "longitude": 38.17327
    },
    {
        "name": "Ye\u015filyurt",
        "latitude": 38.29602,
        "longitude": 38.24526
    },
    {
        "name": "Ahmetli",
        "latitude": 38.5196,
        "longitude": 27.93865
    },
    {
        "name": "Akhisar",
        "latitude": 38.91852,
        "longitude": 27.84006
    },
    {
        "name": "Ala\u015fehir",
        "latitude": 38.35083,
        "longitude": 28.51718
    },
    {
        "name": "Demirci",
        "latitude": 39.04607,
        "longitude": 28.65889
    },
    {
        "name": "G\u00f6lmarmara",
        "latitude": 38.71389,
        "longitude": 27.91417
    },
    {
        "name": "G\u00f6rdes",
        "latitude": 38.93278,
        "longitude": 28.28942
    },
    {
        "name": "K\u0131rka\u011fa\u00e7",
        "latitude": 39.10638,
        "longitude": 27.66925
    },
    {
        "name": "K\u00f6pr\u00fcba\u015f\u0131",
        "latitude": 38.74972,
        "longitude": 28.40472
    },
    {
        "name": "Kula",
        "latitude": 38.56775,
        "longitude": 28.64146
    },
    {
        "name": "Salihli",
        "latitude": 38.49254,
        "longitude": 28.15264
    },
    {
        "name": "Sar\u0131g\u00f6l",
        "latitude": 38.23953,
        "longitude": 28.69663
    },
    {
        "name": "Saruhanl\u0131",
        "latitude": 38.76778,
        "longitude": 27.64714
    },
    {
        "name": "\u015eehzadeler",
        "latitude": 38.6166,
        "longitude": 27.43861
    },
    {
        "name": "Selendi",
        "latitude": 38.74444,
        "longitude": 28.86778
    },
    {
        "name": "Soma",
        "latitude": 39.18554,
        "longitude": 27.60945
    },
    {
        "name": "Turgutlu",
        "latitude": 38.51515,
        "longitude": 27.73515
    },
    {
        "name": "Yunusemre",
        "latitude": 38.62063,
        "longitude": 27.40806
    },
    {
        "name": "Artuklu",
        "latitude": 37.31714,
        "longitude": 40.72473
    },
    {
        "name": "Darge\u00e7it",
        "latitude": 37.54616,
        "longitude": 41.71652
    },
    {
        "name": "Derik",
        "latitude": 37.36431,
        "longitude": 40.26883
    },
    {
        "name": "K\u0131z\u0131ltepe",
        "latitude": 37.18836,
        "longitude": 40.57723
    },
    {
        "name": "Maz\u0131da\u011f\u0131",
        "latitude": 37.47801,
        "longitude": 40.48152
    },
    {
        "name": "Midyat",
        "latitude": 37.41908,
        "longitude": 41.33909
    },
    {
        "name": "Nusaybin",
        "latitude": 37.07028,
        "longitude": 41.21465
    },
    {
        "name": "\u00d6merli",
        "latitude": 37.39903,
        "longitude": 40.95442
    },
    {
        "name": "Savur",
        "latitude": 37.53544,
        "longitude": 40.87876
    },
    {
        "name": "Ye\u015filli",
        "latitude": 37.33813,
        "longitude": 40.81739
    },
    {
        "name": "Akdeniz",
        "latitude": 36.86424,
        "longitude": 34.67731
    },
    {
        "name": "Anamur",
        "latitude": 36.07508,
        "longitude": 32.83691
    },
    {
        "name": "Ayd\u0131nc\u0131k",
        "latitude": 36.1437,
        "longitude": 33.32016
    },
    {
        "name": "Bozyaz\u0131",
        "latitude": 36.1082,
        "longitude": 32.96113
    },
    {
        "name": "\u00c7aml\u0131yayla",
        "latitude": 37.18,
        "longitude": 34.60678
    },
    {
        "name": "Erdemli",
        "latitude": 36.60498,
        "longitude": 34.30836
    },
    {
        "name": "G\u00fclnar",
        "latitude": 36.34148,
        "longitude": 33.39921
    },
    {
        "name": "Mezitli",
        "latitude": 36.894,
        "longitude": 34.42987
    },
    {
        "name": "Mut",
        "latitude": 36.71842,
        "longitude": 33.38718
    },
    {
        "name": "Silifke",
        "latitude": 36.37778,
        "longitude": 33.93444
    },
    {
        "name": "Tarsus",
        "latitude": 36.91766,
        "longitude": 34.89277
    },
    {
        "name": "Toroslar",
        "latitude": 36.87083,
        "longitude": 34.60299
    },
    {
        "name": "Yeni\u015fehir",
        "latitude": 36.81602,
        "longitude": 34.57621
    },
    {
        "name": "Bodrum",
        "latitude": 37.065,
        "longitude": 27.49819
    },
    {
        "name": "Dalaman",
        "latitude": 36.81691,
        "longitude": 28.87815
    },
    {
        "name": "Dat\u00e7a",
        "latitude": 36.73778,
        "longitude": 27.68417
    },
    {
        "name": "Fethiye",
        "latitude": 36.64038,
        "longitude": 29.12758
    },
    {
        "name": "Kavakl\u0131dere",
        "latitude": 37.43929,
        "longitude": 28.38402
    },
    {
        "name": "K\u00f6yce\u011fiz",
        "latitude": 36.97798,
        "longitude": 28.72418
    },
    {
        "name": "Marmaris",
        "latitude": 36.855,
        "longitude": 28.27417
    },
    {
        "name": "Mente\u015fe",
        "latitude": 37.21447,
        "longitude": 28.36168
    },
    {
        "name": "Milas",
        "latitude": 37.31639,
        "longitude": 27.78389
    },
    {
        "name": "Ortaca",
        "latitude": 36.83915,
        "longitude": 28.76457
    },
    {
        "name": "Seydikemer",
        "latitude": 36.64308,
        "longitude": 29.34929
    },
    {
        "name": "Ula",
        "latitude": 37.10491,
        "longitude": 28.41667
    },
    {
        "name": "Yata\u011fan",
        "latitude": 37.35864,
        "longitude": 28.11441
    },
    {
        "name": "Bulan\u0131k",
        "latitude": 39.08656,
        "longitude": 42.27158
    },
    {
        "name": "Hask\u00f6y",
        "latitude": 38.68231,
        "longitude": 41.67851
    },
    {
        "name": "Korkut",
        "latitude": 38.7339,
        "longitude": 41.78396
    },
    {
        "name": "Malazgirt",
        "latitude": 39.1465,
        "longitude": 42.53536
    },
    {
        "name": "Merkez",
        "latitude": 38.83793,
        "longitude": 41.48332
    },
    {
        "name": "Varto",
        "latitude": 39.17375,
        "longitude": 41.45402
    },
    {
        "name": "Ac\u0131g\u00f6l",
        "latitude": 38.55028,
        "longitude": 34.50917
    },
    {
        "name": "Avanos",
        "latitude": 38.715,
        "longitude": 34.84667
    },
    {
        "name": "Derinkuyu",
        "latitude": 38.3751,
        "longitude": 34.73419
    },
    {
        "name": "G\u00fcl\u015fehir",
        "latitude": 38.74594,
        "longitude": 34.62524
    },
    {
        "name": "Hac\u0131bekta\u015f",
        "latitude": 38.94077,
        "longitude": 34.5577
    },
    {
        "name": "Kozakl\u0131",
        "latitude": 39.23204,
        "longitude": 34.85585
    },
    {
        "name": "Merkez",
        "latitude": 38.60039,
        "longitude": 34.68537
    },
    {
        "name": "\u00dcrg\u00fcp",
        "latitude": 38.57342,
        "longitude": 34.9402
    },
    {
        "name": "Altunhisar",
        "latitude": 37.99159,
        "longitude": 34.37334
    },
    {
        "name": "Bor",
        "latitude": 37.89056,
        "longitude": 34.55889
    },
    {
        "name": "\u00c7amard\u0131",
        "latitude": 37.84157,
        "longitude": 34.99005
    },
    {
        "name": "\u00c7iftlik",
        "latitude": 38.1758,
        "longitude": 34.48535
    },
    {
        "name": "Merkez",
        "latitude": 37.96583,
        "longitude": 34.67935
    },
    {
        "name": "Uluk\u0131\u015fla",
        "latitude": 37.54592,
        "longitude": 34.58737
    },
    {
        "name": "Akku\u015f",
        "latitude": 40.81,
        "longitude": 36.96
    },
    {
        "name": "Alt\u0131nordu",
        "latitude": 40.94879,
        "longitude": 37.79572
    },
    {
        "name": "Aybast\u0131",
        "latitude": 40.6969,
        "longitude": 37.40794
    },
    {
        "name": "\u00c7ama\u015f",
        "latitude": 40.902,
        "longitude": 37.52786
    },
    {
        "name": "\u00c7atalp\u0131nar",
        "latitude": 40.88678,
        "longitude": 37.44329
    },
    {
        "name": "\u00c7ayba\u015f\u0131",
        "latitude": 41.02532,
        "longitude": 37.10867
    },
    {
        "name": "Fatsa",
        "latitude": 41.02778,
        "longitude": 37.50139
    },
    {
        "name": "G\u00f6lk\u00f6y",
        "latitude": 40.68726,
        "longitude": 37.6166
    },
    {
        "name": "G\u00fclyal\u0131",
        "latitude": 40.96682,
        "longitude": 38.05679
    },
    {
        "name": "G\u00fcrgentepe",
        "latitude": 40.78567,
        "longitude": 37.58969
    },
    {
        "name": "\u0130kizce",
        "latitude": 41.05833,
        "longitude": 37.08028
    },
    {
        "name": "Kabad\u00fcz",
        "latitude": 40.86096,
        "longitude": 37.8847
    },
    {
        "name": "Kabata\u015f",
        "latitude": 40.75,
        "longitude": 37.45
    },
    {
        "name": "Korgan",
        "latitude": 40.82472,
        "longitude": 37.34667
    },
    {
        "name": "Kumru",
        "latitude": 40.87444,
        "longitude": 37.26389
    },
    {
        "name": "Mesudiye",
        "latitude": 40.45446,
        "longitude": 37.77353
    },
    {
        "name": "Per\u015fembe",
        "latitude": 41.06556,
        "longitude": 37.77139
    },
    {
        "name": "Ulubey",
        "latitude": 40.86863,
        "longitude": 37.75405
    },
    {
        "name": "\u00dcnye",
        "latitude": 41.13921,
        "longitude": 37.27246
    },
    {
        "name": "Bah\u00e7e",
        "latitude": 37.20105,
        "longitude": 36.57687
    },
    {
        "name": "D\u00fczi\u00e7i",
        "latitude": 37.25062,
        "longitude": 36.47051
    },
    {
        "name": "Hasanbeyli",
        "latitude": 37.12838,
        "longitude": 36.54608
    },
    {
        "name": "Kadirli",
        "latitude": 37.37389,
        "longitude": 36.09611
    },
    {
        "name": "Merkez",
        "latitude": 37.07417,
        "longitude": 36.24778
    },
    {
        "name": "Sumbas",
        "latitude": 37.46169,
        "longitude": 36.02914
    },
    {
        "name": "Toprakkale",
        "latitude": 37.06855,
        "longitude": 36.14661
    },
    {
        "name": "Arde\u015fen",
        "latitude": 41.19111,
        "longitude": 40.9875
    },
    {
        "name": "\u00c7aml\u0131hem\u015fin",
        "latitude": 41.045938,
        "longitude": 41.005275
    },
    {
        "name": "\u00c7ayeli",
        "latitude": 41.08941,
        "longitude": 40.73696
    },
    {
        "name": "Derepazar\u0131",
        "latitude": 41.024722,
        "longitude": 40.425556
    },
    {
        "name": "F\u0131nd\u0131kl\u0131",
        "latitude": 41.2711,
        "longitude": 41.14449
    },
    {
        "name": "G\u00fcneysu",
        "latitude": 40.9813,
        "longitude": 40.60465
    },
    {
        "name": "Hem\u015fin",
        "latitude": 41.05922,
        "longitude": 40.9014
    },
    {
        "name": "\u0130kizdere",
        "latitude": 40.77713,
        "longitude": 40.56076
    },
    {
        "name": "\u0130yidere",
        "latitude": 41.00905,
        "longitude": 40.37776
    },
    {
        "name": "Kalkandere",
        "latitude": 40.92143,
        "longitude": 40.43999
    },
    {
        "name": "Merkez",
        "latitude": 41.02083,
        "longitude": 40.52194
    },
    {
        "name": "Pazar",
        "latitude": 41.17917,
        "longitude": 40.88417
    },
    {
        "name": "Adapazar\u0131",
        "latitude": 40.78056,
        "longitude": 30.40333
    },
    {
        "name": "Akyaz\u0131",
        "latitude": 40.685,
        "longitude": 30.62222
    },
    {
        "name": "Arifiye",
        "latitude": 40.71327,
        "longitude": 30.36128
    },
    {
        "name": "Erenler",
        "latitude": 40.75564,
        "longitude": 30.41453
    },
    {
        "name": "Ferizli",
        "latitude": 40.94082,
        "longitude": 30.48583
    },
    {
        "name": "Geyve",
        "latitude": 40.5075,
        "longitude": 30.2925
    },
    {
        "name": "Hendek",
        "latitude": 40.79944,
        "longitude": 30.74806
    },
    {
        "name": "Karap\u00fcr\u00e7ek",
        "latitude": 40.64194,
        "longitude": 30.53944
    },
    {
        "name": "Karasu",
        "latitude": 41.09983,
        "longitude": 30.68241
    },
    {
        "name": "Kaynarca",
        "latitude": 41.03083,
        "longitude": 30.3075
    },
    {
        "name": "Kocaali",
        "latitude": 41.05336,
        "longitude": 30.85278
    },
    {
        "name": "Pamukova",
        "latitude": 40.5081,
        "longitude": 30.16732
    },
    {
        "name": "Sapanca",
        "latitude": 40.69141,
        "longitude": 30.26738
    },
    {
        "name": "Serdivan",
        "latitude": 40.76371,
        "longitude": 30.36784
    },
    {
        "name": "S\u00f6\u011f\u00fctl\u00fc",
        "latitude": 40.9059,
        "longitude": 30.47448
    },
    {
        "name": "Tarakl\u0131",
        "latitude": 40.39694,
        "longitude": 30.49278
    },
    {
        "name": "Ala\u00e7am",
        "latitude": 41.61563,
        "longitude": 35.60632
    },
    {
        "name": "Asarc\u0131k",
        "latitude": 41.03556,
        "longitude": 36.23556
    },
    {
        "name": "Atakum",
        "latitude": 41.3473,
        "longitude": 36.23051
    },
    {
        "name": "Ayvac\u0131k",
        "latitude": 40.99111,
        "longitude": 36.63139
    },
    {
        "name": "Bafra",
        "latitude": 41.46082,
        "longitude": 35.84435
    },
    {
        "name": "Canik",
        "latitude": 41.23858,
        "longitude": 36.33694
    },
    {
        "name": "\u00c7ar\u015famba",
        "latitude": 41.19889,
        "longitude": 36.72194
    },
    {
        "name": "Havza",
        "latitude": 40.97056,
        "longitude": 35.66222
    },
    {
        "name": "\u0130lkad\u0131m",
        "latitude": 41.29161,
        "longitude": 36.30106
    },
    {
        "name": "Kavak",
        "latitude": 41.07833,
        "longitude": 36.0425
    },
    {
        "name": "Ladik",
        "latitude": 40.91056,
        "longitude": 35.89194
    },
    {
        "name": "Ondokuzmay\u0131s",
        "latitude": 41.51188,
        "longitude": 36.07298
    },
    {
        "name": "Sal\u0131pazar\u0131",
        "latitude": 41.09352,
        "longitude": 36.81718
    },
    {
        "name": "Tekkek\u00f6y",
        "latitude": 41.14493,
        "longitude": 36.46205
    },
    {
        "name": "Terme",
        "latitude": 41.20917,
        "longitude": 36.97389
    },
    {
        "name": "Vezirk\u00f6pr\u00fc",
        "latitude": 41.14361,
        "longitude": 35.45472
    },
    {
        "name": "Yakakent",
        "latitude": 41.6325,
        "longitude": 35.52889
    },
    {
        "name": "Ak\u00e7akale",
        "latitude": 36.71111,
        "longitude": 38.9475
    },
    {
        "name": "Birecik",
        "latitude": 37.02577,
        "longitude": 37.97841
    },
    {
        "name": "Bozova",
        "latitude": 37.3625,
        "longitude": 38.52667
    },
    {
        "name": "Ceylanp\u0131nar",
        "latitude": 36.84722,
        "longitude": 40.05
    },
    {
        "name": "Eyy\u00fcbiye",
        "latitude": 37.21434,
        "longitude": 38.79358
    },
    {
        "name": "Halfeti",
        "latitude": 37.24529,
        "longitude": 37.86874
    },
    {
        "name": "Haliliye",
        "latitude": 37.14144,
        "longitude": 38.79599
    },
    {
        "name": "Harran",
        "latitude": 36.86,
        "longitude": 39.03139
    },
    {
        "name": "Hilvan",
        "latitude": 37.58687,
        "longitude": 38.95505
    },
    {
        "name": "Karak\u00f6pr\u00fc",
        "latitude": 37.18029,
        "longitude": 38.81109
    },
    {
        "name": "Siverek",
        "latitude": 37.75503,
        "longitude": 39.31667
    },
    {
        "name": "Suru\u00e7",
        "latitude": 36.97612,
        "longitude": 38.42533
    },
    {
        "name": "Viran\u015fehir",
        "latitude": 37.22349,
        "longitude": 39.75519
    },
    {
        "name": "Baykan",
        "latitude": 38.15754,
        "longitude": 41.7733
    },
    {
        "name": "Eruh",
        "latitude": 37.74183,
        "longitude": 42.17422
    },
    {
        "name": "Kurtalan",
        "latitude": 37.92533,
        "longitude": 41.68493
    },
    {
        "name": "Merkez",
        "latitude": 37.9293,
        "longitude": 41.94134
    },
    {
        "name": "Pervari",
        "latitude": 37.93573,
        "longitude": 42.54927
    },
    {
        "name": "\u015eirvan",
        "latitude": 38.06251,
        "longitude": 42.02517
    },
    {
        "name": "Tillo",
        "latitude": 37.94911,
        "longitude": 42.0121
    },
    {
        "name": "Ayanc\u0131k",
        "latitude": 41.95,
        "longitude": 34.583333
    },
    {
        "name": "Boyabat",
        "latitude": 41.46889,
        "longitude": 34.76667
    },
    {
        "name": "Dikmen",
        "latitude": 41.66,
        "longitude": 35.27055556
    },
    {
        "name": "Dura\u011fan",
        "latitude": 41.42555556,
        "longitude": 35.05777778
    },
    {
        "name": "Erfelek",
        "latitude": 41.87926,
        "longitude": 34.91838
    },
    {
        "name": "Gerze",
        "latitude": 41.81,
        "longitude": 35.19027778
    },
    {
        "name": "Merkez",
        "latitude": 41.91835,
        "longitude": 35.00687
    },
    {
        "name": "Sarayd\u00fcz\u00fc",
        "latitude": 41.33722222,
        "longitude": 34.85361111
    },
    {
        "name": "T\u00fcrkeli",
        "latitude": 41.94777778,
        "longitude": 34.33861111
    },
    {
        "name": "Ak\u0131nc\u0131lar",
        "latitude": 40.07172,
        "longitude": 38.3433
    },
    {
        "name": "Alt\u0131nyayla",
        "latitude": 39.27249,
        "longitude": 36.75098
    },
    {
        "name": "Divri\u011fi",
        "latitude": 39.371,
        "longitude": 38.1137
    },
    {
        "name": "Do\u011fan\u015far",
        "latitude": 40.20841,
        "longitude": 37.53123
    },
    {
        "name": "Gemerek",
        "latitude": 39.18342,
        "longitude": 36.07189
    },
    {
        "name": "G\u00f6lova",
        "latitude": 40.06194,
        "longitude": 38.60667
    },
    {
        "name": "G\u00fcr\u00fcn",
        "latitude": 38.72225,
        "longitude": 37.27097
    },
    {
        "name": "Hafik",
        "latitude": 39.85639,
        "longitude": 37.38639
    },
    {
        "name": "\u0130mranl\u0131",
        "latitude": 39.87544,
        "longitude": 38.11358
    },
    {
        "name": "Kangal",
        "latitude": 39.23354,
        "longitude": 37.39111
    },
    {
        "name": "Koyulhisar",
        "latitude": 40.30184,
        "longitude": 37.82336
    },
    {
        "name": "Merkez",
        "latitude": 39.71613,
        "longitude": 36.97695
    },
    {
        "name": "\u015eark\u0131\u015fla",
        "latitude": 39.35186,
        "longitude": 36.40976
    },
    {
        "name": "Su\u015fehri",
        "latitude": 40.16005,
        "longitude": 38.08413
    },
    {
        "name": "Ula\u015f",
        "latitude": 39.44492,
        "longitude": 37.039
    },
    {
        "name": "Y\u0131ld\u0131zeli",
        "latitude": 39.87601,
        "longitude": 36.60652
    },
    {
        "name": "Zara",
        "latitude": 39.82406,
        "longitude": 37.77499
    },
    {
        "name": "Beyt\u00fc\u015f\u015febap",
        "latitude": 37.57144,
        "longitude": 43.16515
    },
    {
        "name": "Cizre",
        "latitude": 37.33024,
        "longitude": 42.18484
    },
    {
        "name": "G\u00fc\u00e7l\u00fckonak",
        "latitude": 37.47133,
        "longitude": 41.91298
    },
    {
        "name": "\u0130dil",
        "latitude": 37.33481,
        "longitude": 41.88944
    },
    {
        "name": "Merkez",
        "latitude": 37.51393,
        "longitude": 42.45432
    },
    {
        "name": "Silopi",
        "latitude": 37.24379,
        "longitude": 42.46345
    },
    {
        "name": "Uludere",
        "latitude": 37.44074,
        "longitude": 42.85236
    },
    {
        "name": "\u00c7erkezk\u00f6y",
        "latitude": 41.28616,
        "longitude": 27.99969
    },
    {
        "name": "\u00c7orlu",
        "latitude": 41.15917,
        "longitude": 27.8
    },
    {
        "name": "Ergene",
        "latitude": 40.85953,
        "longitude": 27.27081
    },
    {
        "name": "Hayrabolu",
        "latitude": 41.21311,
        "longitude": 27.10688
    },
    {
        "name": "Kapakl\u0131",
        "latitude": 41.32912,
        "longitude": 27.98064
    },
    {
        "name": "Malkara",
        "latitude": 40.89,
        "longitude": 26.90111
    },
    {
        "name": "Marmaraere\u011flisi",
        "latitude": 40.97003,
        "longitude": 27.95528
    },
    {
        "name": "Muratl\u0131",
        "latitude": 41.18345,
        "longitude": 27.51454
    },
    {
        "name": "Saray",
        "latitude": 41.44431,
        "longitude": 27.92194
    },
    {
        "name": "\u015eark\u00f6y",
        "latitude": 40.62513,
        "longitude": 27.10069
    },
    {
        "name": "S\u00fcleymanpa\u015fa",
        "latitude": 40.9799,
        "longitude": 27.30377
    },
    {
        "name": "Almus",
        "latitude": 40.37583,
        "longitude": 36.90444
    },
    {
        "name": "Artova",
        "latitude": 40.11578,
        "longitude": 36.3001
    },
    {
        "name": "Ba\u015f\u00e7iftlik",
        "latitude": 40.54694,
        "longitude": 37.16917
    },
    {
        "name": "Erbaa",
        "latitude": 40.7139,
        "longitude": 36.59364
    },
    {
        "name": "Merkez",
        "latitude": 40.31389,
        "longitude": 36.55444
    },
    {
        "name": "Niksar",
        "latitude": 40.60509,
        "longitude": 36.97174
    },
    {
        "name": "Pazar",
        "latitude": 40.27652,
        "longitude": 36.28347
    },
    {
        "name": "Re\u015fadiye",
        "latitude": 40.43284,
        "longitude": 37.37652
    },
    {
        "name": "Sulusaray",
        "latitude": 39.99389,
        "longitude": 36.08404
    },
    {
        "name": "Turhal",
        "latitude": 40.3875,
        "longitude": 36.08111
    },
    {
        "name": "Ye\u015filyurt",
        "latitude": 39.99916,
        "longitude": 36.23479
    },
    {
        "name": "Zile",
        "latitude": 40.30306,
        "longitude": 35.88639
    },
    {
        "name": "Ak\u00e7aabat",
        "latitude": 41.0197,
        "longitude": 39.56293
    },
    {
        "name": "Arakl\u0131",
        "latitude": 40.74,
        "longitude": 39.96
    },
    {
        "name": "Arsin",
        "latitude": 40.86743,
        "longitude": 39.92938
    },
    {
        "name": "Be\u015fikd\u00fcz\u00fc",
        "latitude": 41.05202,
        "longitude": 39.23294
    },
    {
        "name": "\u00c7ar\u015f\u0131ba\u015f\u0131",
        "latitude": 41.04203,
        "longitude": 39.40035
    },
    {
        "name": "\u00c7aykara",
        "latitude": 40.74267,
        "longitude": 40.23175
    },
    {
        "name": "Dernekpazar\u0131",
        "latitude": 40.79658,
        "longitude": 40.2446
    },
    {
        "name": "D\u00fczk\u00f6y",
        "latitude": 40.87461,
        "longitude": 39.41536
    },
    {
        "name": "Hayrat",
        "latitude": 40.8853,
        "longitude": 40.36495
    },
    {
        "name": "K\u00f6pr\u00fcba\u015f\u0131",
        "latitude": 40.80692,
        "longitude": 40.11439
    },
    {
        "name": "Ma\u00e7ka",
        "latitude": 40.72127,
        "longitude": 39.59786
    },
    {
        "name": "Of",
        "latitude": 40.94055,
        "longitude": 40.25918
    },
    {
        "name": "Ortahisar",
        "latitude": 40.88029,
        "longitude": 39.88998
    },
    {
        "name": "\u015ealpazar\u0131",
        "latitude": 40.93826,
        "longitude": 39.19006
    },
    {
        "name": "S\u00fcrmene",
        "latitude": 40.90588,
        "longitude": 40.12792
    },
    {
        "name": "Tonya",
        "latitude": 40.88402,
        "longitude": 39.28486
    },
    {
        "name": "Vakf\u0131kebir",
        "latitude": 41.04583,
        "longitude": 39.27639
    },
    {
        "name": "Yomra",
        "latitude": 40.95326,
        "longitude": 39.85546
    },
    {
        "name": "\u00c7emi\u015fgezek",
        "latitude": 39.06234,
        "longitude": 38.914
    },
    {
        "name": "Hozat",
        "latitude": 39.10029,
        "longitude": 39.20816
    },
    {
        "name": "Mazgirt",
        "latitude": 39.01783,
        "longitude": 39.60064
    },
    {
        "name": "Merkez",
        "latitude": 39.17114,
        "longitude": 39.5557
    },
    {
        "name": "Naz\u0131miye",
        "latitude": 39.17952,
        "longitude": 39.82805
    },
    {
        "name": "Ovac\u0131k",
        "latitude": 39.35259,
        "longitude": 39.2089
    },
    {
        "name": "Pertek",
        "latitude": 38.86574,
        "longitude": 39.32273
    },
    {
        "name": "P\u00fcl\u00fcm\u00fcr",
        "latitude": 39.48662,
        "longitude": 39.89874
    },
    {
        "name": "Banaz",
        "latitude": 38.73707,
        "longitude": 29.75194
    },
    {
        "name": "E\u015fme",
        "latitude": 38.39976,
        "longitude": 28.96905
    },
    {
        "name": "Karahall\u0131",
        "latitude": 38.32083,
        "longitude": 29.53028
    },
    {
        "name": "Merkez",
        "latitude": 38.68463,
        "longitude": 29.29455
    },
    {
        "name": "Sivasl\u0131",
        "latitude": 38.49944,
        "longitude": 29.68361
    },
    {
        "name": "Ulubey",
        "latitude": 38.41987,
        "longitude": 29.29129
    },
    {
        "name": "Bah\u00e7esaray",
        "latitude": 38.1246,
        "longitude": 42.79825
    },
    {
        "name": "Ba\u015fkale",
        "latitude": 38.04526,
        "longitude": 44.01718
    },
    {
        "name": "\u00c7ald\u0131ran",
        "latitude": 39.14317,
        "longitude": 43.91068
    },
    {
        "name": "\u00c7atak",
        "latitude": 38.0078,
        "longitude": 43.06195
    },
    {
        "name": "Edremit",
        "latitude": 38.37889,
        "longitude": 43.29717
    },
    {
        "name": "Erci\u015f",
        "latitude": 39.15123,
        "longitude": 43.33705
    },
    {
        "name": "Geva\u015f",
        "latitude": 38.2921,
        "longitude": 43.10189
    },
    {
        "name": "G\u00fcrp\u0131nar",
        "latitude": 38.32372,
        "longitude": 43.40991
    },
    {
        "name": "\u0130pekyolu",
        "latitude": 38.49041,
        "longitude": 43.3469
    },
    {
        "name": "Muradiye",
        "latitude": 38.97889,
        "longitude": 43.75374
    },
    {
        "name": "\u00d6zalp",
        "latitude": 38.65455,
        "longitude": 43.98869
    },
    {
        "name": "Saray",
        "latitude": 38.64691,
        "longitude": 44.16116
    },
    {
        "name": "Tu\u015fba",
        "latitude": 38.521178,
        "longitude": 43.349093
    },
    {
        "name": "Alt\u0131nova",
        "latitude": 40.69495,
        "longitude": 29.50986
    },
    {
        "name": "Armutlu",
        "latitude": 40.52919,
        "longitude": 28.83871
    },
    {
        "name": "\u00c7iftlikk\u00f6y",
        "latitude": 40.66028,
        "longitude": 29.32361
    },
    {
        "name": "\u00c7\u0131narc\u0131k",
        "latitude": 40.64538,
        "longitude": 29.1245
    },
    {
        "name": "Merkez",
        "latitude": 40.65501,
        "longitude": 29.27693
    },
    {
        "name": "Termal",
        "latitude": 40.61381,
        "longitude": 29.18049
    },
    {
        "name": "Akda\u011fmadeni",
        "latitude": 39.66028,
        "longitude": 35.88361
    },
    {
        "name": "Ayd\u0131nc\u0131k",
        "latitude": 40.12727,
        "longitude": 35.28765
    },
    {
        "name": "Bo\u011fazl\u0131yan",
        "latitude": 39.19627,
        "longitude": 35.2542
    },
    {
        "name": "\u00c7and\u0131r",
        "latitude": 39.25445,
        "longitude": 35.52284
    },
    {
        "name": "\u00c7ay\u0131ralan",
        "latitude": 39.30278,
        "longitude": 35.64389
    },
    {
        "name": "\u00c7ekerek",
        "latitude": 40.07306,
        "longitude": 35.49472
    },
    {
        "name": "Kad\u0131\u015fehri",
        "latitude": 39.99568,
        "longitude": 35.79193
    },
    {
        "name": "Merkez",
        "latitude": 39.82,
        "longitude": 34.80444
    },
    {
        "name": "Saraykent",
        "latitude": 39.69361,
        "longitude": 35.51111
    },
    {
        "name": "Sar\u0131kaya",
        "latitude": 39.49361,
        "longitude": 35.37694
    },
    {
        "name": "\u015eefaatli",
        "latitude": 39.5008,
        "longitude": 34.76388
    },
    {
        "name": "Sorgun",
        "latitude": 39.81012,
        "longitude": 35.18596
    },