[
    {
        "name": "Алейск",
        "latitude": 45.10759,
        "longitude": 35.10139
    },
    {
        "name": "Абрикосово",
        "latitude": 45.69236,
        "longitude": 34.10156
    },
    {
        "name": "Аэрофлотский",
        "latitude": 45.01816,
        "longitude": 33.99961
    },
    {
        "name": "Аграрное",
        "latitude": 45.01596,
        "longitude": 34.05725
    },
    {
        "name": "Акимовка",
        "latitude": 45.51981,
        "longitude": 34.82438
    },
    {
        "name": "Александровка",
        "latitude": 45.57654,
        "longitude": 34.09947
    },
    {
        "name": "Алексеевка",
        "latitude": 45.58194,
        "longitude": 33.6298
    },
    {
        "name": "Алупка",
        "latitude": 44.41808,
        "longitude": 34.04531
    },
    {
        "name": "Алушта",
        "latitude": 44.67728,
        "longitude": 34.4097
    },
    {
        "name": "Амурское",
        "latitude": 45.27822,
        "longitude": 34.12823
    },
    {
        "name": "Армянск",
        "latitude": 46.10919,
        "longitude": 33.69206
    },
    {
        "name": "Ароматное",
        "latitude": 45.03678,
        "longitude": 34.39921
    },
    {
        "name": "Азовское",
        "latitude": 45.58604,
        "longitude": 34.5668
    },
    {
        "name": "Бахерово",
        "latitude": 45.37417,
        "longitude": 36.29705
    },
    {
        "name": "Бахчисарай",
        "latitude": 44.75525,
        "longitude": 33.85782
    },
    {
        "name": "Бахчисарайский район",
        "latitude": 44.75002,
        "longitude": 33.8633
    },
    {
        "name": "Батальное",
        "latitude": 45.19402,
        "longitude": 35.61583
    },
    {
        "name": "Белинское",
        "latitude": 45.37465,
        "longitude": 36.08212
    },
    {
        "name": "Белоглинка",
        "latitude": 44.9949,
        "longitude": 34.04167
    },
    {
        "name": "Белогорский район",
        "latitude": 45.063,
        "longitude": 34.55675
    },
    {
        "name": "Береговое",
        "latitude": 45.0947,
        "longitude": 35.43385
    },
    {
        "name": "Березовка",
        "latitude": 45.57471,
        "longitude": 33.34397
    },
    {
        "name": "Белогорск",
        "latitude": 45.05462,
        "longitude": 34.60185
    },
    {
        "name": "Ближнее",
        "latitude": 45.05694,
        "longitude": 35.33056
    },
    {
        "name": "Богатое",
        "latitude": 45.02933,
        "longitude": 34.76732
    },
    {
        "name": "Ботаническое",
        "latitude": 45.78656,
        "longitude": 33.54856
    },
    {
        "name": "Братское",
        "latitude": 45.8317,
        "longitude": 33.92151
    },
    {
        "name": "Чапаевка",
        "latitude": 45.28119,
        "longitude": 34.89428
    },
    {
        "name": "Чайкино",
        "latitude": 45.08223,
        "longitude": 34.08673
    },
    {
        "name": "Челядиново",
        "latitude": 45.20729,
        "longitude": 36.3762
    },
    {
        "name": "Черноморский район",
        "latitude": 45.48798,
        "longitude": 32.92614
    },
    {
        "name": "Черноморское",
        "latitude": 45.50657,
        "longitude": 32.69776
    },
    {
        "name": "Чернополье",
        "latitude": 45.04399,
        "longitude": 34.63916
    },
    {
        "name": "Черново",
        "latitude": 45.50833,
        "longitude": 33.93397
    },
    {
        "name": "Черноземное",
        "latitude": 45.40808,
        "longitude": 34.8199
    },
    {
        "name": "Чернышево",
        "latitude": 45.78202,
        "longitude": 33.42825
    },
    {
        "name": "Червоное",
        "latitude": 45.12294,
        "longitude": 33.68662
    },
    {
        "name": "Чистенькое",
        "latitude": 44.88152,
        "longitude": 34.04716
    },
    {
        "name": "Чистополье",
        "latitude": 45.36541,
        "longitude": 36.18312
    },
    {
        "name": "Чкалово",
        "latitude": 45.60474,
        "longitude": 34.83395
    },
    {
        "name": "Дачное",
        "latitude": 44.88448,
        "longitude": 34.98333
    },
    {
        "name": "Далекое",
        "latitude": 45.66006,
        "longitude": 33.08059
    },
    {
        "name": "Дмитровка",
        "latitude": 45.48411,
        "longitude": 35.0588
    },
    {
        "name": "Днепровка",
        "latitude": 45.71373,
        "longitude": 34.36256
    },
    {
        "name": "Доброе",
        "latitude": 44.86632,
        "longitude": 34.22661
    },
    {
        "name": "Добрушино",
        "latitude": 45.37441,
        "longitude": 33.36547
    },
    {
        "name": "Долинное",
        "latitude": 44.7532,
        "longitude": 33.77766
    },
    {
        "name": "Донское",
        "latitude": 45.04509,
        "longitude": 34.21413
    },
    {
        "name": "Дрофино",
        "latitude": 45.28629,
        "longitude": 34.61589
    },
    {
        "name": "Дубки",
        "latitude": 44.93581,
        "longitude": 34.02355
    },
    {
        "name": "Джанкой",
        "latitude": 45.71168,
        "longitude": 34.39274
    },
    {
        "name": "Джанкойский район",
        "latitude": 45.78706,
        "longitude": 34.39197
    },
    {
        "name": "Феодосия",
        "latitude": 45.03677,
        "longitude": 35.37789
    },
    {
        "name": "Филатовка",
        "latitude": 46.08192,
        "longitude": 33.7851
    },
    {
        "name": "Фонтани",
        "latitude": 44.89717,
        "longitude": 34.07297
    },
    {
        "name": "Форос",
        "latitude": 44.39214,
        "longitude": 33.78798
    },
    {
        "name": "Фрунзе",
        "latitude": 45.02688,
        "longitude": 33.62956
    },
    {
        "name": "Гаспра",
        "latitude": 44.43364,
        "longitude": 34.10297
    },
    {
        "name": "Геройское",
        "latitude": 45.13857,
        "longitude": 33.74675
    },
    {
        "name": "Глазовка",
        "latitude": 45.38792,
        "longitude": 36.57965
    },
    {
        "name": "Голубинка",
        "latitude": 44.59382,
        "longitude": 33.91521
    },
    {
        "name": "Горностаевка",
        "latitude": 45.27819,
        "longitude": 36.18601
    },
    {
        "name": "Городской округ Алушта",
        "latitude": 44.67256,
        "longitude": 34.41467
    },
    {
        "name": "Городской округ Армянск",
        "latitude": 46.10871,
        "longitude": 33.69095
    },
    {
        "name": "Городской округ Джанкой",
        "latitude": 45.7081,
        "longitude": 34.39407
    },
    {
        "name": "Городской округ Феодосия",
        "latitude": 45.04612,
        "longitude": 35.37289
    },
    {
        "name": "Городской округ Красноперекопск",
        "latitude": 45.9533,
        "longitude": 33.79669
    },
    {
        "name": "Городской округ Саки",
        "latitude": 45.1278,
        "longitude": 33.60134
    },
    {
        "name": "Городской округ Симферополь",
        "latitude": 44.94803,
        "longitude": 34.10912
    },
    {
        "name": "Городской округ Судак",
        "latitude": 44.91667,
        "longitude": 35.00202
    },
    {
        "name": "Городской округ Ялта",
        "latitude": 44.49638,
        "longitude": 34.16336
    },
    {
        "name": "Городской округ Евпатория",
        "latitude": 45.19559,
        "longitude": 33.36342
    },
    {
        "name": "Гресовский",
        "latitude": 45.00804,
        "longitude": 34.02657
    },
    {
        "name": "Grishino",
        "latitude": 45.64219,
        "longitude": 33.83098
    },
    {
        "name": "Грушевка",
        "latitude": 45.02281,
        "longitude": 34.97301
    },
    {
        "name": "Гурзуф",
        "latitude": 44.54624,
        "longitude": 34.27841
    },
    {
        "name": "Гвардейское",
        "latitude": 45.11692,
        "longitude": 34.02188
    },
    {
        "name": "Ильичёво",
        "latitude": 45.28348,
        "longitude": 35.73864
    },
    {
        "name": "Ильичево",
        "latitude": 45.24524,
        "longitude": 35.07127
    },
    {
        "name": "Ильинка",
        "latitude": 45.81784,
        "longitude": 33.79482
    },
    {
        "name": "Ишунь",
        "latitude": 45.92403,
        "longitude": 33.82364
    },
    {
        "name": "Ивановка",
        "latitude": 45.072,
        "longitude": 33.6613
    },
    {
        "name": "Изобильное",
        "latitude": 44.70276,
        "longitude": 34.35357
    },
    {
        "name": "Изумрудное",
        "latitude": 45.73704,
        "longitude": 34.41299
    },
    {
        "name": "Изюмовка",
        "latitude": 45.04437,
        "longitude": 35.13717
    },
    {
        "name": "Калинино",
        "latitude": 45.59521,
        "longitude": 34.2203
    },
    {
        "name": "Калиновка",
        "latitude": 45.31658,
        "longitude": 35.74643
    },
    {
        "name": "Каменоломня",
        "latitude": 45.24804,
        "longitude": 33.41773
    },
    {
        "name": "Каштановое",
        "latitude": 44.8321,
        "longitude": 34.05912
    },
    {
        "name": "Каштаны",
        "latitude": 44.8676,
        "longitude": 33.78995
    },
    {
        "name": "Керчь",
        "latitude": 45.3531,
        "longitude": 36.47429
    },
    {
        "name": "Керченская Миська Рада",
        "latitude": 45.35307,
        "longitude": 36.47414
    },
    {
        "name": "Холмовка",
        "latitude": 44.6583,
        "longitude": 33.75456
    },
    {
        "name": "Кирово",
        "latitude": 45.22106,
        "longitude": 35.84227
    },
    {
        "name": "Кировский район",
        "latitude": 45.15522,
        "longitude": 35.17696
    },
    {
        "name": "Кировское",
        "latitude": 45.22967,
        "longitude": 35.19987
    },
    {
        "name": "Клепинино",
        "latitude": 45.528,
        "longitude": 34.18315
    },
    {
        "name": "Коктебель",
        "latitude": 44.96155,
        "longitude": 35.2466
    },
    {
        "name": "Кольчугино",
        "latitude": 44.94367,
        "longitude": 33.78865
    },
    {
        "name": "Кольцово",
        "latitude": 45.32807,
        "longitude": 33.44992
    },
    {
        "name": "Колодезное",
        "latitude": 45.22682,
        "longitude": 34.33698
    },
    {
        "name": "Колоски",
        "latitude": 45.26936,
        "longitude": 33.29386
    },
    {
        "name": "Комсомольское",
        "latitude": 45.019,
        "longitude": 34.03049
    },
    {
        "name": "Кондратьево",
        "latitude": 45.63125,
        "longitude": 34.47387
    },
    {
        "name": "Константиновка",
        "latitude": 44.85511,
        "longitude": 34.12069
    },
    {
        "name": "Koreiz",
        "latitude": 44.43374,
        "longitude": 34.08516
    },
    {
        "name": "Кормовое",
        "latitude": 45.50001,
        "longitude": 33.61192
    },
    {
        "name": "Косточковка",
        "latitude": 45.31747,
        "longitude": 34.67418
    },
    {
        "name": "Котельниково",
        "latitude": 45.36584,
        "longitude": 34.02575
    },
    {
        "name": "Ковыльное",
        "latitude": 45.69028,
        "longitude": 33.52775
    },
    {
        "name": "Красна Зорка",
        "latitude": 45.13432,
        "longitude": 34.04015
    },
    {
        "name": "Красная Поляна",
        "latitude": 45.48241,
        "longitude": 32.9379
    },
    {
        "name": "Красноармейское",
        "latitude": 45.99103,
        "longitude": 34.03037
    },
    {
        "name": "Краснофлотское",
        "latitude": 45.31572,
        "longitude": 34.94756
    },
    {
        "name": "Красногорка",
        "latitude": 45.24513,
        "longitude": 35.80739
    },
    {
        "name": "Красногвардейское",
        "latitude": 45.50271,
        "longitude": 34.30134
    },
    {
        "name": "Красногвардейский район",
        "latitude": 45.4023,
        "longitude": 34.25464
    },
    {
        "name": "Краснокаменка",
        "latitude": 44.56383,
        "longitude": 34.28877
    },
    {
        "name": "Краснолесье",
        "latitude": 44.83259,
        "longitude": 34.23086
    },
    {
        "name": "Красноперекопск",
        "latitude": 45.95716,
        "longitude": 33.7965
    },
    {
        "name": "Красноперекопский район",
        "latitude": 45.96992,
        "longitude": 33.8799
    },
    {
        "name": "Красноярское",
        "latitude": 45.50661,
        "longitude": 33.26641
    },
    {
        "name": "Красное",
        "latitude": 45.13999,
        "longitude": 34.09452
    },
    {
        "name": "Краснознаменка",
        "latitude": 45.28676,
        "longitude": 34.00036
    },
    {
        "name": "Красный Мак",
        "latitude": 44.64218,
        "longitude": 33.7813
    },
    {
        "name": "Крайней",
        "latitude": 45.22993,
        "longitude": 33.83239
    },
    {
        "name": "Крестьяновка",
        "latitude": 45.72268,
        "longitude": 33.93938
    },
    {
        "name": "Криничное",
        "latitude": 45.02428,
        "longitude": 34.61202
    },
    {
        "name": "Крымка",
        "latitude": 45.70453,
        "longitude": 34.18782
    },
    {
        "name": "Крымская Роза",
        "latitude": 45.05776,
        "longitude": 34.35631
    },
    {
        "name": "Крымское",
        "latitude": 45.18836,
        "longitude": 33.80106
    },
    {
        "name": "Куйбышево",
        "latitude": 44.629,
        "longitude": 33.86895
    },
    {
        "name": "Кукушкино",
        "latitude": 45.71924,
        "longitude": 33.3903
    },
    {
        "name": "Курское",
        "latitude": 45.02908,
        "longitude": 34.93623
    },
    {
        "name": "Льговское",
        "latitude": 45.09801,
        "longitude": 34.9577
    },
    {
        "name": "Лекарственное",
        "latitude": 44.94194,
        "longitude": 33.82229
    },
    {
        "name": "Ленинский район",
        "latitude": 45.24693,
        "longitude": 36.0054
    },
    {
        "name": "Ленино",
        "latitude": 45.29857,
        "longitude": 35.77708
    },
    {
        "name": "Ленинское",
        "latitude": 45.26844,
        "longitude": 34.05023
    },
    {
        "name": "Лесновка",
        "latitude": 45.1535,
        "longitude": 33.61889
    },
    {
        "name": "Левадки",
        "latitude": 44.87083,
        "longitude": 34.04278
    },
    {
        "name": "Лиственное",
        "latitude": 45.48086,
        "longitude": 34.81087
    },
    {
        "name": "Литвиненково",
        "latitude": 45.08648,
        "longitude": 34.31107
    },
    {
        "name": "Ливадия",
        "latitude": 44.47021,
        "longitude": 34.14272
    },
    {
        "name": "Лобаново",
        "latitude": 45.77552,
        "longitude": 34.24236
    },
    {
        "name": "Лозовое",
        "latitude": 44.906,
        "longitude": 34.16414
    },
    {
        "name": "Лучистое",
        "latitude": 44.73646,
        "longitude": 34.40063
    },
    {
        "name": "Луганское",
        "latitude": 45.8019,
        "longitude": 34.23786
    },
    {
        "name": "Луговое",
        "latitude": 45.23469,
        "longitude": 35.72202
    },
    {
        "name": "Магазинка",
        "latitude": 45.86312,
        "longitude": 34.04969
    },
    {
        "name": "Маленькое",
        "latitude": 45.07585,
        "longitude": 33.99942
    },
    {
        "name": "Малореченское",
        "latitude": 44.75888,
        "longitude": 34.55789
    },
    {
        "name": "Малый Маяк",
        "latitude": 44.61356,
        "longitude": 34.36469
    },
    {
        "name": "Марьяновка",
        "latitude": 45.44627,
        "longitude": 34.29474
    },
    {
        "name": "Марфовка",
        "latitude": 45.19853,
        "longitude": 36.09144
    },
    {
        "name": "Марьевка",
        "latitude": 45.1133,
        "longitude": 36.23992
    },
    {
        "name": "Маслово",
        "latitude": 45.79197,
        "longitude": 34.36298
    },
    {
        "name": "Массандра",
        "latitude": 44.50958,
        "longitude": 34.18817
    },
    {
        "name": "Майское",
        "latitude": 45.59555,
        "longitude": 34.55213
    },
    {
        "name": "Мазанка",
        "latitude": 45.0055,
        "longitude": 34.25581
    },
    {
        "name": "Медведевка",
        "latitude": 45.88389,
        "longitude": 34.55562
    },
    {
        "name": "Медведево",
        "latitude": 45.38597,
        "longitude": 33.004
    },
    {
        "name": "Мельничное",
        "latitude": 45.19885,
        "longitude": 34.42012
    },
    {
        "name": "Межводное",
        "latitude": 45.58751,
        "longitude": 32.84501
    },
    {
        "name": "Мичуринское",
        "latitude": 45.0743,
        "longitude": 34.70672
    },
    {
        "name": "Михайловка",
        "latitude": 45.11325,
        "longitude": 33.61071
    },
    {
        "name": "Мирновка",
        "latitude": 45.69083,
        "longitude": 34.30966
    },
    {
        "name": "Мирное",
        "latitude": 44.9833,
        "longitude": 34.0616
    },
    {
        "name": "Мирный",
        "latitude": 45.30788,
        "longitude": 33.03501
    },
    {
        "name": "Митрофановка",
        "latitude": 45.45114,
        "longitude": 34.67883
    },
    {
        "name": "Митяево",
        "latitude": 45.23423,
        "longitude": 33.7015
    },
    {
        "name": "Молочное",
        "latitude": 45.1996,
        "longitude": 33.22233
    },
    {
        "name": "Молодёжное",
        "latitude": 45.00354,
        "longitude": 34.05634
    },
    {
        "name": "Морское",
        "latitude": 44.82593,
        "longitude": 34.80314
    },
    {
        "name": "Муромское",
        "latitude": 45.09051,
        "longitude": 34.849
    },
    {
        "name": "Мускатное",
        "latitude": 45.46586,
        "longitude": 34.54316
    },
    {
        "name": "Мысовое",
        "latitude": 45.44788,
        "longitude": 35.83528
    },
    {
        "name": "Насыпное",
        "latitude": 45.05285,
        "longitude": 35.29415
    },
    {
        "name": "Найденовка",
        "latitude": 45.27088,
        "longitude": 34.44898
    },
    {
        "name": "Некрасовка",
        "latitude": 45.44085,
        "longitude": 34.98584
    },
    {
        "name": "Некрасово",
        "latitude": 45.42453,
        "longitude": 34.28545
    },
    {
        "name": "Никита",
        "latitude": 44.51564,
        "longitude": 34.2384
    },
    {
        "name": "Николаевка",
        "latitude": 44.96213,
        "longitude": 33.61061
    },
    {
        "name": "Нижнегорский",
        "latitude": 45.44789,
        "longitude": 34.73839
    },
    {
        "name": "Нижнегорский район",
        "latitude": 45.4843,
        "longitude": 34.76798
    },
    {
        "name": "Новоандреевка",
        "latitude": 45.19904,
        "longitude": 34.09384
    },
    {
        "name": "Новоэстония",
        "latitude": 45.4996,
        "longitude": 34.24298
    },
    {
        "name": "Новофедоровка",
        "latitude": 45.09473,
        "longitude": 33.57211
    },
    {
        "name": "Новогригорьевка",
        "latitude": 45.452,
        "longitude": 34.60378
    },
    {
        "name": "Новоивановка",
        "latitude": 45.44914,
        "longitude": 33.09833
    },
    {
        "name": "Новокрымское",
        "latitude": 45.78007,
        "longitude": 34.15543
    },
    {
        "name": "Новониколаевка",
        "latitude": 45.30855,
        "longitude": 36.05749
    },
    {
        "name": "Новоозёрное",
        "latitude": 45.38314,
        "longitude": 33.11715
    },
    {
        "name": "Новопавловка",
        "latitude": 45.86634,
        "longitude": 33.89018
    },
    {
        "name": "Новопокровка",
        "latitude": 45.16517,
        "longitude": 35.25304
    },
    {
        "name": "Новосельское",
        "latitude": 45.50357,
        "longitude": 32.7225
    },
    {
        "name": "Новоселовское",
        "latitude": 45.44276,
        "longitude": 33.59795
    },
    {
        "name": "Новостепное",
        "latitude": 45.66206,
        "longitude": 34.387
    },
    {
        "name": "Новоселовка",
        "latitude": 44.99377,
        "longitude": 33.83525
    },
    {
        "name": "Новожиловка",
        "latitude": 45.1596,
        "longitude": 34.2327
    },
    {
        "name": "Новый Свет",
        "latitude": 44.83087,
        "longitude": 34.9137
    },
    {
        "name": "Охотниково",
        "latitude": 45.23985,
        "longitude": 33.59405
    },
    {
        "name": "Охотское",
        "latitude": 45.48612,
        "longitude": 34.86401
    },
    {
        "name": "Октябрьское",
        "latitude": 45.36215,
        "longitude": 36.36803
    },
    {
        "name": "Октябрьское",
        "latitude": 45.28866,
        "longitude": 34.13521
    },
    {
        "name": "Окуневка",
        "latitude": 45.36855,
        "longitude": 32.76357
    },
    {
        "name": "Оленевка",
        "latitude": 45.38333,
        "longitude": 32.53333
    },
    {
        "name": "Орджоникидзе",
        "latitude": 44.96401,
        "longitude": 35.35576
    },
    {
        "name": "Орехово",
        "latitude": 45.12944,
        "longitude": 33.6318
    },
    {
        "name": "Орловское",
        "latitude": 45.8107,
        "longitude": 33.97308
    },
    {
        "name": "Останино",
        "latitude": 45.32731,
        "longitude": 35.91295
    },
    {
        "name": "Островское",
        "latitude": 45.74232,
        "longitude": 34.06607
    },
    {
        "name": "Пахаревка",
        "latitude": 45.83472,
        "longitude": 34.16129
    },
    {
        "name": "Партенит",
        "latitude": 44.578,
        "longitude": 34.34464
    },
    {
        "name": "Партизанское",
        "latitude": 44.83379,
        "longitude": 34.08465
    },
    {
        "name": "Партизаны",
        "latitude": 45.14373,
        "longitude": 35.15509
    },
    {
        "name": "Перевальное",
        "latitude": 44.84838,
        "longitude": 34.31271
    },
    {
        "name": "Перово",
        "latitude": 44.92513,
        "longitude": 34.05753
    },
    {
        "name": "Первомайский район",
        "latitude": 45.59825,
        "longitude": 33.83249
    },
    {
        "name": "Первомайское",
        "latitude": 45.71744,
        "longitude": 33.85596
    },
    {
        "name": "Песчаное",
        "latitude": 44.84342,
        "longitude": 33.60921
    },
    {
        "name": "Петровка",
        "latitude": 45.49776,
        "longitude": 34.28816
    },
    {
        "name": "Пионерское",
        "latitude": 44.88083,
        "longitude": 34.20194
    },
    {
        "name": "Плодовое",
        "latitude": 44.87156,
        "longitude": 33.85615
    },
    {
        "name": "Победное",
        "latitude": 45.70109,
        "longitude": 34.44805
    },
    {
        "name": "Почетное",
        "latitude": 45.99495,
        "longitude": 33.76588
    },
    {
        "name": "Полтавка",
        "latitude": 45.35133,
        "longitude": 34.18371
    },
    {
        "name": "Почтовое",
        "latitude": 44.8354,
        "longitude": 33.96159
    },
    {
        "name": "Пожарское",
        "latitude": 44.93554,
        "longitude": 33.87109
    },
    {
        "name": "Правда",
        "latitude": 45.77903,
        "longitude": 33.84649
    },
    {
        "name": "Приморский",
        "latitude": 45.11904,
        "longitude": 35.48025
    },
    {
        "name": "Приозерное",
        "latitude": 45.2699,
        "longitude": 36.33405
    },
    {
        "name": "Приветное",
        "latitude": 45.11969,
        "longitude": 35.0596
    },
    {
        "name": "Просторное",
        "latitude": 45.65597,
        "longitude": 34.69837
    },
    {
        "name": "Прудовое",
        "latitude": 44.90424,
        "longitude": 33.78114
    },
    {
        "name": "Пруди",
        "latitude": 45.23922,
        "longitude": 34.70217
    },
    {
        "name": "Пшеничное",
        "latitude": 45.64627,
        "longitude": 34.83767
    },
    {
        "name": "Пушкино",
        "latitude": 45.20373,
        "longitude": 34.97642
    },
    {
        "name": "Пятихатка",
        "latitude": 45.32347,
        "longitude": 34.25516
    },
    {
        "name": "Раздольненский район",
        "latitude": 45.67086,
        "longitude": 33.44075
    },
    {
        "name": "Раздольное",
        "latitude": 45.77083,
        "longitude": 33.48777
    },
    {
        "name": "Родниково",
        "latitude": 45.04296,
        "longitude": 33.95407
    },
    {
        "name": "Ромашкино",
        "latitude": 45.25647,
        "longitude": 33.25517
    },
    {
        "name": "Рощино",
        "latitude": 45.60916,
        "longitude": 34.37992
    },
    {
        "name": "Роскошное",
        "latitude": 45.65187,
        "longitude": 34.11552
    },
    {
        "name": "Ровное",
        "latitude": 45.35134,
        "longitude": 34.3523
    },
    {
        "name": "Ручьи",
        "latitude": 45.78564,
        "longitude": 33.66093
    },
    {
        "name": "Русаковка",
        "latitude": 45.12369,
        "longitude": 34.47458
    },
    {
        "name": "Рыбачье",
        "latitude": 44.77331,
        "longitude": 34.59609
    },
    {
        "name": "Садовое",
        "latitude": 45.31037,
        "longitude": 34.6526
    },
    {
        "name": "Саки",
        "latitude": 45.13424,
        "longitude": 33.59996
    },
    {
        "name": "Сакский район",
        "latitude": 45.27799,
        "longitude": 33.52911
    },
    {
        "name": "Сары-Баш",
        "latitude": 45.57142,
        "longitude": 33.78728
    },
    {
        "name": "Семисотка",
        "latitude": 45.24676,
        "longitude": 35.565
    },
    {
        "name": "Сенокосное",
        "latitude": 45.73277,
        "longitude": 33.51552
    },
    {
        "name": "Серебрянка",
        "latitude": 45.63937,
        "longitude": 33.49632
    },
    {
        "name": "Щебетовка",
        "latitude": 44.93821,
        "longitude": 35.158
    },
    {
        "name": "Щелкино",
        "latitude": 45.42985,
        "longitude": 35.8225
    },
    {
        "name": "Шелковичное",
        "latitude": 45.18748,
        "longitude": 33.68807
    },
    {
        "name": "Широкое",
        "latitude": 45.20029,
        "longitude": 34.05069
    },
    {
        "name": "Школьное",
        "latitude": 45.05758,
        "longitude": 33.89737
    },
    {
        "name": "Штормовое",
        "latitude": 45.26717,
        "longitude": 33.08693
    },
    {
        "name": "Симеиз",
        "latitude": 44.40646,
        "longitude": 34.00704
    },
    {
        "name": "Симферополь",
        "latitude": 44.95719,
        "longitude": 34.11079
    },
    {
        "name": "Симферопольский район",
        "latitude": 44.9569,
        "longitude": 34.10225
    },
    {
        "name": "Синицыно",
        "latitude": 45.23862,
        "longitude": 35.24659
    },
    {
        "name": "Сизовка",
        "latitude": 45.34892,
        "longitude": 33.87669
    },
    {
        "name": "Скалистое",
        "latitude": 44.81686,
        "longitude": 33.97791
    },
    {
        "name": "Скворцово",
        "latitude": 45.07542,
        "longitude": 33.82084
    },
    {
        "name": "Славное",
        "latitude": 45.72176,
        "longitude": 33.23689
    },
    {
        "name": "Славянское",
        "latitude": 45.72768,
        "longitude": 33.32165
    },
    {
        "name": "Софиевка",
        "latitude": 45.08985,
        "longitude": 33.99887
    },
    {
        "name": "Соколиное",
        "latitude": 44.55041,
        "longitude": 33.95897
    },
    {
        "name": "Солнечная Долина",
        "latitude": 44.87185,
        "longitude": 35.10622
    },
    {
        "name": "Солнечногорское",
        "latitude": 44.74722,
        "longitude": 34.53999
    },
    {
        "name": "Солнечное",
        "latitude": 45.04767,
        "longitude": 34.0838
    },
    {
        "name": "Советский",
        "latitude": 45.34267,
        "longitude": 34.92463
    },
    {
        "name": "Советский район",
        "latitude": 45.31516,
        "longitude": 34.92914
    },
    {
        "name": "Совхозное",
        "latitude": 45.96005,
        "longitude": 33.77155
    },
    {
        "name": "Стахановка",
        "latitude": 45.37062,
        "longitude": 33.94883
    },
    {
        "name": "Стальное",
        "latitude": 45.70814,
        "longitude": 34.56238
    },
    {
        "name": "Старый Крым",
        "latitude": 45.02887,
        "longitude": 35.09174
    },
    {
        "name": "Степное",
        "latitude": 45.65212,
        "longitude": 33.77441
    },
    {
        "name": "Столбовое",
        "latitude": 45.3627,
        "longitude": 33.49584
    },
    {
        "name": "Строгоновка",
        "latitude": 44.9497,
        "longitude": 34.17924
    },
    {
        "name": "Судак",
        "latitude": 44.84924,
        "longitude": 34.97471
    },
    {
        "name": "Сусанино",
        "latitude": 45.49898,
        "longitude": 33.69854
    },
    {
        "name": "Суворово",
        "latitude": 46.08865,
        "longitude": 33.688
    },
    {
        "name": "Суворовское",
        "latitude": 45.25171,
        "longitude": 33.37194
    },
    {
        "name": "Светлое",
        "latitude": 45.6332,
        "longitude": 34.66264
    },
    {
        "name": "Табачное",
        "latitude": 44.90175,
        "longitude": 33.67638
    },
    {
        "name": "Танковое",
        "latitude": 44.65829,
        "longitude": 33.80929
    },
    {
        "name": "Тенистое",
        "latitude": 44.74303,
        "longitude": 33.66812
    },
    {
        "name": "Тепловка",
        "latitude": 45.03239,
        "longitude": 33.69588
    },
    {
        "name": "Токарево",
        "latitude": 45.28367,
        "longitude": 35.15244
    },
    {
        "name": "Трудовое",
        "latitude": 44.99133,
        "longitude": 34.20311
    },
    {
        "name": "Целинное",
        "latitude": 45.90633,
        "longitude": 34.18063
    },
    {
        "name": "Цветочное",
        "latitude": 45.08655,
        "longitude": 34.38521
    },
    {
        "name": "Тургеневка",
        "latitude": 44.69747,
        "longitude": 33.83007
    },
    {
        "name": "Угловое",
        "latitude": 44.82146,
        "longitude": 33.60452
    },
    {
        "name": "Украинка",
        "latitude": 44.8873,
        "longitude": 34.13973
    },
    {
        "name": "Укромное",
        "latitude": 45.04272,
        "longitude": 34.00312
    },
    {
        "name": "Урожайное",
        "latitude": 45.04522,
        "longitude": 34.13511
    },
    {
        "name": "Уваровка",
        "latitude": 45.45108,
        "longitude": 34.78812
    },
    {
        "name": "Уварово",
        "latitude": 45.2626,
        "longitude": 35.66506
    },
    {
        "name": "Уютное",
        "latitude": 45.19769,
        "longitude": 33.29796
    },
    {
        "name": "Васильевка",
        "latitude": 45.13938,
        "longitude": 34.72291
    },
    {
        "name": "Вересаево",
        "latitude": 45.30551,
        "longitude": 33.50004
    },
    {
        "name": "Верхоречье",
        "latitude": 44.69738,
        "longitude": 33.98696
    },
    {
        "name": "Веселе",
        "latitude": 44.85807,
        "longitude": 34.87952
    },
    {
        "name": "Веселовка",
        "latitude": 45.37733,
        "longitude": 33.21385
    },
    {
        "name": "Вилино",
        "latitude": 44.8456,
        "longitude": 33.67161
    },
    {
        "name": "Винницкое",
        "latitude": 44.98129,
        "longitude": 33.7392
    },
    {
        "name": "Виноградное",
        "latitude": 44.48149,
        "longitude": 34.12973
    },
    {
        "name": "Виноградово",
        "latitude": 45.39264,
        "longitude": 33.64668
    },
    {
        "name": "Вишенное",
        "latitude": 45.14509,
        "longitude": 34.59691
    },
    {
        "name": "Вишневка",
        "latitude": 45.95966,
        "longitude": 33.95289
    },
    {
        "name": "Владимировка",
        "latitude": 45.1476,
        "longitude": 33.57583
    },
    {
        "name": "Владиславовка",
        "latitude": 45.16828,
        "longitude": 35.37658
    },
    {
        "name": "Войнка",
        "latitude": 45.8699,
        "longitude": 33.99138
    },
    {
        "name": "Вольное",
        "latitude": 45.5657,
        "longitude": 34.3036
    },
    {
        "name": "Воробьево",
        "latitude": 45.32895,
        "longitude": 33.24654
    },
    {
        "name": "Восход",
        "latitude": 45.50999,
        "longitude": 34.39355
    },
    {
        "name": "Войково",
        "latitude": 45.38329,
        "longitude": 36.43739
    },
    {
        "name": "Ялта",
        "latitude": 44.50218,
        "longitude": 34.16624
    },
    {
        "name": "Янтарное",
        "latitude": 45.43473,
        "longitude": 34.22134
    },
    {
        "name": "Яркое",
        "latitude": 45.6912,
        "longitude": 34.26323
    },
    {
        "name": "Яркое Поле",
        "latitude": 45.20581,
        "longitude": 35.19848
    },
    {
        "name": "Яснополянское",
        "latitude": 45.94097,
        "longitude": 34.35262
    },
    {
        "name": "Емельяновка",
        "latitude": 45.53287,
        "longitude": 34.89624
    },
    {
        "name": "Ермаково",
        "latitude": 45.85364,
        "longitude": 34.48644
    },
    {
        "name": "Евпатория",
        "latitude": 45.20091,
        "longitude": 33.36655
    },
    {
        "name": "Залесье",
        "latitude": 44.88687,
        "longitude": 34.10168
    },
    {
        "name": "Заозёрное",
        "latitude": 45.15816,
        "longitude": 33.27866
    },
    {
        "name": "Заречное",
        "latitude": 44.85048,
        "longitude": 34.26426
    },
    {
        "name": "Завет-Ленинский",
        "latitude": 45.86258,
        "longitude": 34.3916
    },
    {
        "name": "Верхний Баскунчак",
        "latitude": 45.32697,
        "longitude": 34.80837
    },
    {
        "name": "Зеленогорское",
        "latitude": 45.01249,
        "longitude": 34.46848
    },
    {
        "name": "Зеленое",
        "latitude": 44.59583,
        "longitude": 34.00921
    },
    {
        "name": "Земляничное",
        "latitude": 44.97444,
        "longitude": 34.83553
    },
    {
        "name": "Зерновое",
        "latitude": 45.32364,
        "longitude": 34.48099
    },
    {
        "name": "Железнодорожное",
        "latitude": 44.7171,
        "longitude": 33.80417
    },
    {
        "name": "Желябовка",
        "latitude": 45.39877,
        "longitude": 34.75776
    },
    {
        "name": "Жемчужина",
        "latitude": 45.27466,
        "longitude": 34.65778
    },
    {
        "name": "Журавки",
        "latitude": 45.12629,
        "longitude": 35.21513
    },
    {
        "name": "Журавли",
        "latitude": 45.25246,
        "longitude": 33.64104
    },
    {
        "name": "Журавлевка",
        "latitude": 45.1768,
        "longitude": 33.9968
    },
    {
        "name": "Зимино",
        "latitude": 45.50797,
        "longitude": 33.51431
    },
    {
        "name": "Золотое Поле",
        "latitude": 45.12774,
        "longitude": 34.99148
    },
    {
        "name": "Зоркино",
        "latitude": 45.54762,
        "longitude": 34.71028
    },
    {
        "name": "Зуя",
        "latitude": 45.05418,
        "longitude": 34.32152
    },
    {
        "name": "Зыбины",
        "latitude": 45.23674,
        "longitude": 34.64987
    },
    {
        "name": "Бабанка",
        "latitude": 48.70971,
        "longitude": 30.44827
    },
    {
        "name": "Буки",
        "latitude": 49.09252,
        "longitude": 30.40355
    },
    {
        "name": "Черкассы",
        "latitude": 49.42854,
        "longitude": 32.06207
    },
    {
        "name": "Червона Слобода",
        "latitude": 49.37281,
        "longitude": 32.15742
    },
    {
        "name": "Чернобай",
        "latitude": 49.66644,
        "longitude": 32.32932
    },
    {
        "name": "Чигирин",
        "latitude": 49.08376,
        "longitude": 32.65549
    },
    {
        "name": "Драбив",
        "latitude": 49.96029,
        "longitude": 32.1407
    },
    {
        "name": "Городище",
        "latitude": 49.28489,
        "longitude": 31.44513
    },
    {
        "name": "Каменка",
        "latitude": 49.0318,
        "longitude": 32.10396
    },
    {
        "name": "Канев",
        "latitude": 49.75182,
        "longitude": 31.46004
    },
    {
        "name": "Кристиновка",
        "latitude": 48.81577,
        "longitude": 29.97703
    },
    {
        "name": "Корсунь-Шевченковский",
        "latitude": 49.41894,
        "longitude": 31.25865
    },
    {
        "name": "Лебедин",
        "latitude": 48.96242,
        "longitude": 31.52696
    },
    {
        "name": "Лысянка",
        "latitude": 49.25229,
        "longitude": 30.82946
    },
    {
        "name": "Маньковка",
        "latitude": 48.96349,
        "longitude": 30.33366
    },
    {
        "name": "Млиев",
        "latitude": 49.33691,
        "longitude": 31.51704
    },
    {
        "name": "Монастырище",
        "latitude": 48.9909,
        "longitude": 29.8047
    },
    {
        "name": "Мошный",
        "latitude": 49.52754,
        "longitude": 31.73708
    },
    {
        "name": "Нове-Мисто",
        "latitude": 48.98113,
        "longitude": 29.82813
    },
    {
        "name": "Русская Поляна",
        "latitude": 49.417,
        "longitude": 31.92009
    },
    {
        "name": "Шпола",
        "latitude": 49.00687,
        "longitude": 31.39471
    },
    {
        "name": "Смела",
        "latitude": 49.22242,
        "longitude": 31.88714
    },
    {
        "name": "Стеблив",
        "latitude": 49.40186,
        "longitude": 31.09764
    },
    {
        "name": "Тальное",
        "latitude": 48.88877,
        "longitude": 30.69482
    },
    {
        "name": "Цибулев",
        "latitude": 49.07907,
        "longitude": 29.84727
    },
    {
        "name": "Цветково",
        "latitude": 49.15231,
        "longitude": 31.53739
    },
    {
        "name": "Умань",
        "latitude": 48.74838,
        "longitude": 30.22184
    },
    {
        "name": "Ватутино",
        "latitude": 49.01502,
        "longitude": 31.06211
    },
    {
        "name": "Верхнячка",
        "latitude": 48.82849,
        "longitude": 30.03957
    },
    {
        "name": "Йерки",
        "latitude": 48.99062,
        "longitude": 30.98818
    },
    {
        "name": "Юрковка",
        "latitude": 49.01082,
        "longitude": 31.08797
    },
    {
        "name": "Жашков",
        "latitude": 49.24545,
        "longitude": 30.1102
    },
    {
        "name": "Золотоноша",
        "latitude": 49.66832,
        "longitude": 32.04047
    },
    {
        "name": "Звенигородка",
        "latitude": 49.07866,
        "longitude": 30.96755
    },
    {
        "name": "Авдеевка",
        "latitude": 51.7766,
        "longitude": 32.79988
    },
    {
        "name": "Бахмач",
        "latitude": 51.18144,
        "longitude": 32.83463
    },
    {
        "name": "Батурин",
        "latitude": 51.34567,
        "longitude": 32.87794
    },
    {
        "name": "Березная",
        "latitude": 51.5716,
        "longitude": 31.78456
    },
    {
        "name": "Бобровица",
        "latitude": 50.74693,
        "longitude": 31.3948
    },
    {
        "name": "Борзна",
        "latitude": 51.25464,
        "longitude": 32.4269
    },
    {
        "name": "Чернигов",
        "latitude": 51.50551,
        "longitude": 31.28487
    },
    {
        "name": "Черниговский район",
        "latitude": 51.58333,
        "longitude": 31.33333
    },
    {
        "name": "Черниговский горсовет",
        "latitude": 51.49923,
        "longitude": 31.28805
    },
    {
        "name": "Десна",
        "latitude": 50.92731,
        "longitude": 30.76048
    },
    {
        "name": "Дихтьяри",
        "latitude": 50.58264,
        "longitude": 32.77012
    },
    {
        "name": "Добрянка",
        "latitude": 52.06314,
        "longitude": 31.18567
    },
    {
        "name": "Городня",
        "latitude": 51.89085,
        "longitude": 31.59741
    },
    {
        "name": "Ичня",
        "latitude": 50.86258,
        "longitude": 32.39425
    },
    {
        "name": "Холмы",
        "latitude": 51.87096,
        "longitude": 32.60063
    },
    {
        "name": "Кобыжча",
        "latitude": 50.82854,
        "longitude": 31.50439
    },
    {
        "name": "Короп",
        "latitude": 51.56638,
        "longitude": 32.95861
    },
    {
        "name": "Корюковка",
        "latitude": 51.76877,
        "longitude": 32.24813
    },
    {
        "name": "Козелец",
        "latitude": 50.91334,
        "longitude": 31.1214
    },
    {
        "name": "Круты",
        "latitude": 51.05974,
        "longitude": 32.10634
    },
    {
        "name": "Куликовка",
        "latitude": 51.37345,
        "longitude": 31.64661
    },
    {
        "name": "Ладан",
        "latitude": 50.51959,
        "longitude": 32.58178
    },
    {
        "name": "Лесные Сорочинцы",
        "latitude": 50.6892,
        "longitude": 32.32919
    },
    {
        "name": "Любеч",
        "latitude": 51.7026,
        "longitude": 30.65692
    },
    {
        "name": "Мена",
        "latitude": 51.5217,
        "longitude": 32.21568
    },
    {
        "name": "Менский район",
        "latitude": 51.52148,
        "longitude": 32.02166
    },
    {
        "name": "Нежин",
        "latitude": 51.04801,
        "longitude": 31.88688
    },
    {
        "name": "Носовка",
        "latitude": 50.93152,
        "longitude": 31.58282
    },
    {
        "name": "Новгород-Северский",
        "latitude": 52.00577,
        "longitude": 33.2615
    },
    {
        "name": "Олышевка",
        "latitude": 51.22266,
        "longitude": 31.33314
    },
    {
        "name": "Остер",
        "latitude": 50.9506,
        "longitude": 30.88229
    },
    {
        "name": "Прилуки",
        "latitude": 50.59323,
        "longitude": 32.38761
    },
    {
        "name": "Рипки",
        "latitude": 51.80105,
        "longitude": 31.08383
    },
    {
        "name": "Седнев",
        "latitude": 51.64473,
        "longitude": 31.56497
    },
    {
        "name": "Семеновка",
        "latitude": 52.17827,
        "longitude": 32.58183
    },
    {
        "name": "Щорс",
        "latitude": 51.81865,
        "longitude": 31.94504
    },
    {
        "name": "Сновский район",
        "latitude": 51.83333,
        "longitude": 32.0
    },
    {
        "name": "Сосница",
        "latitude": 51.52387,
        "longitude": 32.49985
    },
    {
        "name": "Срибне",
        "latitude": 50.66384,
        "longitude": 32.91867
    },
    {
        "name": "Варва",
        "latitude": 50.49503,
        "longitude": 32.71968
    },
    {
        "name": "Журавка",
        "latitude": 50.48108,
        "longitude": 32.5949
    },
    {
        "name": "Банилов",
        "latitude": 48.36612,
        "longitude": 25.34549
    },
    {
        "name": "Берегомет",
        "latitude": 48.17882,
        "longitude": 25.34855
    },
    {
        "name": "Бояны",
        "latitude": 48.27077,
        "longitude": 26.12624
    },
    {
        "name": "Черновцы",
        "latitude": 48.29149,
        "longitude": 25.94034
    },
    {
        "name": "Черновицкий городской совет",
        "latitude": 48.31932,
        "longitude": 25.94104
    },
    {
        "name": "Чудей",
        "latitude": 48.05247,
        "longitude": 25.62208
    },
    {
        "name": "Давыдовка",
        "latitude": 48.12099,
        "longitude": 25.56461
    },
    {
        "name": "Глубока",
        "latitude": 48.08971,
        "longitude": 25.92933
    },
    {
        "name": "Испас",
        "latitude": 48.29734,
        "longitude": 25.27406
    },
    {
        "name": "Кадубовцы",
        "latitude": 48.58337,
        "longitude": 25.76871
    },
    {
        "name": "Хотин",
        "latitude": 48.50693,
        "longitude": 26.49121
    },
    {
        "name": "Клишковцы",
        "latitude": 48.43161,
        "longitude": 26.26231
    },
    {
        "name": "Кострижевка",
        "latitude": 48.65455,
        "longitude": 25.71316
    },
    {
        "name": "Лужаны",
        "latitude": 48.36492,
        "longitude": 25.77173
    },
    {
        "name": "Маршинцы",
        "latitude": 48.21751,
        "longitude": 26.29133
    },
    {
        "name": "Молодия",
        "latitude": 48.22326,
        "longitude": 26.02139
    },
    {
        "name": "Нетинка",
        "latitude": 48.15749,
        "longitude": 25.37904
    },
    {
        "name": "Новоднестровск",
        "latitude": 48.58303,
        "longitude": 27.4407
    },
    {
        "name": "Новоселица",
        "latitude": 48.21931,
        "longitude": 26.26531
    },
    {
        "name": "Нижние Петровцы",
        "latitude": 48.02847,
        "longitude": 25.72327
    },
    {
        "name": "Путилянский район",
        "latitude": 48.0,
        "longitude": 25.0
    },
    {
        "name": "Ропча",
        "latitude": 48.11988,
        "longitude": 25.77421
    },
    {
        "name": "Шипинцы",
        "latitude": 48.37677,
        "longitude": 25.74664
    },
    {
        "name": "Сокиряны",
        "latitude": 48.44747,
        "longitude": 27.41678
    },
    {
        "name": "Вашковцы",
        "latitude": 48.38491,
        "longitude": 25.51023
    },
    {
        "name": "Веренчанка",
        "latitude": 48.54653,
        "longitude": 25.74533
    },
    {
        "name": "Волока",
        "latitude": 48.19225,
        "longitude": 25.93074
    },
    {
        "name": "Вижница",
        "latitude": 48.24801,
        "longitude": 25.19452
    },
    {
        "name": "Йиживцы",
        "latitude": 48.03962,
        "longitude": 25.66232
    },
    {
        "name": "Заставна",
        "latitude": 48.52307,
        "longitude": 25.84369
    },
    {
        "name": "Апостолов",
        "latitude": 47.66003,
        "longitude": 33.71369
    },
    {
        "name": "Аули",
        "latitude": 48.5666,
        "longitude": 34.46111
    },
    {
        "name": "Авиаторское",
        "latitude": 48.36714,
        "longitude": 35.08132
    },
    {
        "name": "Червоногригоровка",
        "latitude": 47.62298,
        "longitude": 34.53887
    },
    {
        "name": "Чертомлык",
        "latitude": 47.62315,
        "longitude": 34.14198
    },
    {
        "name": "Днепр",
        "latitude": 48.4593,
        "longitude": 35.03865
    },
    {
        "name": "Супонево",
        "latitude": 48.45608,
        "longitude": 35.02167
    },
    {
        "name": "Днепровская Миська Рада",
        "latitude": 48.46726,
        "longitude": 34.99898
    },
    {
        "name": "Губыныха",
        "latitude": 48.8098,
        "longitude": 35.25602
    },
    {
        "name": "Гупаловка",
        "latitude": 49.11139,
        "longitude": 34.73556
    },
    {
        "name": "Каменское",
        "latitude": 48.51134,
        "longitude": 34.6021
    },
    {
        "name": "Кайдаки",
        "latitude": 48.37678,
        "longitude": 35.12398
    },
    {
        "name": "Кринички",
        "latitude": 48.37551,
        "longitude": 34.46701
    },
    {
        "name": "Криворожский Городок",
        "latitude": 47.9473,
        "longitude": 33.42489
    },
    {
        "name": "Кривой Рог",
        "latitude": 47.90966,
        "longitude": 33.38044
    },
    {
        "name": "Лиховка",
        "latitude": 48.68735,
        "longitude": 33.92279
    },
    {
        "name": "Магдалиновка",
        "latitude": 48.92111,
        "longitude": 34.91491
    },
    {
        "name": "Магдалиновский район",
        "latitude": 48.97612,
        "longitude": 34.96762
    },
    {
        "name": "Марганец",
        "latitude": 47.63543,
        "longitude": 34.62769
    },
    {
        "name": "Мелиоративное",
        "latitude": 48.63009,
        "longitude": 35.41558
    },
    {
        "name": "Межова",
        "latitude": 48.25318,
        "longitude": 36.73468
    },
    {
        "name": "Никополь",
        "latitude": 47.57119,
        "longitude": 34.39637
    },
    {
        "name": "Новомосковск",
        "latitude": 48.63799,
        "longitude": 35.24548
    },
    {
        "name": "Новомосковский район",
        "latitude": 48.66667,
        "longitude": 35.41667
    },
    {
        "name": "Новониколаевка",
        "latitude": 48.55625,
        "longitude": 34.37399
    },
    {
        "name": "Новопокровка",
        "latitude": 48.05918,
        "longitude": 34.60619
    },
    {
        "name": "Орджоникидзе",
        "latitude": 47.66763,
        "longitude": 34.05957
    },
    {
        "name": "Партизанское",
        "latitude": 48.5868,
        "longitude": 34.80948
    },
    {
        "name": "Павлоград",
        "latitude": 48.53426,
        "longitude": 35.87098
    },
    {
        "name": "Петропавловка",
        "latitude": 48.45643,
        "longitude": 36.4367
    },
    {
        "name": "Петриковка",
        "latitude": 48.72933,
        "longitude": 34.63358
    },
    {
        "name": "Петриковский район",
        "latitude": 48.68914,
        "longitude": 34.61098
    },
    {
        "name": "Пятихатки",
        "latitude": 48.41333,
        "longitude": 33.71056
    },
    {
        "name": "Подгородное",
        "latitude": 48.57528,
        "longitude": 35.1068
    },
    {
        "name": "Шолохово",
        "latitude": 47.69453,
        "longitude": 34.03119
    },
    {
        "name": "Широке",
        "latitude": 47.69173,
        "longitude": 33.25715
    },
    {
        "name": "Широкский район",
        "latitude": 47.66667,
        "longitude": 33.33333
    },
    {
        "name": "Софиевка",
        "latitude": 48.04865,
        "longitude": 33.87618
    },
    {
        "name": "одинокий",
        "latitude": 48.20805,
        "longitude": 34.87208
    },
    {
        "name": "Солонский район",
        "latitude": 48.16667,
        "longitude": 35.0
    },
    {
        "name": "Спасское",
        "latitude": 48.66667,
        "longitude": 35.05385
    },
    {
        "name": "Сурско-Михайловка",
        "latitude": 48.27202,
        "longitude": 34.72759
    },
    {
        "name": "Бамут",
        "latitude": 48.32044,
        "longitude": 35.51792
    },
    {
        "name": "Томаковка",
        "latitude": 47.81569,
        "longitude": 34.74137
    },
    {
        "name": "Царичанка",
        "latitude": 48.93697,
        "longitude": 34.4786
    },
    {
        "name": "Царичанский район",
        "latitude": 48.93329,
        "longitude": 34.53043
    },
    {
        "name": "Верхнеднепровск",
        "latitude": 48.65242,
        "longitude": 34.33457
    },
    {
        "name": "Вильное",
        "latitude": 47.63645,
        "longitude": 34.81387
    },
    {
        "name": "Выщетарасовка",
        "latitude": 47.56851,
        "longitude": 34.88096
    },
    {
        "name": "Вишневое",
        "latitude": 48.43611,
        "longitude": 33.91556
    },
    {
        "name": "Юрьевский район",
        "latitude": 48.80743,
        "longitude": 35.91325
    },
    {
        "name": "Желтые Воды",
        "latitude": 48.34493,
        "longitude": 33.50374
    },
    {
        "name": "Амвросиевский район",
        "latitude": 47.75,
        "longitude": 38.5
    },
    {
        "name": "Амвросиевка",
        "latitude": 47.79348,
        "longitude": 38.47768
    },
    {
        "name": "Авдеевка",
        "latitude": 48.13989,
        "longitude": 37.74255
    },
    {
        "name": "Бахмут",
        "latitude": 48.59559,
        "longitude": 37.99987
    },
    {
        "name": "Бахмутский район",
        "latitude": 48.58333,
        "longitude": 38.0
    },
    {
        "name": "Безименне",
        "latitude": 47.10716,
        "longitude": 37.93815
    },
    {
        "name": "Белицкое",
        "latitude": 48.40642,
        "longitude": 37.18111
    },
    {
        "name": "Благодатное",
        "latitude": 47.87928,
        "longitude": 38.48492
    },
    {
        "name": "Бойковское",
        "latitude": 47.40994,
        "longitude": 38.02476
    },
    {
        "name": "Бойковский район",
        "latitude": 47.41667,
        "longitude": 38.0
    },
    {
        "name": "Часов Яр",
        "latitude": 48.59348,
        "longitude": 37.85724
    },
    {
        "name": "Чистяково",
        "latitude": 48.03876,
        "longitude": 38.59685
    },
    {
        "name": "Дебальцево",
        "latitude": 48.34072,
        "longitude": 38.4049
    },
    {
        "name": "Дмитровка",
        "latitude": 47.93611,
        "longitude": 38.93661
    },
    {
        "name": "Добропольский район",
        "latitude": 48.41667,
        "longitude": 37.16667
    },
    {
        "name": "Доброполье",
        "latitude": 48.46147,
        "longitude": 37.08524
    },
    {
        "name": "Докучаевск",
        "latitude": 47.75046,
        "longitude": 37.67936
    },
    {
        "name": "Донецк",
        "latitude": 48.023,
        "longitude": 37.80224
    },
    {
        "name": "Дружковка",
        "latitude": 48.63013,
        "longitude": 37.55259
    },
    {
        "name": "Горловка",
        "latitude": 48.33576,
        "longitude": 38.05325
    },
    {
        "name": "Иловайск",
        "latitude": 47.92498,
        "longitude": 38.20235
    },
    {
        "name": "Харцызск",
        "latitude": 48.04243,
        "longitude": 38.14728
    },
    {
        "name": "Константиновский район",
        "latitude": 48.5,
        "longitude": 37.75
    },
    {
        "name": "Константиновка",
        "latitude": 48.5277,
        "longitude": 37.7069
    },
    {
        "name": "Краматорск",
        "latitude": 48.72305,
        "longitude": 37.55629
    },
    {
        "name": "Красноторка",
        "latitude": 48.68204,
        "longitude": 37.53266
    },
    {
        "name": "Криничная",
        "latitude": 48.12899,
        "longitude": 38.02597
    },
    {
        "name": "Курахово",
        "latitude": 47.98522,
        "longitude": 37.2821
    },
    {
        "name": "Кутейниково",
        "latitude": 47.81227,
        "longitude": 38.28822
    },
    {
        "name": "Луганское",
        "latitude": 48.44574,
        "longitude": 38.26153
    },
    {
        "name": "Лиман",
        "latitude": 48.98837,
        "longitude": 37.80225
    },
    {
        "name": "Первомайская",
        "latitude": 49.0,
        "longitude": 37.83333
    },
    {
        "name": "Макеевка",
        "latitude": 48.04782,
        "longitude": 37.92576
    },
    {
        "name": "Макеевский городок",
        "latitude": 48.06287,
        "longitude": 38.03075
    },
    {
        "name": "Манхуш",
        "latitude": 47.05582,
        "longitude": 37.31068
    },
    {
        "name": "Марьинка",
        "latitude": 47.94527,
        "longitude": 37.50544
    },
    {
        "name": "Мариуполь",
        "latitude": 47.09514,
        "longitude": 37.54131
    },
    {
        "name": "Мелекин",
        "latitude": 46.95957,
        "longitude": 37.39981
    },
    {
        "name": "Моспайн",
        "latitude": 47.89081,
        "longitude": 38.06395
    },
    {
        "name": "Мирноград",
        "latitude": 48.30523,
        "longitude": 37.26091
    },
    {
        "name": "Никольский район",
        "latitude": 47.25,
        "longitude": 37.25
    },
    {
        "name": "Новоазовск",
        "latitude": 47.11389,
        "longitude": 38.08599
    },
    {
        "name": "Новодонецкое",
        "latitude": 48.63526,
        "longitude": 36.98477
    },
    {
        "name": "Новый Свет",
        "latitude": 47.80591,
        "longitude": 38.02112
    },
    {
        "name": "Нижняя Крынка",
        "latitude": 48.1135,
        "longitude": 38.16064
    },
    {
        "name": "Пятиполье",
        "latitude": 48.0159,
        "longitude": 38.09979
    },
    {
        "name": "Покровск",
        "latitude": 48.28198,
        "longitude": 37.17585
    },
    {
        "name": "Покровский район",
        "latitude": 48.25,
        "longitude": 37.16667
    },
    {
        "name": "Родинское",
        "latitude": 48.35199,
        "longitude": 37.20602
    },
    {
        "name": "Рассыпное",
        "latitude": 48.14966,
        "longitude": 38.57619
    },
    {
        "name": "Сартана",
        "latitude": 47.17436,
        "longitude": 37.69266
    },
    {
        "name": "Селидовский городок",
        "latitude": 48.1453,
        "longitude": 37.29962
    },
    {
        "name": "Селидово",
        "latitude": 48.14708,
        "longitude": 37.30032
    },
    {
        "name": "Серебрянка",
        "latitude": 48.91917,
        "longitude": 38.13494
    },
    {
        "name": "Шахтерск",
        "latitude": 48.05657,
        "longitude": 38.43826
    },
    {
        "name": "Щербиновка",
        "latitude": 48.39489,
        "longitude": 37.79102
    },
    {
        "name": "Широке",
        "latitude": 47.95711,
        "longitude": 38.2316
    },
    {
        "name": "Сиверск",
        "latitude": 48.86699,
        "longitude": 38.10007
    },
    {
        "name": "Славянск",
        "latitude": 48.86667,
        "longitude": 37.61667
    },
    {
        "name": "Славянский район",
        "latitude": 48.91667,
        "longitude": 37.5
    },
    {
        "name": "Снежное",
        "latitude": 48.02612,
        "longitude": 38.77225
    },
    {
        "name": "Бакал",
        "latitude": 48.67935,
        "longitude": 38.08902
    },
    {
        "name": "Старобешево",
        "latitude": 47.75038,
        "longitude": 38.03051
    },
    {
        "name": "Старый Крым",
        "latitude": 47.16146,
        "longitude": 37.48934
    },
    {
        "name": "Стижковское",
        "latitude": 48.11333,
        "longitude": 38.4925
    },
    {
        "name": "Светлодарск",
        "latitude": 48.43374,
        "longitude": 38.22331
    },
    {
        "name": "Святогорск",
        "latitude": 49.03333,
        "longitude": 37.56667
    },
    {
        "name": "Седово",
        "latitude": 47.07678,
        "longitude": 38.15602
    },
    {
        "name": "Темрюк",
        "latitude": 47.26857,
        "longitude": 36.98115
    },
    {
        "name": "Торецк",
        "latitude": 48.39869,
        "longitude": 37.84787
    },
    {
        "name": "Урзуф",
        "latitude": 46.91562,
        "longitude": 37.09961
    },
    {
        "name": "Волноваха",
        "latitude": 47.60103,
        "longitude": 37.49674
    },
    {
        "name": "Углегорск",
        "latitude": 48.31474,
        "longitude": 38.27423
    },
    {
        "name": "Ялта",
        "latitude": 46.96279,
        "longitude": 37.27365
    },
    {
        "name": "Ясиноватая",
        "latitude": 48.1298,
        "longitude": 37.8594
    },
    {
        "name": "Ясиноватский район",
        "latitude": 48.16667,
        "longitude": 37.83333
    },
    {
        "name": "Енакиево",
        "latitude": 48.23331,
        "longitude": 38.21137
    },
    {
        "name": "Зугрэс",
        "latitude": 48.0114,
        "longitude": 38.26444
    },
    {
        "name": "Били Ославы",
        "latitude": 48.48722,
        "longitude": 24.70078
    },
    {
        "name": "Бильшевцы",
        "latitude": 49.18333,
        "longitude": 24.75
    },
    {
        "name": "Богородчанский район",
        "latitude": 48.72278,
        "longitude": 24.38042
    },
    {
        "name": "Богородчаны",
        "latitude": 48.807,
        "longitude": 24.53834
    },
    {
        "name": "Болехов",
        "latitude": 49.06607,
        "longitude": 23.86435
    },
    {
        "name": "Болеховский горсовет",
        "latitude": 49.06255,
        "longitude": 23.84339
    },
    {
        "name": "Борщевский район",
        "latitude": 48.75,
        "longitude": 26.0
    },
    {
        "name": "Брошнив-Осада",
        "latitude": 48.99621,
        "longitude": 24.19748
    },
    {
        "name": "Бурштын",
        "latitude": 49.25867,
        "longitude": 24.62777
    },
    {
        "name": "Бурштинский городок",
        "latitude": 49.25217,
        "longitude": 24.6332
    },
    {
        "name": "Быстрица",
        "latitude": 48.45931,
        "longitude": 24.24545
    },
    {
        "name": "Бытков",
        "latitude": 48.62968,
        "longitude": 24.47398
    },
    {
        "name": "Чернелица",
        "latitude": 48.81207,
        "longitude": 25.42477
    },
    {
        "name": "Черниев",
        "latitude": 48.85658,
        "longitude": 24.71388
    },
    {
        "name": "Чернятин",
        "latitude": 48.66034,
        "longitude": 25.44832
    },
    {
        "name": "Чернолиццы",
        "latitude": 48.83034,
        "longitude": 24.89576
    },
    {
        "name": "Делятин",
        "latitude": 48.52354,
        "longitude": 24.62466
    },
    {
        "name": "Долина",
        "latitude": 48.9733,
        "longitude": 24.00944
    },
    {
        "name": "Долинский район",
        "latitude": 48.89148,
        "longitude": 23.84343
    },
    {
        "name": "Галич",
        "latitude": 49.12179,
        "longitude": 24.72578
    },
    {
        "name": "Галицкий район",
        "latitude": 49.16169,
        "longitude": 24.71797
    },
    {
        "name": "Городенка",
        "latitude": 48.67274,
        "longitude": 25.50163
    },
    {
        "name": "Городенковский район",
        "latitude": 48.70617,
        "longitude": 25.42008
    },
    {
        "name": "Хвизд",
        "latitude": 48.68517,
        "longitude": 24.55055
    },
    {
        "name": "Ивано-Франковский горсовет",
        "latitude": 48.91177,
        "longitude": 24.72831
    },
    {
        "name": "Ивано-Франковск",
        "latitude": 48.9215,
        "longitude": 24.70972
    },
    {
        "name": "Калусский район",
        "latitude": 49.06088,
        "longitude": 24.38766
    },
    {
        "name": "Калуш",
        "latitude": 49.01187,
        "longitude": 24.37308
    },
    {
        "name": "Химчин",
        "latitude": 48.38639,
        "longitude": 25.14803
    },
    {
        "name": "Коломыя",
        "latitude": 48.53115,
        "longitude": 25.03649
    },
    {
        "name": "Коломыйский район",
        "latitude": 48.58586,
        "longitude": 24.993
    },
    {
        "name": "Косов",
        "latitude": 48.31071,
        "longitude": 25.09575
    },
    {
        "name": "Косовский район",
        "latitude": 48.32569,
        "longitude": 24.98641
    },
    {
        "name": "Космач",
        "latitude": 48.75089,
        "longitude": 24.36731
    },
    {
        "name": "Красна",
        "latitude": 48.57571,
        "longitude": 24.70027
    },
    {
        "name": "Куты",
        "latitude": 48.25868,
        "longitude": 25.17946
    },
    {
        "name": "Ланчин",
        "latitude": 48.55781,
        "longitude": 24.75622
    },
    {
        "name": "Манява",
        "latitude": 48.65541,
        "longitude": 24.37537
    },
    {
        "name": "Маркова",
        "latitude": 48.67576,
        "longitude": 24.41382
    },
    {
        "name": "Надворная",
        "latitude": 48.6348,
        "longitude": 24.56936
    },
    {
        "name": "Надвирнянский район",
        "latitude": 48.55387,
        "longitude": 24.50381
    },
    {
        "name": "Небылов",
        "latitude": 48.81526,
        "longitude": 24.21657
    },
    {
        "name": "Новица",
        "latitude": 48.96345,
        "longitude": 24.33542
    },
    {
        "name": "Обертин",
        "latitude": 48.70032,
        "longitude": 25.17012
    },
    {
        "name": "Отыния",
        "latitude": 48.73767,
        "longitude": 24.86111
    },
    {
        "name": "Пасечная",
        "latitude": 48.57152,
        "longitude": 24.43003
    },
    {
        "name": "Печенижин",
        "latitude": 48.51551,
        "longitude": 24.89423
    },
    {
        "name": "Петранка",
        "latitude": 48.90246,
        "longitude": 24.30347
    },
    {
        "name": "Пнив",
        "latitude": 48.61783,
        "longitude": 24.52872
    },
    {
        "name": "Порохи",
        "latitude": 48.68755,
        "longitude": 24.26322
    },
    {
        "name": "Радча",
        "latitude": 48.85023,
        "longitude": 24.65502
    },
    {
        "name": "Речка",
        "latitude": 48.28034,
        "longitude": 24.9333
    },
    {
        "name": "Рогатин",
        "latitude": 49.409,
        "longitude": 24.60927
    },
    {
        "name": "Рогатинский район",
        "latitude": 49.38025,
        "longitude": 24.57111
    },
    {
        "name": "Рожнятов",
        "latitude": 48.93576,
        "longitude": 24.16379
    },
    {
        "name": "Рожнов",
        "latitude": 48.36597,
        "longitude": 25.2258
    },
    {
        "name": "Рожнятовский район",
        "latitude": 48.7589,
        "longitude": 24.07588
    },
    {
        "name": "Саджавка",
        "latitude": 48.56603,
        "longitude": 24.7882
    },
    {
        "name": "Шешоры",
        "latitude": 48.33197,
        "longitude": 24.98329
    },
    {
        "name": "Снятин",
        "latitude": 48.44692,
        "longitude": 25.56937
    },
    {
        "name": "Снятинский район",
        "latitude": 48.47674,
        "longitude": 25.41153
    },
    {
        "name": "Солотвин",
        "latitude": 48.70212,
        "longitude": 24.42212
    },
    {
        "name": "Спа",
        "latitude": 48.88992,
        "longitude": 24.06293
    },
    {
        "name": "Старые Богородчаны",
        "latitude": 48.83361,
        "longitude": 24.5243
    },
    {
        "name": "Старые Куты",
        "latitude": 48.27093,
        "longitude": 25.17293
    },
    {
        "name": "Стецева",
        "latitude": 48.52767,
        "longitude": 25.57572
    },
    {
        "name": "Сваричев",
        "latitude": 48.9622,
        "longitude": 24.19658
    },
    {
        "name": "Татаров",
        "latitude": 48.34558,
        "longitude": 24.57836
    },
    {
        "name": "Тлумач",
        "latitude": 48.86403,
        "longitude": 25.00325
    },
    {
        "name": "Тлумацкий район",
        "latitude": 48.82924,
        "longitude": 25.09055
    },
    {
        "name": "Тысменичаны",
        "latitude": 48.77168,
        "longitude": 24.66626
    },
    {
        "name": "Тысменицкий район",
        "latitude": 48.92246,
        "longitude": 24.74486
    },
    {
        "name": "Тысменица",
        "latitude": 48.90219,
        "longitude": 24.84482
    },
    {
        "name": "Угринов",
        "latitude": 48.9552,
        "longitude": 24.69292
    },
    {
        "name": "Великий Ключив",
        "latitude": 48.47092,
        "longitude": 24.94677
    },
    {
        "name": "Верхний Ясенов",
        "latitude": 48.16156,
        "longitude": 24.94532
    },
    {
        "name": "Верховина",
        "latitude": 48.15571,
        "longitude": 24.79112
    },
    {
        "name": "Ворохта",
        "latitude": 48.28459,
        "longitude": 24.56536
    },
    {
        "name": "Яблунив",
        "latitude": 48.40418,
        "longitude": 24.93874
    },
    {
        "name": "Яблуница",
        "latitude": 48.31742,
        "longitude": 24.48448
    },
    {
        "name": "Ямница",
        "latitude": 48.98972,
        "longitude": 24.7075
    },
    {
        "name": "Яремчанский горсовет",
        "latitude": 48.33234,
        "longitude": 24.57426
    },
    {
        "name": "Яремче",
        "latitude": 48.45157,
        "longitude": 24.55436
    },
    {
        "name": "Заболотов",
        "latitude": 48.47054,
        "longitude": 25.28571
    },
    {
        "name": "Завиздя",
        "latitude": 48.91836,
        "longitude": 24.65275
    },
    {
        "name": "Заречье",
        "latitude": 48.52144,
        "longitude": 24.64857
    },
    {
        "name": "Балаклея",
        "latitude": 49.4627,
        "longitude": 36.85951
    },
    {
        "name": "Барвинково",
        "latitude": 48.9097,
        "longitude": 37.02051
    },
    {
        "name": "Березовка",
        "latitude": 49.43935,
        "longitude": 35.70736
    },
    {
        "name": "Безлюдовка",
        "latitude": 49.87547,
        "longitude": 36.26539
    },
    {
        "name": "Близнюки",
        "latitude": 48.85775,
        "longitude": 36.55505
    },
    {
        "name": "Богодухов",
        "latitude": 50.16466,
        "longitude": 35.52765
    },
    {
        "name": "Борова",
        "latitude": 49.3777,
        "longitude": 37.62136
    },
    {
        "name": "Буди",
        "latitude": 49.89133,
        "longitude": 36.02096
    },
    {
        "name": "Чапаево",
        "latitude": 49.36625,
        "longitude": 35.87486
    },
    {
        "name": "Черный Оскол",
        "latitude": 49.17906,
        "longitude": 37.42593
    },
    {
        "name": "Chuhuyiv",
        "latitude": 49.83588,
        "longitude": 36.68803
    },
    {
        "name": "Дергачи",
        "latitude": 50.10659,
        "longitude": 36.12112
    },
    {
        "name": "Дворечная",
        "latitude": 49.85019,
        "longitude": 37.68262
    },
    {
        "name": "Эсхар",
        "latitude": 49.79614,
        "longitude": 36.59047
    },
    {
        "name": "Хути",
        "latitude": 50.13322,
        "longitude": 35.34394
    },
    {
        "name": "Изюм",
        "latitude": 49.20875,
        "longitude": 37.24849
    },
    {
        "name": "Кегичевка",
        "latitude": 49.28656,
        "longitude": 35.76153
    },
    {
        "name": "Харьков",
        "latitude": 49.98081,
        "longitude": 36.25272
    },
    {
        "name": "Хорошево",
        "latitude": 49.85413,
        "longitude": 36.21704
    },
    {
        "name": "Кившаровка",
        "latitude": 49.63096,
        "longitude": 37.68821
    },
    {
        "name": "Кочеток",
        "latitude": 49.88005,
        "longitude": 36.73723
    },
    {
        "name": "Коломак",
        "latitude": 49.83987,
        "longitude": 35.30441
    },
    {
        "name": "Коротич",
        "latitude": 49.94737,
        "longitude": 36.03736
    },
    {
        "name": "Красноград",
        "latitude": 49.38009,
        "longitude": 35.44186
    },
    {
        "name": "Краснокутск",
        "latitude": 50.06602,
        "longitude": 35.16275
    },
    {
        "name": "Краснопавловка",
        "latitude": 49.13643,
        "longitude": 36.31911
    },
    {
        "name": "Кулиничи",
        "latitude": 49.98178,
        "longitude": 36.38283
    },
    {
        "name": "Купянск",
        "latitude": 49.71055,
        "longitude": 37.61517
    },
    {
        "name": "Лозова",
        "latitude": 48.88937,
        "longitude": 36.31755
    },
    {
        "name": "Лиман",
        "latitude": 49.59769,
        "longitude": 36.4703
    },
    {
        "name": "Люботин",
        "latitude": 49.94691,
        "longitude": 35.92907
    },
    {
        "name": "Малая Даниловка",
        "latitude": 50.06354,
        "longitude": 36.16564
    },
    {
        "name": "Малиновка",
        "latitude": 49.81667,
        "longitude": 36.73333
    },
    {
        "name": "Манченки",
        "latitude": 49.97982,
        "longitude": 35.85835
    },
    {
        "name": "Мерефа",
        "latitude": 49.82302,
        "longitude": 36.05069
    },
    {
        "name": "Новая Водолаха",
        "latitude": 49.71901,
        "longitude": 35.86578
    },
    {
        "name": "Новопокровка",
        "latitude": 49.83349,
        "longitude": 36.54771
    },
    {
        "name": "Панютино",
        "latitude": 48.93692,
        "longitude": 36.27563
    },
    {
        "name": "Пересечная",
        "latitude": 50.02452,
        "longitude": 35.97871
    },
    {
        "name": "Первомайский район",
        "latitude": 49.41667,
        "longitude": 36.33333
    },
    {
        "name": "Первомайский",
        "latitude": 49.38742,
        "longitude": 36.21471
    },
    {
        "name": "Петровское",
        "latitude": 49.17695,
        "longitude": 36.89999
    },
    {
        "name": "Южное",
        "latitude": 49.88315,
        "longitude": 36.06785
    },
    {
        "name": "Покотиловка",
        "latitude": 49.91343,
        "longitude": 36.17511
    },
    {
        "name": "Прудянка",
        "latitude": 50.23606,
        "longitude": 36.16835
    },
    {
        "name": "Приколотное",
        "latitude": 50.16273,
        "longitude": 37.34524
    },
    {
        "name": "Сахновщина",
        "latitude": 49.15166,
        "longitude": 35.87198
    },
    {
        "name": "Савинцы",
        "latitude": 49.40257,
        "longitude": 37.06266
    },
    {
        "name": "Шевченково",
        "latitude": 49.69585,
        "longitude": 37.17348
    },
    {
        "name": "Слатайн",
        "latitude": 50.21041,
        "longitude": 36.15376
    },
    {
        "name": "Слобожанское",
        "latitude": 49.59701,
        "longitude": 36.52618
    },
    {
        "name": "Солоницовка",
        "latitude": 49.99682,
        "longitude": 36.03464
    },
    {
        "name": "Старый Мерчик",
        "latitude": 49.98147,
        "longitude": 35.75904
    },
    {
        "name": "Старый Салтов",
        "latitude": 50.07619,
        "longitude": 36.78852
    },
    {
        "name": "Студенок",
        "latitude": 49.09107,
        "longitude": 37.48697
    },
    {
        "name": "Уткивка",
        "latitude": 49.78583,
        "longitude": 36.07528
    },
    {
        "name": "Вальки",
        "latitude": 49.83597,
        "longitude": 35.61223
    },
    {
        "name": "Васищево",
        "latitude": 49.82852,
        "longitude": 36.32691
    },
    {
        "name": "Великий Бурлюк",
        "latitude": 50.0617,
        "longitude": 37.38373
    },
    {
        "name": "Вербовка",
        "latitude": 49.41667,
        "longitude": 35.53333
    },
    {
        "name": "Волчанск",
        "latitude": 50.29078,
        "longitude": 36.94108
    },
    {
        "name": "Введенка",
        "latitude": 49.82372,
        "longitude": 36.50264
    },
    {
        "name": "Высокий",
        "latitude": 49.89156,
        "longitude": 36.12175
    },
    {
        "name": "Зачепиловка",
        "latitude": 49.19385,
        "longitude": 35.23943
    },
    {
        "name": "Змиев",
        "latitude": 49.67453,
        "longitude": 36.34775
    },
    {
        "name": "Золочев",
        "latitude": 50.27985,
        "longitude": 35.98179
    },
    {
        "name": "Аскания-Нова",
        "latitude": 46.45135,
        "longitude": 33.86889
    },
    {
        "name": "Бехтерий",
        "latitude": 46.2479,
        "longitude": 32.29123
    },
    {
        "name": "Берислав",
        "latitude": 46.84152,
        "longitude": 33.42838
    },
    {
        "name": "Белозерка",
        "latitude": 46.6248,
        "longitude": 32.44251
    },
    {
        "name": "Бриловка",
        "latitude": 46.42476,
        "longitude": 33.14721
    },
    {
        "name": "Чаплинка",
        "latitude": 46.36507,
        "longitude": 33.54027
    },
    {
        "name": "Чернобаевка",
        "latitude": 46.69411,
        "longitude": 32.55371
    },
    {
        "name": "Чернянка",
        "latitude": 46.65222,
        "longitude": 33.35904
    },
    {
        "name": "Чулаковка",
        "latitude": 46.35763,
        "longitude": 32.3514
    },
    {
        "name": "Днепряны",
        "latitude": 46.74631,
        "longitude": 33.27288
    },
    {
        "name": "Дудчаны",
        "latitude": 47.18557,
        "longitude": 33.7639
    },
    {
        "name": "Геническ",
        "latitude": 46.17592,
        "longitude": 34.8034
    },
    {
        "name": "Генический район",
        "latitude": 46.26451,
        "longitude": 34.74488
    },
    {
        "name": "Голая Пристань",
        "latitude": 46.52719,
        "longitude": 32.52417
    },
    {
        "name": "Горностаевка",
        "latitude": 47.00777,
        "longitude": 33.72899
    },
    {
        "name": "Ивановка",
        "latitude": 46.72082,
        "longitude": 34.55298
    },
    {
        "name": "Каховка",
        "latitude": 46.81371,
        "longitude": 33.48698
    },
    {
        "name": "Каланчак",
        "latitude": 46.25623,
        "longitude": 33.2907
    },
    {
        "name": "Кайири",
        "latitude": 46.94537,
        "longitude": 33.70591
    },
    {
        "name": "Херсон",
        "latitude": 46.65581,
        "longitude": 32.6178
    },
    {
        "name": "Комышаны",
        "latitude": 46.63716,
        "longitude": 32.50719
    },
    {
        "name": "Козачи Лахери",
        "latitude": 46.70372,
        "longitude": 32.9776
    },
    {
        "name": "Красне",
        "latitude": 46.13088,
        "longitude": 32.7691
    },
    {
        "name": "Лазурное",
        "latitude": 46.084,
        "longitude": 32.52955
    },
    {
        "name": "Любимовка",
        "latitude": 46.81063,
        "longitude": 33.56862
    },
    {
        "name": "Малокаховка",
        "latitude": 46.78142,
        "longitude": 33.4479
    },
    {
        "name": "Новая Каховка",
        "latitude": 46.75451,
        "longitude": 33.34864
    },
    {
        "name": "Новая Маячка",
        "latitude": 46.59996,
        "longitude": 33.22707
    },
    {
        "name": "Новофедоровка",
        "latitude": 46.17128,
        "longitude": 32.31781
    },
    {
        "name": "Новоалексеевка",
        "latitude": 46.22472,
        "longitude": 34.64031
    },
    {
        "name": "Нововоронцовка",
        "latitude": 47.50035,
        "longitude": 33.91748
    },
    {
        "name": "Нижние Сирохозы",
        "latitude": 46.84842,
        "longitude": 34.38044
    },
    {
        "name": "Партизаны",
        "latitude": 46.33383,
        "longitude": 34.75314
    },
    {
        "name": "Раденск",
        "latitude": 46.5486,
        "longitude": 32.92787
    },
    {
        "name": "Скадовск",
        "latitude": 46.1161,
        "longitude": 32.91124
    },
    {
        "name": "Станислав",
        "latitude": 46.56909,
        "longitude": 32.14777
    },
    {
        "name": "Цюрупинск",
        "latitude": 46.61842,
        "longitude": 32.7189
    },
    {
        "name": "Большая Лепетиха",
        "latitude": 47.17572,
        "longitude": 33.94362
    },
    {
        "name": "Большая Александровка",
        "latitude": 47.31969,
        "longitude": 33.30373
    },
    {
        "name": "Великие Копани",
        "latitude": 46.48684,
        "longitude": 32.97498
    },
    {
        "name": "Верхний Рогачик",
        "latitude": 47.25053,
        "longitude": 34.33797
    },
    {
        "name": "Виноградово",
        "latitude": 46.36957,
        "longitude": 32.9398
    },
    {
        "name": "Высокополье",
        "latitude": 47.49187,
        "longitude": 33.53061
    },
    {
        "name": "Железный Порт",
        "latitude": 46.12337,
        "longitude": 32.29892
    },
    {
        "name": "Антониний",
        "latitude": 49.80974,
        "longitude": 26.87714
    },
    {
        "name": "Базалия",
        "latitude": 49.71267,
        "longitude": 26.47331
    },
    {
        "name": "Деражня",
        "latitude": 49.2692,
        "longitude": 27.43382
    },
    {
        "name": "Деражнянский район",
        "latitude": 49.22676,
        "longitude": 27.46603
    },
    {
        "name": "Дунаевцы",
        "latitude": 48.88909,
        "longitude": 26.85636
    },
    {
        "name": "Городок",
        "latitude": 49.16374,
        "longitude": 26.58394
    },
    {
        "name": "Изяслав",
        "latitude": 50.11947,
        "longitude": 26.82125
    },
    {
        "name": "Каменец-Подольский",
        "latitude": 48.6845,
        "longitude": 26.58559
    },
    {
        "name": "Хмельницкий район",
        "latitude": 49.44511,
        "longitude": 26.93268
    },
    {
        "name": "Хмельницкий",
        "latitude": 49.42161,
        "longitude": 26.99653
    },
    {
        "name": "Красилов",
        "latitude": 49.65186,
        "longitude": 26.97253
    },
    {
        "name": "Летичев",
        "latitude": 49.38263,
        "longitude": 27.63051
    },
    {
        "name": "Макив",
        "latitude": 48.79487,
        "longitude": 26.69188
    },
    {
        "name": "Меджибож",
        "latitude": 49.43748,
        "longitude": 27.40487
    },
    {
        "name": "Наркевичи",
        "latitude": 49.51717,
        "longitude": 26.64178
    },
    {
        "name": "Нетешин",
        "latitude": 50.34004,
        "longitude": 26.64171
    },
    {
        "name": "Новая Ушица",
        "latitude": 48.83716,
        "longitude": 27.27434
    },
    {
        "name": "Новоселица",
        "latitude": 50.0703,
        "longitude": 27.51955
    },
    {
        "name": "Полонное",
        "latitude": 50.12424,
        "longitude": 27.51087
    },
    {
        "name": "Понинка",
        "latitude": 50.18492,
        "longitude": 27.53629
    },
    {
        "name": "Шепетовка",
        "latitude": 50.18545,
        "longitude": 27.06365
    },
    {
        "name": "Славута",
        "latitude": 50.30155,
        "longitude": 26.86506
    },
    {
        "name": "Смотрич",
        "latitude": 48.66149,
        "longitude": 26.56031
    },
    {
        "name": "Смыга",
        "latitude": 50.2391,
        "longitude": 25.76575
    },
    {
        "name": "Стара Синява",
        "latitude": 49.60318,
        "longitude": 27.61909
    },
    {
        "name": "Староконстантинов",
        "latitude": 49.75764,
        "longitude": 27.20342
    },
    {
        "name": "Ярмолинцы",
        "latitude": 49.19236,
        "longitude": 26.83725
    },
    {
        "name": "Закупное",
        "latitude": 49.11944,
        "longitude": 26.33756
    },
    {
        "name": "Жванец",
        "latitude": 48.54968,
        "longitude": 26.48744
    },
    {
        "name": "Аджамка",
        "latitude": 48.54245,
        "longitude": 32.53542
    },
    {
        "name": "Благовещенский район",
        "latitude": 48.25,
        "longitude": 30.25
    },
    {
        "name": "Бобринец",
        "latitude": 48.05896,
        "longitude": 32.16641
    },
    {
        "name": "Дмитровка",
        "latitude": 48.7969,
        "longitude": 32.71645
    },
    {
        "name": "Добровеличковка",
        "latitude": 48.38778,
        "longitude": 31.18028
    },
    {
        "name": "Добровеличковский район",
        "latitude": 48.36935,
        "longitude": 31.16354
    },
    {
        "name": "Долинская",
        "latitude": 48.11041,
        "longitude": 32.76449
    },
    {
        "name": "Долинский район",
        "latitude": 48.16327,
        "longitude": 32.88318
    },
    {
        "name": "Хайворон",
        "latitude": 48.33958,
        "longitude": 29.86791
    },
    {
        "name": "Капитановка",
        "latitude": 48.91719,
        "longitude": 31.71671
    },
    {
        "name": "Кировоградский городок",
        "latitude": 48.52185,
        "longitude": 32.24367
    },
    {
        "name": "Компаниевка",
        "latitude": 48.25115,
        "longitude": 32.20795
    },
    {
        "name": "Кропивницкий",
        "latitude": 48.5132,
        "longitude": 32.2597
    },
    {
        "name": "Лозуватка",
        "latitude": 48.0571,
        "longitude": 33.28581
    },
    {
        "name": "Липняжка",
        "latitude": 48.44694,
        "longitude": 31.07611
    },
    {
        "name": "Малая Виска",
        "latitude": 48.64308,
        "longitude": 31.63657
    },
    {
        "name": "Маловисковский район",
        "latitude": 48.5768,
        "longitude": 31.57594
    },
    {
        "name": "Молодежное",
        "latitude": 48.17732,
        "longitude": 32.66015
    },
    {
        "name": "Новая Прага",
        "latitude": 48.56821,
        "longitude": 32.90273
    },
    {
        "name": "Новгородка",
        "latitude": 48.36506,
        "longitude": 32.65785
    },
    {
        "name": "Новоархангельск",
        "latitude": 48.65803,
        "longitude": 30.81821
    },
    {
        "name": "Новомиргород",
        "latitude": 48.78105,
        "longitude": 31.64204
    },
    {
        "name": "Новоукраинка",
        "latitude": 48.32635,
        "longitude": 31.52852
    },
    {
        "name": "Новый Стародуб",
        "latitude": 48.5158,
        "longitude": 33.17329
    },
    {
        "name": "Александровка",
        "latitude": 48.96336,
        "longitude": 32.23492
    },
    {
        "name": "Александрия",
        "latitude": 48.66961,
        "longitude": 33.11593
    },
    {
        "name": "Александрийское",
        "latitude": 48.60767,
        "longitude": 32.98347
    },
    {
        "name": "Онуфриевка",
        "latitude": 48.90716,
        "longitude": 33.44869
    },
    {
        "name": "Пантаевка",
        "latitude": 48.674,
        "longitude": 32.8841
    },
    {
        "name": "Павлыш",
        "latitude": 48.91762,
        "longitude": 33.35691
    },
    {
        "name": "Перегоновка",
        "latitude": 48.53552,
        "longitude": 30.51923
    },
    {
        "name": "Петрово",
        "latitude": 48.32467,
        "longitude": 33.25617
    },
    {
        "name": "Побугское",
        "latitude": 48.16579,
        "longitude": 30.59274
    },
    {
        "name": "Помична",
        "latitude": 48.24222,
        "longitude": 31.41583
    },
    {
        "name": "Приютовка",
        "latitude": 48.72094,
        "longitude": 33.07078
    },
    {
        "name": "Ровно",
        "latitude": 48.24742,
        "longitude": 31.75432
    },
    {
        "name": "Суботци",
        "latitude": 48.65545,
        "longitude": 32.52093
    },
    {
        "name": "Светловодск",
        "latitude": 49.04894,
        "longitude": 33.24106
    },
    {
        "name": "Тышковка",
        "latitude": 48.49665,
        "longitude": 30.94229
    },
    {
        "name": "Устиновка",
        "latitude": 47.95507,
        "longitude": 32.53674
    },
    {
        "name": "Елизаветградка",
        "latitude": 48.80381,
        "longitude": 32.4046
    },
    {
        "name": "Завалля",
        "latitude": 48.21354,
        "longitude": 30.01558
    },
    {
        "name": "Злынка",
        "latitude": 48.48521,
        "longitude": 31.53906
    },
    {
        "name": "Зноменка",
        "latitude": 48.71278,
        "longitude": 32.66472
    },
    {
        "name": "Дарницкий район",
        "latitude": 50.41333,
        "longitude": 30.69305
    },
    {
        "name": "Деснянский район",
        "latitude": 50.5355,
        "longitude": 30.60875
    },
    {
        "name": "Супонево",
        "latitude": 50.46756,
        "longitude": 30.63194
    },
    {
        "name": "Голосеевский район",
        "latitude": 50.32749,
        "longitude": 30.5674
    },
    {
        "name": "Коцюбинское",
        "latitude": 50.48836,
        "longitude": 30.32957
    },
    {
        "name": "Киев",
        "latitude": 50.45466,
        "longitude": 30.5238
    },
    {
        "name": "Печерский район",
        "latitude": 50.41902,
        "longitude": 30.56602
    },
    {
        "name": "Подольский район",
        "latitude": 50.45,
        "longitude": 30.53333
    },
    {
        "name": "Пролиский",
        "latitude": 50.39118,
        "longitude": 30.78
    },
    {
        "name": "Шевченковский район",
        "latitude": 50.43333,
        "longitude": 30.51667
    },
    {
        "name": "Соломянский район",
        "latitude": 50.42886,
        "longitude": 30.45135
    },
    {
        "name": "Святошинский район",
        "latitude": 50.48533,
        "longitude": 30.3805
    },
    {
        "name": "Барышевка",
        "latitude": 50.36098,
        "longitude": 31.32173
    },
    {
        "name": "Барышевский район",
        "latitude": 50.36919,
        "longitude": 31.34896
    },
    {
        "name": "Белая Церковь",
        "latitude": 49.80939,
        "longitude": 30.11209
    },
    {
        "name": "Белоцерковский район",
        "latitude": 49.75,
        "longitude": 30.08333
    },
    {
        "name": "Богуслав",
        "latitude": 49.54939,
        "longitude": 30.8744
    },
    {
        "name": "Бориспольский район",
        "latitude": 50.3345,
        "longitude": 31.0247
    },
    {
        "name": "Бородянка",
        "latitude": 50.64484,
        "longitude": 29.9201
    },
    {
        "name": "Бородянский район",
        "latitude": 50.65889,
        "longitude": 29.88556
    },
    {
        "name": "Борова",
        "latitude": 50.17625,
        "longitude": 30.10429
    },
    {
        "name": "Борисполь",
        "latitude": 50.35269,
        "longitude": 30.95501
    },
    {
        "name": "Боярка",
        "latitude": 50.31911,
        "longitude": 30.29728
    },
    {
        "name": "Бровары",
        "latitude": 50.51809,
        "longitude": 30.80671
    },
    {
        "name": "Броварской район",
        "latitude": 50.58333,
        "longitude": 31.0
    },
    {
        "name": "Буча",
        "latitude": 50.54345,
        "longitude": 30.21201
    },
    {
        "name": "Чабани",
        "latitude": 50.34071,
        "longitude": 30.42356
    },
    {
        "name": "Черняховка",
        "latitude": 50.21882,
        "longitude": 31.93082
    },
    {
        "name": "Даймер",
        "latitude": 50.78647,
        "longitude": 30.3026
    },
    {
        "name": "Фастов",
        "latitude": 50.0767,
        "longitude": 29.9177
    },
    {
        "name": "Фастовский район",
        "latitude": 50.08333,
        "longitude": 30.0
    },
    {
        "name": "Хлеваха",
        "latitude": 50.27423,
        "longitude": 30.32706
    },
    {
        "name": "Гнидынь",
        "latitude": 50.32899,
        "longitude": 30.71059
    },
    {
        "name": "Горенька",
        "latitude": 50.55731,
        "longitude": 30.33217
    },
    {
        "name": "Гостомель",
        "latitude": 50.56841,
        "longitude": 30.2651
    },
    {
        "name": "Ирпень",
        "latitude": 50.52175,
        "longitude": 30.25055
    },
    {
        "name": "Ирпинский городок",
        "latitude": 50.51585,
        "longitude": 30.24099
    },
    {
        "name": "Иванков",
        "latitude": 50.93865,
        "longitude": 29.89426
    },
    {
        "name": "Иванковский район",
        "latitude": 51.0,
        "longitude": 29.91667
    },
    {
        "name": "Кагарлык",
        "latitude": 49.86233,
        "longitude": 30.82815
    },
    {
        "name": "Кагарлыкский район",
        "latitude": 49.91667,
        "longitude": 30.75
    },
    {
        "name": "Калиново",
        "latitude": 49.38179,
        "longitude": 30.45137
    },
    {
        "name": "Karapyshi",
        "latitude": 49.64237,
        "longitude": 30.79002
    },
    {
        "name": "Катюжанка",
        "latitude": 50.80595,
        "longitude": 30.13763
    },
    {
        "name": "Хотив",
        "latitude": 50.33069,
        "longitude": 30.46836
    },
    {
        "name": "Кирово",
        "latitude": 50.3689,
        "longitude": 31.12066
    },
    {
        "name": "Клавдиево-Тарасово",
        "latitude": 50.58416,
        "longitude": 30.01134
    },
    {
        "name": "Княжичи",
        "latitude": 50.46275,
        "longitude": 30.78369
    },
    {
        "name": "Кодра",
        "latitude": 50.59488,
        "longitude": 29.55873
    },
    {
        "name": "Корниевка",
        "latitude": 50.41661,
        "longitude": 31.46261
    },
    {
        "name": "Кожанка",
        "latitude": 49.97231,
        "longitude": 29.76424
    },
    {
        "name": "Красятичи",
        "latitude": 51.07636,
        "longitude": 29.64899
    },
    {
        "name": "Крюковщина",
        "latitude": 50.37153,
        "longitude": 30.36861
    },
    {
        "name": "Кривая Гора",
        "latitude": 51.38495,
        "longitude": 30.19978
    },
    {
        "name": "Киево-Святошинский район",
        "latitude": 50.3853,
        "longitude": 30.23129
    },
    {
        "name": "Liutizh",
        "latitude": 50.6835,
        "longitude": 30.39324
    },
    {
        "name": "Макаров",
        "latitude": 50.46408,
        "longitude": 29.81128
    },
    {
        "name": "Макаровский район",
        "latitude": 50.5,
        "longitude": 29.75
    },
    {
        "name": "Мировка",
        "latitude": 49.93126,
        "longitude": 30.62309
    },
    {
        "name": "Мотовиловка",
        "latitude": 50.15821,
        "longitude": 30.07421
    },
    {
        "name": "Мироновка",
        "latitude": 49.66007,
        "longitude": 30.98225
    },
    {
        "name": "Новые Петровцы",
        "latitude": 50.62754,
        "longitude": 30.4431
    },
    {
        "name": "Обухов",
        "latitude": 50.10689,
        "longitude": 30.61848
    },
    {
        "name": "Обуховский район",
        "latitude": 50.16667,
        "longitude": 30.66667
    },
    {
        "name": "Обуховский городок",
        "latitude": 50.11425,
        "longitude": 30.63293
    },
    {
        "name": "Переяслав-Хмельницкий",
        "latitude": 50.06739,
        "longitude": 31.44969
    },
    {
        "name": "Переяслав-Хмельницкий район",
        "latitude": 50.08333,
        "longitude": 31.5
    },
    {
        "name": "Писковка",
        "latitude": 50.69378,
        "longitude": 29.61934
    },
    {
        "name": "Погреби",
        "latitude": 50.55453,
        "longitude": 30.64455
    },
    {
        "name": "Пуховка",
        "latitude": 50.6097,
        "longitude": 30.7177
    },
    {
        "name": "Рокитное",
        "latitude": 49.68665,
        "longitude": 30.47384
    },
    {
        "name": "Рокитненский район",
        "latitude": 49.75,
        "longitude": 30.5
    },
    {
        "name": "Роскошный",
        "latitude": 49.37087,
        "longitude": 30.18471
    },
    {
        "name": "Ржищев",
        "latitude": 49.96886,
        "longitude": 31.04628
    },
    {
        "name": "Семиполки",
        "latitude": 50.72627,
        "longitude": 30.93441
    },
    {
        "name": "Сквира",
        "latitude": 49.73177,
        "longitude": 29.66569
    },
    {
        "name": "Сквирский район",
        "latitude": 49.74177,
        "longitude": 29.70043
    },
    {
        "name": "Славутич",
        "latitude": 51.5225,
        "longitude": 30.71806
    },
    {
        "name": "Софиевская Борщаговка",
        "latitude": 50.41005,
        "longitude": 30.36724
    },
    {
        "name": "Ставище",
        "latitude": 49.39124,
        "longitude": 30.19022
    },
    {
        "name": "Стайки",
        "latitude": 50.07818,
        "longitude": 30.9038
    },
    {
        "name": "Тараща",
        "latitude": 49.55832,
        "longitude": 30.49259
    },
    {
        "name": "Тетиев",
        "latitude": 49.3767,
        "longitude": 29.66474
    },
    {
        "name": "Требухов",
        "latitude": 50.48432,
        "longitude": 30.90304
    },
    {
        "name": "Триполье",
        "latitude": 50.11802,
        "longitude": 30.78141
    },
    {
        "name": "Цыбли",
        "latitude": 49.99484,
        "longitude": 31.56281
    },
    {
        "name": "Украинка",
        "latitude": 50.14317,
        "longitude": 30.74612
    },
    {
        "name": "Узын",
        "latitude": 49.82619,
        "longitude": 30.41487
    },
    {
        "name": "Васильков",
        "latitude": 50.18693,
        "longitude": 30.31346
    },
    {
        "name": "Васильковский район",
        "latitude": 50.16667,
        "longitude": 30.33333
    },
    {
        "name": "Большая Дымерка",
        "latitude": 50.59333,
        "longitude": 30.90313
    },
    {
        "name": "Володарка",
        "latitude": 49.52484,
        "longitude": 29.91222
    },
    {
        "name": "Воронков",
        "latitude": 50.22235,
        "longitude": 30.89967
    },
    {
        "name": "Ворзель",
        "latitude": 50.5444,
        "longitude": 30.15305
    },
    {
        "name": "Вышгородский район",
        "latitude": 50.58333,
        "longitude": 30.5
    },
    {
        "name": "Вышгород",
        "latitude": 50.58476,
        "longitude": 30.4898
    },
    {
        "name": "Вишневое",
        "latitude": 50.38913,
        "longitude": 30.3705
    },
    {
        "name": "Высокиничи",
        "latitude": 50.27975,
        "longitude": 31.76246
    },
    {
        "name": "Яготинский район",
        "latitude": 50.25722,
        "longitude": 31.89456
    },
    {
        "name": "З·гуровский район",
        "latitude": 50.47192,
        "longitude": 31.79423
    },
    {
        "name": "Згуровка",
        "latitude": 50.50276,
        "longitude": 31.78492
    },
    {
        "name": "Алчевск",
        "latitude": 48.46893,
        "longitude": 38.81669
    },
    {
        "name": "Алчевский городок",
        "latitude": 48.48029,
        "longitude": 38.7969
    },
    {
        "name": "Антрацит",
        "latitude": 48.11503,
        "longitude": 39.09128
    },
    {
        "name": "Антрацитовский район",
        "latitude": 48.1245,
        "longitude": 39.05683
    },
    {
        "name": "Артемовск",
        "latitude": 48.44061,
        "longitude": 38.732
    },
    {
        "name": "Байрачки",
        "latitude": 48.392,
        "longitude": 38.60174
    },
    {
        "name": "желчь",
        "latitude": 48.49523,
        "longitude": 39.05051
    },
    {
        "name": "Белогоровка",
        "latitude": 48.92503,
        "longitude": 38.24822
    },
    {
        "name": "Белокуракине",
        "latitude": 49.5341,
        "longitude": 38.73067
    },
    {
        "name": "Беловодск",
        "latitude": 49.20846,
        "longitude": 39.58975
    },
    {
        "name": "Бирюково",
        "latitude": 47.95631,
        "longitude": 39.73843
    },
    {
        "name": "Брянка",
        "latitude": 48.511,
        "longitude": 38.67222
    },
    {
        "name": "Буран",
        "latitude": 48.30003,
        "longitude": 39.61526
    },
    {
        "name": "Червонопартизанск",
        "latitude": 48.07613,
        "longitude": 39.79618
    },
    {
        "name": "Чернухино",
        "latitude": 48.32339,
        "longitude": 38.52272
    },
    {
        "name": "Довжанский район",
        "latitude": 48.0,
        "longitude": 39.66667
    },
    {
        "name": "Гирское",
        "latitude": 48.73468,
        "longitude": 38.49541
    },
    {
        "name": "Кадиевка",
        "latitude": 48.56818,
        "longitude": 38.64352
    },