[
    {
        "name": "Аделаида",
        "latitude": -32.70747,
        "longitude": 26.29564
    },
    {
        "name": "Муниципалитет района Альфред Нзо",
        "latitude": -30.66803,
        "longitude": 29.1549
    },
    {
        "name": "Алиса",
        "latitude": -32.78749,
        "longitude": 26.8344
    },
    {
        "name": "Аливал Норт",
        "latitude": -30.69366,
        "longitude": 26.71141
    },
    {
        "name": "Муниципалитет района Аматхоле",
        "latitude": -32.55895,
        "longitude": 27.45919
    },
    {
        "name": "Бхишо",
        "latitude": -32.84721,
        "longitude": 27.44218
    },
    {
        "name": "Муниципалитет Буффало-Сити",
        "latitude": -32.95141,
        "longitude": 27.61164
    },
    {
        "name": "Бургерсдорп",
        "latitude": -30.99766,
        "longitude": 26.32862
    },
    {
        "name": "Баттерворт",
        "latitude": -32.33083,
        "longitude": 28.14981
    },
    {
        "name": "Муниципалитет района Какаду",
        "latitude": -33.06583,
        "longitude": 24.77583
    },
    {
        "name": "Муниципалитет района Крис-Хани",
        "latitude": -31.79033,
        "longitude": 26.43965
    },
    {
        "name": "Крэдок",
        "latitude": -32.16422,
        "longitude": 25.61918
    },
    {
        "name": "Дордрехт",
        "latitude": -31.372,
        "longitude": 27.04878
    },
    {
        "name": "Восточный Лондон",
        "latitude": -33.01529,
        "longitude": 27.91162
    },
    {
        "name": "Эллиот",
        "latitude": -31.33333,
        "longitude": 27.85
    },
    {
        "name": "Форт Бофорт",
        "latitude": -32.77477,
        "longitude": 26.63376
    },
    {
        "name": "Грааф-Рейне",
        "latitude": -32.25215,
        "longitude": 24.53075
    },
    {
        "name": "Грэмстаун",
        "latitude": -33.30422,
        "longitude": 26.53276
    },
    {
        "name": "Эксперимент",
        "latitude": -31.97676,
        "longitude": 27.04267
    },
    {
        "name": "Муниципалитет района Джо Гкаби",
        "latitude": -30.94178,
        "longitude": 27.06053
    },
    {
        "name": "Кирквуд",
        "latitude": -33.39829,
        "longitude": 25.44279
    },
    {
        "name": "Круисфонтейн",
        "latitude": -34.00333,
        "longitude": 24.73142
    },
    {
        "name": "Леди Фрер",
        "latitude": -31.70312,
        "longitude": 27.2329
    },
    {
        "name": "Мидделбург",
        "latitude": -31.49285,
        "longitude": 25.00633
    },
    {
        "name": "Молтено",
        "latitude": -31.39675,
        "longitude": 26.36246
    },
    {
        "name": "Мтата",
        "latitude": -31.58893,
        "longitude": 28.78443
    },
    {
        "name": "Муниципалитет Нельсона Манделы Бэй",
        "latitude": -33.80399,
        "longitude": 25.49213
    },
    {
        "name": "ИЛИ Муниципалитет района Тамбо",
        "latitude": -31.4674,
        "longitude": 29.05247
    },
    {
        "name": "Порт-Альфред",
        "latitude": -33.58601,
        "longitude": 26.88329
    },
    {
        "name": "Порт-Элизабет",
        "latitude": -33.96109,
        "longitude": 25.61494
    },
    {
        "name": "Порт-Сент-Джонс",
        "latitude": -31.62291,
        "longitude": 29.54477
    },
    {
        "name": "Квинсдейл",
        "latitude": -31.87101,
        "longitude": 26.97862
    },
    {
        "name": "Квинстаун",
        "latitude": -31.89756,
        "longitude": 26.87533
    },
    {
        "name": "Сомерсет Ист",
        "latitude": -32.72173,
        "longitude": 25.58804
    },
    {
        "name": "Штуттерхайм",
        "latitude": -32.57076,
        "longitude": 27.42396
    },
    {
        "name": "Уитенхаге",
        "latitude": -33.75757,
        "longitude": 25.3971
    },
    {
        "name": "Уиттлси",
        "latitude": -32.17588,
        "longitude": 26.82437
    },
    {
        "name": "Уиллоумор",
        "latitude": -33.29265,
        "longitude": 23.48954
    },
    {
        "name": "Алланридж",
        "latitude": -27.75431,
        "longitude": 26.64382
    },
    {
        "name": "Вифлеем",
        "latitude": -28.23078,
        "longitude": 28.30707
    },
    {
        "name": "Блумфонтейн",
        "latitude": -29.12107,
        "longitude": 26.214
    },
    {
        "name": "Ботавилль",
        "latitude": -27.3887,
        "longitude": 26.61701
    },
    {
        "name": "Ботшабело",
        "latitude": -29.26737,
        "longitude": 26.72595
    },
    {
        "name": "Бренд Форт",
        "latitude": -28.70008,
        "longitude": 26.45968
    },
    {
        "name": "Клоколан",
        "latitude": -28.91367,
        "longitude": 27.56555
    },
    {
        "name": "Денисвилл",
        "latitude": -26.8908,
        "longitude": 28.09707
    },
    {
        "name": "Муниципалитет района Фезиле-Даби",
        "latitude": -27.33918,
        "longitude": 27.71927
    },
    {
        "name": "Франкфурт",
        "latitude": -27.27888,
        "longitude": 28.49696
    },
    {
        "name": "Гаррисмит",
        "latitude": -28.27276,
        "longitude": 29.12946
    },
    {
        "name": "источник исцеления",
        "latitude": -27.28115,
        "longitude": 27.9709
    },
    {
        "name": "Хеннеман",
        "latitude": -27.97654,
        "longitude": 27.02423
    },
    {
        "name": "город надежды",
        "latitude": -27.83273,
        "longitude": 25.90833
    },
    {
        "name": "Кубки",
        "latitude": -27.24179,
        "longitude": 27.57422
    },
    {
        "name": "Краун-Сити",
        "latitude": -27.65036,
        "longitude": 27.23488
    },
    {
        "name": "В гармонии",
        "latitude": -27.83333,
        "longitude": 26.75
    },
    {
        "name": "Ледибранд",
        "latitude": -29.19448,
        "longitude": 27.45739
    },
    {
        "name": "Муниципалитет Лейвелепутского района",
        "latitude": -28.23982,
        "longitude": 26.12649
    },
    {
        "name": "Линдли",
        "latitude": -27.8791,
        "longitude": 27.91348
    },
    {
        "name": "Столичный муниципалитет Мангаунг",
        "latitude": -29.15627,
        "longitude": 26.35116
    },
    {
        "name": "Марквардт",
        "latitude": -28.66449,
        "longitude": 27.43048
    },
    {
        "name": "Париж",
        "latitude": -26.9033,
        "longitude": 27.45727
    },
    {
        "name": "Пхутадитжхаба",
        "latitude": -28.52423,
        "longitude": 28.81582
    },
    {
        "name": "Райц",
        "latitude": -27.80138,
        "longitude": 28.42726
    },
    {
        "name": "Сасольбург",
        "latitude": -26.81358,
        "longitude": 27.81695
    },
    {
        "name": "Сенекаль",
        "latitude": -28.31971,
        "longitude": 27.62082
    },
    {
        "name": "Гора Нчу",
        "latitude": -29.20932,
        "longitude": 26.83898
    },
    {
        "name": "Муниципалитет бедного района Табо",
        "latitude": -28.24378,
        "longitude": 28.34077
    },
    {
        "name": "Теуниссен",
        "latitude": -28.41098,
        "longitude": 26.70107
    },
    {
        "name": "Вентерсбург",
        "latitude": -28.08561,
        "longitude": 27.13814
    },
    {
        "name": "Вильоэнскрон",
        "latitude": -27.20841,
        "longitude": 26.94855
    },
    {
        "name": "Вильерс",
        "latitude": -27.03026,
        "longitude": 28.60061
    },
    {
        "name": "Вирджиния",
        "latitude": -28.10391,
        "longitude": 26.86593
    },
    {
        "name": "Мир",
        "latitude": -27.42573,
        "longitude": 29.16585
    },
    {
        "name": "Форт Мира",
        "latitude": -27.00805,
        "longitude": 27.3646
    },
    {
        "name": "Добро пожаловать",
        "latitude": -27.97742,
        "longitude": 26.73506
    },
    {
        "name": "Вессельсброн",
        "latitude": -27.8549,
        "longitude": 26.36583
    },
    {
        "name": "Винбург",
        "latitude": -28.51805,
        "longitude": 27.00933
    },
    {
        "name": "Муниципалитет Харипского района",
        "latitude": -29.84311,
        "longitude": 25.83286
    },
    {
        "name": "Застрон",
        "latitude": -30.30225,
        "longitude": 27.08395
    },
    {
        "name": "Альбертон",
        "latitude": -26.26786,
        "longitude": 28.12225
    },
    {
        "name": "Бенони",
        "latitude": -26.18848,
        "longitude": 28.32078
    },
    {
        "name": "Боксбург",
        "latitude": -26.21197,
        "longitude": 28.25958
    },
    {
        "name": "Солоноватая кастрюля",
        "latitude": -26.23656,
        "longitude": 28.36938
    },
    {
        "name": "Бронкхорстспрут",
        "latitude": -25.81015,
        "longitude": 28.74248
    },
    {
        "name": "Карлтонвилл",
        "latitude": -26.36094,
        "longitude": 27.39767
    },
    {
        "name": "Центурион",
        "latitude": -25.85891,
        "longitude": 28.18577
    },
    {
        "name": "Муниципалитет города Йоханнесбург",
        "latitude": -26.17673,
        "longitude": 27.96353
    },
    {
        "name": "Муниципалитет города Цване",
        "latitude": -25.65985,
        "longitude": 28.44343
    },
    {
        "name": "Куллинан",
        "latitude": -25.67088,
        "longitude": 28.52364
    },
    {
        "name": "Дипслот",
        "latitude": -25.93312,
        "longitude": 28.01213
    },
    {
        "name": "Истли",
        "latitude": -26.12965,
        "longitude": 28.15541
    },
    {
        "name": "Иден Глен",
        "latitude": -26.1323,
        "longitude": 28.16859
    },
    {
        "name": "Иден Глен Экст 60",
        "latitude": -26.12593,
        "longitude": 28.165
    },
    {
        "name": "Эденвейл",
        "latitude": -26.14095,
        "longitude": 28.15247
    },
    {
        "name": "Экагала",
        "latitude": -25.69619,
        "longitude": 28.74918
    },
    {
        "name": "Муниципалитет Экурхулени",
        "latitude": -26.1989,
        "longitude": 28.31262
    },
    {
        "name": "Гейдельберг",
        "latitude": -26.50476,
        "longitude": 28.35921
    },
    {
        "name": "Йоханнесбург",
        "latitude": -26.20227,
        "longitude": 28.04363
    },
    {
        "name": "Крюгерсдорп",
        "latitude": -26.08577,
        "longitude": 27.77515
    },
    {
        "name": "Мабопане",
        "latitude": -25.49768,
        "longitude": 28.10065
    },
    {
        "name": "средний край",
        "latitude": -25.98953,
        "longitude": 28.12843
    },
    {
        "name": "Мидстрим",
        "latitude": -25.91849,
        "longitude": 28.19881
    },
    {
        "name": "Грязевой фонтан",
        "latitude": -26.08909,
        "longitude": 28.16534
    },
    {
        "name": "Малдерсдриселуп",
        "latitude": -26.03673,
        "longitude": 27.83798
    },
    {
        "name": "Найджел",
        "latitude": -26.43138,
        "longitude": 28.47713
    },
    {
        "name": "Оранжевая ферма",
        "latitude": -26.48333,
        "longitude": 27.86667
    },
    {
        "name": "Претория",
        "latitude": -25.74486,
        "longitude": 28.18783
    },
    {
        "name": "Рандбург",
        "latitude": -26.0941,
        "longitude": 28.00123
    },
    {
        "name": "Рандфонтейн",
        "latitude": -26.1844,
        "longitude": 27.70203
    },
    {
        "name": "Рудепорт",
        "latitude": -26.1625,
        "longitude": 27.8725
    },
    {
        "name": "Муниципалитет района Седибенг",
        "latitude": -26.56686,
        "longitude": 28.18277
    },
    {
        "name": "Соуэто",
        "latitude": -26.26781,
        "longitude": 27.85849
    },
    {
        "name": "Пружины",
        "latitude": -26.25,
        "longitude": 28.4
    },
    {
        "name": "Поверьте мне",
        "latitude": -25.99636,
        "longitude": 28.2268
    },
    {
        "name": "Вандербейлпарк",
        "latitude": -26.71171,
        "longitude": 27.83795
    },
    {
        "name": "Ассоциация",
        "latitude": -26.67313,
        "longitude": 27.92615
    },
    {
        "name": "Муниципалитет округа Вест-Рэнд",
        "latitude": -26.24565,
        "longitude": 27.55538
    },
    {
        "name": "Вестонария",
        "latitude": -26.31905,
        "longitude": 27.6486
    },
    {
        "name": "Муниципалитет района Амахуба",
        "latitude": -27.73558,
        "longitude": 30.13537
    },
    {
        "name": "Баллито",
        "latitude": -29.53897,
        "longitude": 31.21439
    },
    {
        "name": "Верия",
        "latitude": -29.85185,
        "longitude": 30.99337
    },
    {
        "name": "Данди",
        "latitude": -28.16678,
        "longitude": 30.23371
    },
    {
        "name": "Дурбан",
        "latitude": -29.8579,
        "longitude": 31.0292
    },
    {
        "name": "В пробуждении",
        "latitude": -28.46752,
        "longitude": 30.15513
    },
    {
        "name": "в Мхомази",
        "latitude": -30.20674,
        "longitude": 30.79776
    },
    {
        "name": "В добыче",
        "latitude": -28.76197,
        "longitude": 31.89329
    },
    {
        "name": "Он появился",
        "latitude": -28.88649,
        "longitude": 31.4699
    },
    {
        "name": "в космосе",
        "latitude": -28.87097,
        "longitude": 31.89961
    },
    {
        "name": "Муниципалитет этеквини",
        "latitude": -29.8667,
        "longitude": 31.0167
    },
    {
        "name": "Гленко",
        "latitude": -28.17827,
        "longitude": 30.14702
    },
    {
        "name": "Грейтаун",
        "latitude": -29.06415,
        "longitude": 30.59279
    },
    {
        "name": "Быть поверженным",
        "latitude": -28.01895,
        "longitude": 32.26762
    },
    {
        "name": "Хоуик",
        "latitude": -29.47795,
        "longitude": 30.23057
    },
    {
        "name": "Муниципалитет района Лембе",
        "latitude": -29.27326,
        "longitude": 31.14253
    },
    {
        "name": "Кокстад",
        "latitude": -30.54723,
        "longitude": 29.42412
    },
    {
        "name": "В Дукудза",
        "latitude": -29.32816,
        "longitude": 31.28954
    },
    {
        "name": "Маргейт",
        "latitude": -30.8636,
        "longitude": 30.37052
    },
    {
        "name": "Мондло",
        "latitude": -27.98299,
        "longitude": 30.71769
    },
    {
        "name": "Река Муи",
        "latitude": -29.20824,
        "longitude": 29.9946
    },
    {
        "name": "Мне жаль",
        "latitude": -29.56822,
        "longitude": 30.18618
    },
    {
        "name": "Мпумаланга",
        "latitude": -29.81292,
        "longitude": 30.63646
    },
    {
        "name": "Мтубатуба",
        "latitude": -28.41789,
        "longitude": 32.18483
    },
    {
        "name": "я уже в пути",
        "latitude": -29.51686,
        "longitude": 30.92687
    },
    {
        "name": "Ньюкасл",
        "latitude": -27.75796,
        "longitude": 29.9318
    },
    {
        "name": "Питермарицбург",
        "latitude": -29.61679,
        "longitude": 30.39278
    },
    {
        "name": "Порт-Шепстон",
        "latitude": -30.74137,
        "longitude": 30.45499
    },
    {
        "name": "Ричардс Бэй",
        "latitude": -28.78301,
        "longitude": 32.03768
    },
    {
        "name": "Ричмонд",
        "latitude": -29.87196,
        "longitude": 30.27235
    },
    {
        "name": "Скоттбург",
        "latitude": -30.28666,
        "longitude": 30.75316
    },
    {
        "name": "Муниципалитет Сисонкского района",
        "latitude": -30.11082,
        "longitude": 29.66009
    },
    {
        "name": "сундумбили",
        "latitude": -29.13371,
        "longitude": 31.39752
    },
    {
        "name": "Муниципалитет Угуского района",
        "latitude": -30.54365,
        "longitude": 30.2748
    },
    {
        "name": "Вы ждете",
        "latitude": -28.33523,
        "longitude": 31.41617
    },
    {
        "name": "Питермарицбург",
        "latitude": -29.50927,
        "longitude": 30.19838
    },
    {
        "name": "Муниципалитет Мханьякудского района",
        "latitude": -27.62236,
        "longitude": 32.32945
    },
    {
        "name": "Муниципалитет района Мзиньяти",
        "latitude": -28.5857,
        "longitude": 30.55883
    },
    {
        "name": "Муниципалитет района Тукела",
        "latitude": -28.7192,
        "longitude": 29.65799
    },
    {
        "name": "Муниципалитет района Тунгулу",
        "latitude": -28.70046,
        "longitude": 31.51527
    },
    {
        "name": "Утрехт",
        "latitude": -27.65862,
        "longitude": 30.32166
    },
    {
        "name": "Свобода",
        "latitude": -27.76952,
        "longitude": 30.79165
    },
    {
        "name": "Муниципалитет округа Зулуленд",
        "latitude": -27.81139,
        "longitude": 31.29426
    },
    {
        "name": "Бохум",
        "latitude": -23.28609,
        "longitude": 29.13964
    },
    {
        "name": "Муниципалитет района Козерог",
        "latitude": -23.48163,
        "longitude": 29.1835
    },
    {
        "name": "Дьявольское ущелье",
        "latitude": -23.69339,
        "longitude": 30.14002
    },
    {
        "name": "Га-Кгапане",
        "latitude": -23.64378,
        "longitude": 30.22324
    },
    {
        "name": "Гияни",
        "latitude": -23.30246,
        "longitude": 30.71868
    },
    {
        "name": "Лебовакгомо",
        "latitude": -24.2,
        "longitude": 29.5
    },
    {
        "name": "Луи Тришардт",
        "latitude": -23.04385,
        "longitude": 29.90319
    },
    {
        "name": "Манкоенг",
        "latitude": -23.9,
        "longitude": 29.81667
    },
    {
        "name": "Мод кроты",
        "latitude": -24.7,
        "longitude": 28.4
    },
    {
        "name": "Мокопане",
        "latitude": -24.19436,
        "longitude": 29.00974
    },
    {
        "name": "Муниципалитет района Мопани",
        "latitude": -23.76661,
        "longitude": 30.836
    },
    {
        "name": "Никто",
        "latitude": -22.34881,
        "longitude": 30.04074
    },
    {
        "name": "Нковакова",
        "latitude": -23.88782,
        "longitude": 30.28708
    },
    {
        "name": "Это обсуждалось",
        "latitude": -23.94299,
        "longitude": 31.14107
    },
    {
        "name": "Полокване",
        "latitude": -23.90449,
        "longitude": 29.46885
    },
    {
        "name": "Муниципалитет Сехухунского района",
        "latitude": -24.82806,
        "longitude": 29.83803
    },
    {
        "name": "Радуйтесь",
        "latitude": -24.59165,
        "longitude": 27.41155
    },
    {
        "name": "Тохоянду",
        "latitude": -22.94564,
        "longitude": 30.48497
    },
    {
        "name": "Туламахаши",
        "latitude": -24.72459,
        "longitude": 31.19939
    },
    {
        "name": "Тзанин",
        "latitude": -23.83322,
        "longitude": 30.16351
    },
    {
        "name": "Муниципалитет района Вембе",
        "latitude": -22.75467,
        "longitude": 30.1936
    },
    {
        "name": "Теплые ванны",
        "latitude": -24.88333,
        "longitude": 28.28333
    },
    {
        "name": "Муниципалитет района Ватерберг",
        "latitude": -24.20514,
        "longitude": 27.9787
    },
    {
        "name": "Бальфур",
        "latitude": -26.66331,
        "longitude": 28.59016
    },
    {
        "name": "Барбертон",
        "latitude": -25.78842,
        "longitude": 31.05319
    },
    {
        "name": "Белфаст",
        "latitude": -25.68991,
        "longitude": 30.03504
    },
    {
        "name": "Бетал",
        "latitude": -26.45794,
        "longitude": 29.46553
    },
    {
        "name": "Брейтен",
        "latitude": -26.30176,
        "longitude": 29.98696
    },
    {
        "name": "Каролина",
        "latitude": -26.06927,
        "longitude": 30.11489
    },
    {
        "name": "Дельмас",
        "latitude": -26.1466,
        "longitude": 28.68322
    },
    {
        "name": "Дрифонтейн",
        "latitude": -27.0177,
        "longitude": 30.44979
    },
    {
        "name": "Эланзенский район",
        "latitude": -25.351,
        "longitude": 31.361
    },
    {
        "name": "ЭМбаленхле",
        "latitude": -26.53333,
        "longitude": 29.06667
    },
    {
        "name": "Эрмело",
        "latitude": -26.53333,
        "longitude": 29.98333
    },
    {
        "name": "Муниципалитет округа Герт-Сибанде",
        "latitude": -26.671,
        "longitude": 29.92953
    },
    {
        "name": "Хендрина",
        "latitude": -26.15881,
        "longitude": 29.71528
    },
    {
        "name": "Коматипоорт",
        "latitude": -25.43321,
        "longitude": 31.95478
    },
    {
        "name": "Петух",
        "latitude": -26.27391,
        "longitude": 29.2253
    },
    {
        "name": "Лиденбург",
        "latitude": -25.09598,
        "longitude": 30.44393
    },
    {
        "name": "Мидделбург",
        "latitude": -25.77507,
        "longitude": 29.46482
    },
    {
        "name": "Нельспрут",
        "latitude": -25.47448,
        "longitude": 30.97033
    },
    {
        "name": "Муниципалитет района Нкангала",
        "latitude": -25.71222,
        "longitude": 29.42431
    },
    {
        "name": "Пит Ретиф",
        "latitude": -27.00706,
        "longitude": 30.81323
    },
    {
        "name": "Второй",
        "latitude": -26.55,
        "longitude": 29.16667
    },
    {
        "name": "Сиябусва",
        "latitude": -25.11319,
        "longitude": 29.04454
    },
    {
        "name": "Стандарттон",
        "latitude": -26.93366,
        "longitude": 29.24152
    },
    {
        "name": "Народный мир",
        "latitude": -27.36541,
        "longitude": 29.88175
    },
    {
        "name": "Белая река",
        "latitude": -25.33177,
        "longitude": 31.01166
    },
    {
        "name": "белый диван",
        "latitude": -25.87133,
        "longitude": 29.23323
    },
    {
        "name": "Блумхоф",
        "latitude": -27.64685,
        "longitude": 25.60697
    },
    {
        "name": "Муниципалитет района Божанала Платинум",
        "latitude": -25.42612,
        "longitude": 27.2243
    },
    {
        "name": "Британцы",
        "latitude": -25.63473,
        "longitude": 27.78022
    },
    {
        "name": "Кристиана",
        "latitude": -27.91402,
        "longitude": 25.16111
    },
    {
        "name": "Д-р Кеннет Муниципалитет округа Каунда",
        "latitude": -26.80678,
        "longitude": 26.56926
    },
    {
        "name": "Доктор Рут Сегомоци - Лучшее от доктора Рут Сегомоци",
        "latitude": -26.63765,
        "longitude": 24.27462
    },
    {
        "name": "Фошвилль",
        "latitude": -26.48862,
        "longitude": 27.49387
    },
    {
        "name": "Га-Ранкува",
        "latitude": -25.61692,
        "longitude": 27.99471
    },
    {
        "name": "Ян Кемпдорп",
        "latitude": -27.92246,
        "longitude": 24.83051
    },
    {
        "name": "Клерксдорп",
        "latitude": -26.85213,
        "longitude": 26.66672
    },
    {
        "name": "Костер",
        "latitude": -25.86301,
        "longitude": 26.89756
    },
    {
        "name": "Лихтенбург",
        "latitude": -26.152,
        "longitude": 26.15968
    },
    {
        "name": "Махикенг",
        "latitude": -25.86522,
        "longitude": 25.64421
    },
    {
        "name": "Почта",
        "latitude": -25.44152,
        "longitude": 27.28165
    },
    {
        "name": "Одежда",
        "latitude": -25.85,
        "longitude": 25.63333
    },
    {
        "name": "Муниципалитет района доктора Модири Молема",
        "latitude": -25.95559,
        "longitude": 25.80782
    },
    {
        "name": "Оркнейские острова",
        "latitude": -26.98023,
        "longitude": 26.67272
    },
    {
        "name": "Почефструм",
        "latitude": -26.71667,
        "longitude": 27.1
    },
    {
        "name": "Рюстенбург",
        "latitude": -25.66756,
        "longitude": 27.24208
    },
    {
        "name": "Швейцарский Ренеке",
        "latitude": -27.18871,
        "longitude": 25.32931
    },
    {
        "name": "Стилфонтейн",
        "latitude": -26.84493,
        "longitude": 26.76829
    },
    {
        "name": "Фрибург",
        "latitude": -26.95659,
        "longitude": 24.7284
    },
    {
        "name": "Вольмарансстад",
        "latitude": -27.1974,
        "longitude": 25.98311
    },
    {
        "name": "Морское спокойствие",
        "latitude": -25.53695,
        "longitude": 26.07512
    },
    {
        "name": "Баркли Уэст",
        "latitude": -28.53537,
        "longitude": 24.52151
    },
    {
        "name": "Брандвлей",
        "latitude": -30.46532,
        "longitude": 20.48659
    },
    {
        "name": "Кальвиния",
        "latitude": -31.47069,
        "longitude": 19.77601
    },
    {
        "name": "Карнарвон",
        "latitude": -30.96827,
        "longitude": 22.13303
    },
    {
        "name": "Колесберг",
        "latitude": -30.71999,
        "longitude": 25.09718
    },
    {
        "name": "Убежище Дэниела",
        "latitude": -28.18873,
        "longitude": 23.53951
    },
    {
        "name": "Аар",
        "latitude": -30.64966,
        "longitude": 24.0123
    },
    {
        "name": "Муниципалитет округа Фрэнсис Баард",
        "latitude": -28.30003,
        "longitude": 24.38188
    },
    {
        "name": "Фрейзербург",
        "latitude": -31.91566,
        "longitude": 21.51335
    },
    {
        "name": "Муниципалитет района Джон Таоло Гаетсеве",
        "latitude": -27.04549,
        "longitude": 23.04706
    },
    {
        "name": "Кату",
        "latitude": -27.69569,
        "longitude": 23.04929
    },
    {
        "name": "Кенхардт",
        "latitude": -29.34574,
        "longitude": 21.15786
    },
    {
        "name": "Кимберли",
        "latitude": -28.73226,
        "longitude": 24.76232
    },
    {
        "name": "Куруман",
        "latitude": -27.4524,
        "longitude": 23.43246
    },
    {
        "name": "Муниципалитет района Намаква",
        "latitude": -30.53561,
        "longitude": 19.42892
    },
    {
        "name": "Нупорт",
        "latitude": -31.18736,
        "longitude": 24.94991
    },
    {
        "name": "Орания",
        "latitude": -29.81381,
        "longitude": 24.41205
    },
    {
        "name": "Пампьерстад",
        "latitude": -27.78324,
        "longitude": 24.68768
    },
    {
        "name": "Муниципалитет находится в районе Пиксли-ка-См.",
        "latitude": -30.2892,
        "longitude": 23.25818
    },
    {
        "name": "слоеная сумматор",
        "latitude": -29.1283,
        "longitude": 19.39492
    },
    {
        "name": "Постмасбург",
        "latitude": -28.33392,
        "longitude": 23.06541
    },
    {
        "name": "Приска",
        "latitude": -29.66803,
        "longitude": 22.74251
    },
    {
        "name": "Ричи",
        "latitude": -29.03801,
        "longitude": 24.60278
    },
    {
        "name": "Муниципалитет Сияндского района",
        "latitude": -28.00013,
        "longitude": 21.18459
    },
    {
        "name": "Газель",
        "latitude": -29.66434,
        "longitude": 17.8865
    },
    {
        "name": "Апингтон",
        "latitude": -28.44776,
        "longitude": 21.25612
    },
    {
        "name": "Из Выксвлей",
        "latitude": -30.35101,
        "longitude": 21.82498
    },
    {
        "name": "Уоррентон",
        "latitude": -28.11396,
        "longitude": 24.84753
    },
    {
        "name": "Альбертина",
        "latitude": -34.20544,
        "longitude": 21.58001
    },
    {
        "name": "Арнистон",
        "latitude": -34.66739,
        "longitude": 20.23086
    },
    {
        "name": "Атлантида",
        "latitude": -33.56668,
        "longitude": 18.48335
    },
    {
        "name": "Бофорт Уэст",
        "latitude": -32.35671,
        "longitude": 22.58295
    },
    {
        "name": "Бергвлит",
        "latitude": -34.04746,
        "longitude": 18.4525
    },
    {
        "name": "Бредасдорп",
        "latitude": -34.53215,
        "longitude": 20.04031
    },
    {
        "name": "Каледон",
        "latitude": -34.22997,
        "longitude": 19.4265
    },
    {
        "name": "Калицдорп",
        "latitude": -33.52755,
        "longitude": 21.6762
    },
    {
        "name": "Кейптаун",
        "latitude": -33.92584,
        "longitude": 18.42322
    },
    {
        "name": "Муниципалитет округа Кейп-Вайнлендс",
        "latitude": -33.32249,
        "longitude": 19.68998
    },
    {
        "name": "Муниципалитет Центрального района Кару",
        "latitude": -32.62812,
        "longitude": 22.21192
    },
    {
        "name": "Церера",
        "latitude": -33.36889,
        "longitude": 19.31095
    },
    {
        "name": "Город Кейптаун",
        "latitude": -33.91667,
        "longitude": 18.41667
    },
    {
        "name": "Кланвильям",
        "latitude": -32.18173,
        "longitude": 18.89217
    },
    {
        "name": "Клермонт",
        "latitude": -33.98056,
        "longitude": 18.46528
    },
    {
        "name": "Констанция",
        "latitude": -34.03139,
        "longitude": 18.41833
    },
    {
        "name": "Остальные",
        "latitude": -33.49035,
        "longitude": 22.53523
    },
    {
        "name": "Муниципалитет Иденского района",
        "latitude": -33.82139,
        "longitude": 22.01263
    },
    {
        "name": "Джордж",
        "latitude": -33.963,
        "longitude": 22.46173
    },
    {
        "name": "Могильное здание",
        "latitude": -34.15152,
        "longitude": 19.01509
    },
    {
        "name": "Воспоминания Харди об Африке",
        "latitude": -33.90539,
        "longitude": 20.7169
    },
    {
        "name": "Германус",
        "latitude": -34.4187,
        "longitude": 19.23446
    },
    {
        "name": "Найсна",
        "latitude": -34.03627,
        "longitude": 23.04713
    },
    {
        "name": "Краайфонтейн",
        "latitude": -33.84808,
        "longitude": 18.71723
    },
    {
        "name": "Ледисмит",
        "latitude": -33.49331,
        "longitude": 21.26755
    },
    {
        "name": "Лэнсдаун",
        "latitude": -33.98735,
        "longitude": 18.49746
    },
    {
        "name": "Малмсбери",
        "latitude": -33.4608,
        "longitude": 18.72714
    },
    {
        "name": "Монтегю",
        "latitude": -33.78664,
        "longitude": 20.12106
    },
    {
        "name": "Муррисбург",
        "latitude": -33.15388,
        "longitude": 18.66031
    },
    {
        "name": "Моссел Бэй",
        "latitude": -34.18307,
        "longitude": 22.14605
    },
    {
        "name": "Ньюлендс",
        "latitude": -33.97846,
        "longitude": 18.4481
    },
    {
        "name": "Оудсхорн",
        "latitude": -33.60047,
        "longitude": 22.19955
    },
    {
        "name": "Муниципалитет Овербергского района",
        "latitude": -34.26131,
        "longitude": 19.93985
    },
    {
        "name": "Паарл",
        "latitude": -33.73378,
        "longitude": 18.97523
    },
    {
        "name": "Пикет Хилл",
        "latitude": -32.90323,
        "longitude": 18.75704
    },
    {
        "name": "Плеттенберг Бэй",
        "latitude": -34.05274,
        "longitude": 23.3716
    },
    {
        "name": "Принц Альберт",
        "latitude": -33.22476,
        "longitude": 22.02673
    },
    {
        "name": "Отступление",
        "latitude": -34.05515,
        "longitude": 18.47617
    },
    {
        "name": "Риверсдейл",
        "latitude": -34.09345,
        "longitude": 21.25725
    },
    {
        "name": "Робертсон",
        "latitude": -33.80342,
        "longitude": 19.88537
    },
    {
        "name": "Рондебош",
        "latitude": -33.96333,
        "longitude": 18.47639
    },
    {
        "name": "Роузбанк",
        "latitude": -33.95556,
        "longitude": 18.47417
    },
    {
        "name": "Салданья",
        "latitude": -33.01167,
        "longitude": 17.9442
    },
    {
        "name": "Стелленбош",
        "latitude": -33.93462,
        "longitude": 18.86676
    },
    {
        "name": "Сансет Бич",
        "latitude": -33.85395,
        "longitude": 18.49231
    },
    {
        "name": "набухающая плотина",
        "latitude": -34.02262,
        "longitude": 20.44171
    },
    {
        "name": "Фреденбург",
        "latitude": -32.90719,
        "longitude": 17.98997
    },
    {
        "name": "Фредендаль",
        "latitude": -31.66833,
        "longitude": 18.50119
    },
    {
        "name": "Веллингтон",
        "latitude": -33.63981,
        "longitude": 19.0112
    },
    {
        "name": "Муниципалитет округа Западного побережья",
        "latitude": -32.09506,
        "longitude": 18.62695
    },
    {
        "name": "Вустер",
        "latitude": -33.64651,
        "longitude": 19.44852
    },
    {
        "name": "Шутить",
        "latitude": -33.4956,
        "longitude": 21.44373
    }
]