[
    {
        "name": "Ашкашам",
        "latitude": 36.68333,
        "longitude": 71.53333
    },
    {
        "name": "Файзабад",
        "latitude": 37.11664,
        "longitude": 70.58002
    },
    {
        "name": "Юрм",
        "latitude": 36.86477,
        "longitude": 70.83421
    },
    {
        "name": "Хандуд",
        "latitude": 36.95127,
        "longitude": 72.318
    },
    {
        "name": "Рагистан",
        "latitude": 37.66079,
        "longitude": 70.67346
    },
    {
        "name": "Вахан",
        "latitude": 37.0571,
        "longitude": 73.34928
    },
    {
        "name": "Гормач",
        "latitude": 35.73062,
        "longitude": 63.78264
    },
    {
        "name": "Кала и Нау",
        "latitude": 34.98735,
        "longitude": 63.12891
    },
    {
        "name": "Баглан",
        "latitude": 36.13068,
        "longitude": 68.70829
    },
    {
        "name": "Хукумати Даханах-йе Гори",
        "latitude": 35.90617,
        "longitude": 68.48869
    },
    {
        "name": "Нарин",
        "latitude": 36.0649,
        "longitude": 69.13343
    },
    {
        "name": "Пули-Хумри",
        "latitude": 35.94458,
        "longitude": 68.71512
    },
    {
        "name": "Балх",
        "latitude": 36.75635,
        "longitude": 66.8972
    },
    {
        "name": "Довлатабад",
        "latitude": 36.98821,
        "longitude": 66.82069
    },
    {
        "name": "Хульм",
        "latitude": 36.69736,
        "longitude": 67.69826
    },
    {
        "name": "Лаб-Сар",
        "latitude": 36.02634,
        "longitude": 66.83799
    },
    {
        "name": "Мазари-Шариф",
        "latitude": 36.70904,
        "longitude": 67.11087
    },
    {
        "name": "Карчи Гак",
        "latitude": 37.03999,
        "longitude": 66.78891
    },
    {
        "name": "Бамиан",
        "latitude": 34.82156,
        "longitude": 67.82734
    },
    {
        "name": "Пенджаб",
        "latitude": 34.38795,
        "longitude": 67.02327
    },
    {
        "name": "Нили",
        "latitude": 33.76329,
        "longitude": 66.07617
    },
    {
        "name": "Фара",
        "latitude": 32.37451,
        "longitude": 62.11638
    },
    {
        "name": "Андхой",
        "latitude": 36.95293,
        "longitude": 65.12376
    },
    {
        "name": "Маймана",
        "latitude": 35.92139,
        "longitude": 64.78361
    },
    {
        "name": "Газни",
        "latitude": 33.55391,
        "longitude": 68.42096
    },
    {
        "name": "Файроз Кох",
        "latitude": 34.51952,
        "longitude": 65.25093
    },
    {
        "name": "Шахрак",
        "latitude": 34.10737,
        "longitude": 64.3052
    },
    {
        "name": "'Алакахдари Дишу",
        "latitude": 30.43206,
        "longitude": 63.29802
    },
    {
        "name": "Герешк",
        "latitude": 31.82089,
        "longitude": 64.57005
    },
    {
        "name": "Лашкар Гах",
        "latitude": 31.59382,
        "longitude": 64.37161
    },
    {
        "name": "Марказ-э Хукумат-э Дарвешан",
        "latitude": 31.13231,
        "longitude": 64.1934
    },
    {
        "name": "Сангин",
        "latitude": 32.07275,
        "longitude": 64.8359
    },
    {
        "name": "Чахар Бурдж",
        "latitude": 34.24475,
        "longitude": 62.19165
    },
    {
        "name": "Гориян",
        "latitude": 34.3448,
        "longitude": 61.49321
    },
    {
        "name": "Герат",
        "latitude": 34.34817,
        "longitude": 62.19967
    },
    {
        "name": "Кафир Кала",
        "latitude": 34.66667,
        "longitude": 61.06667
    },
    {
        "name": "Карух",
        "latitude": 34.48108,
        "longitude": 62.5863
    },
    {
        "name": "Кухсан",
        "latitude": 34.65389,
        "longitude": 61.19778
    },
    {
        "name": "Кушк",
        "latitude": 33.29565,
        "longitude": 61.95221
    },
    {
        "name": "Кара Баг",
        "latitude": 34.94023,
        "longitude": 61.77589
    },
    {
        "name": "Шинданд",
        "latitude": 33.30294,
        "longitude": 62.1474
    },
    {
        "name": "Тир Пул",
        "latitude": 34.59431,
        "longitude": 61.26895
    },
    {
        "name": "Зинда Ян",
        "latitude": 34.34264,
        "longitude": 61.74675
    },
    {
        "name": "Акча",
        "latitude": 36.905,
        "longitude": 66.18341
    },
    {
        "name": "Дарзаб",
        "latitude": 35.97744,
        "longitude": 65.37828
    },
    {
        "name": "Каркин",
        "latitude": 37.41853,
        "longitude": 66.04358
    },
    {
        "name": "Шибирган",
        "latitude": 36.66757,
        "longitude": 65.7529
    },
    {
        "name": "Кабул",
        "latitude": 34.52813,
        "longitude": 69.17233
    },
    {
        "name": "Мир Бача Кот",
        "latitude": 34.74999,
        "longitude": 69.11899
    },
    {
        "name": "Пагман",
        "latitude": 34.58787,
        "longitude": 68.95091
    },
    {
        "name": "Кандагар",
        "latitude": 31.61332,
        "longitude": 65.71013
    },
    {
        "name": "Сидкабад",
        "latitude": 35.02298,
        "longitude": 69.35112
    },
    {
        "name": "Хост",
        "latitude": 33.33951,
        "longitude": 69.92041
    },
    {
        "name": "Асадабад",
        "latitude": 34.87311,
        "longitude": 71.14697
    },
    {
        "name": "Асмар",
        "latitude": 35.03333,
        "longitude": 71.35809
    },
    {
        "name": "Дашт-е Арчи",
        "latitude": 37.13333,
        "longitude": 69.16667
    },
    {
        "name": "Имам Сахиб",
        "latitude": 37.18897,
        "longitude": 68.93644
    },
    {
        "name": "Ханабад",
        "latitude": 36.6825,
        "longitude": 69.11556
    },
    {
        "name": "Кундуз",
        "latitude": 36.72895,
        "longitude": 68.857
    },
    {
        "name": "Каравул",
        "latitude": 37.21959,
        "longitude": 68.7802
    },
    {
        "name": "Мехтар Лам",
        "latitude": 34.67139,
        "longitude": 70.20944
    },
    {
        "name": "Бараки Барак",
        "latitude": 33.96744,
        "longitude": 68.9492
    },
    {
        "name": "Хукумати Азра",
        "latitude": 34.17355,
        "longitude": 69.64573
    },
    {
        "name": "Пули Алам",
        "latitude": 33.99529,
        "longitude": 69.02274
    },
    {
        "name": "Басавул",
        "latitude": 34.24749,
        "longitude": 70.87218
    },
    {
        "name": "Джелалабад",
        "latitude": 34.42647,
        "longitude": 70.45153
    },
    {
        "name": "Марказ-э Волусвали-йе Ачин",
        "latitude": 34.12583,
        "longitude": 70.70778
    },
    {
        "name": "Хаш",
        "latitude": 31.52919,
        "longitude": 62.79055
    },
    {
        "name": "Мирабад",
        "latitude": 30.43624,
        "longitude": 61.8383
    },
    {
        "name": "Радбар",
        "latitude": 30.15,
        "longitude": 62.6
    },
    {
        "name": "Зарандж",
        "latitude": 30.95962,
        "longitude": 61.86037
    },
    {
        "name": "Парун",
        "latitude": 35.42064,
        "longitude": 70.92261
    },
    {
        "name": "Гардез",
        "latitude": 33.59744,
        "longitude": 69.22592
    },
    {
        "name": "Самоби",
        "latitude": 32.75221,
        "longitude": 69.04587
    },
    {
        "name": "Заха Шаран",
        "latitude": 33.14641,
        "longitude": 68.79213
    },
    {
        "name": "Заргун Шахр",
        "latitude": 32.84734,
        "longitude": 68.44573
    },
    {
        "name": "Базарак",
        "latitude": 35.31292,
        "longitude": 69.51519
    },
    {
        "name": "Чарикар",
        "latitude": 35.01361,
        "longitude": 69.17139
    },
    {
        "name": "Джабаль-ос-Сарадж",
        "latitude": 35.11833,
        "longitude": 69.23778
    },
    {
        "name": "Айбак",
        "latitude": 36.26468,
        "longitude": 68.01551
    },
    {
        "name": "Чирас",
        "latitude": 35.41674,
        "longitude": 65.98234
    },
    {
        "name": "Ларкирд",
        "latitude": 35.48936,
        "longitude": 66.66409
    },
    {
        "name": "Калах-йе Шахр",
        "latitude": 35.54729,
        "longitude": 65.5676
    },
    {
        "name": "Санг-э Чарак",
        "latitude": 35.84972,
        "longitude": 66.43694
    },
    {
        "name": "Сари Пул",
        "latitude": 36.21544,
        "longitude": 65.93249
    },
    {
        "name": "Тагав-Бей",
        "latitude": 35.69941,
        "longitude": 66.06164
    },
    {
        "name": "Тукзар",
        "latitude": 35.94831,
        "longitude": 66.42132
    },
    {
        "name": "Арт Ходжа",
        "latitude": 37.08571,
        "longitude": 69.47958
    },
    {
        "name": "Талокан",
        "latitude": 36.73605,
        "longitude": 69.53451
    },
    {
        "name": "Таринкот",
        "latitude": 32.62998,
        "longitude": 65.87806
    },
    {
        "name": "Урузган",
        "latitude": 32.92775,
        "longitude": 66.63253
    },
    {
        "name": "Калат",
        "latitude": 32.10575,
        "longitude": 66.90833
    }
]