[
    {
        "name": "Ания Валд",
        "latitude": 59.27644,
        "longitude": 25.48168
    },
    {
        "name": "Арукюла",
        "latitude": 59.36686,
        "longitude": 25.07618
    },
    {
        "name": "Хаабнеэме",
        "latitude": 59.51358,
        "longitude": 24.82225
    },
    {
        "name": "Харку",
        "latitude": 59.38641,
        "longitude": 24.57176
    },
    {
        "name": "Харку валд",
        "latitude": 59.39157,
        "longitude": 24.46206
    },
    {
        "name": "Йыэляхтме валд",
        "latitude": 59.43996,
        "longitude": 25.13535
    },
    {
        "name": "Юри",
        "latitude": 59.35417,
        "longitude": 24.89417
    },
    {
        "name": "Кехра",
        "latitude": 59.33611,
        "longitude": 25.32111
    },
    {
        "name": "Кейла",
        "latitude": 59.30361,
        "longitude": 24.41306
    },
    {
        "name": "Кийли",
        "latitude": 59.30775,
        "longitude": 24.83776
    },
    {
        "name": "Кийли валд",
        "latitude": 59.29672,
        "longitude": 24.85292
    },
    {
        "name": "Косе",
        "latitude": 59.46001,
        "longitude": 24.87824
    },
    {
        "name": "Куусалу",
        "latitude": 59.44389,
        "longitude": 25.44139
    },
    {
        "name": "Лаагри",
        "latitude": 59.35083,
        "longitude": 24.61418
    },
    {
        "name": "Локса",
        "latitude": 59.57639,
        "longitude": 25.72139
    },
    {
        "name": "Локса Линн",
        "latitude": 59.57844,
        "longitude": 25.71667
    },
    {
        "name": "Лоо",
        "latitude": 59.43123,
        "longitude": 24.94949
    },
    {
        "name": "Маарду",
        "latitude": 59.46529,
        "longitude": 24.98215
    },
    {
        "name": "Маарду Линн",
        "latitude": 59.46385,
        "longitude": 24.9735
    },
    {
        "name": "Палдиски",
        "latitude": 59.35667,
        "longitude": 24.05306
    },
    {
        "name": "Принги",
        "latitude": 59.53459,
        "longitude": 24.79726
    },
    {
        "name": "Раасику",
        "latitude": 59.36639,
        "longitude": 25.18306
    },
    {
        "name": "Рэй Валд",
        "latitude": 59.33202,
        "longitude": 24.93932
    },
    {
        "name": "Риисипере",
        "latitude": 59.11417,
        "longitude": 24.31056
    },
    {
        "name": "Румму",
        "latitude": 59.53528,
        "longitude": 24.79972
    },
    {
        "name": "Саку",
        "latitude": 59.30354,
        "longitude": 24.66382
    },
    {
        "name": "Саку валд",
        "latitude": 59.28069,
        "longitude": 24.71649
    },
    {
        "name": "Сауэ",
        "latitude": 59.32258,
        "longitude": 24.54967
    },
    {
        "name": "Сауэ вальд",
        "latitude": 59.29255,
        "longitude": 24.52503
    },
    {
        "name": "Табасалу",
        "latitude": 59.42607,
        "longitude": 24.5533
    },
    {
        "name": "Таллинн",
        "latitude": 59.43696,
        "longitude": 24.75353
    },
    {
        "name": "Турба",
        "latitude": 59.08306,
        "longitude": 24.225
    },
    {
        "name": "Вайда",
        "latitude": 59.28546,
        "longitude": 24.97897
    },
    {
        "name": "Виймси",
        "latitude": 59.50502,
        "longitude": 24.84807
    },
    {
        "name": "Виймси валд",
        "latitude": 59.50204,
        "longitude": 24.84833
    },
    {
        "name": "Кярдла",
        "latitude": 58.99778,
        "longitude": 22.74917
    },
    {
        "name": "Иисаку",
        "latitude": 59.10139,
        "longitude": 27.30806
    },
    {
        "name": "Йыхви",
        "latitude": 59.35917,
        "longitude": 27.42111
    },
    {
        "name": "Йыхви Валд",
        "latitude": 59.35653,
        "longitude": 27.39304
    },
    {
        "name": "Кивиыли",
        "latitude": 59.35306,
        "longitude": 26.97111
    },
    {
        "name": "Кохтла-Ярве",
        "latitude": 59.39861,
        "longitude": 27.27306
    },
    {
        "name": "Кохтла-Нымме",
        "latitude": 59.35167,
        "longitude": 27.175
    },
    {
        "name": "Луганузе Валд",
        "latitude": 59.39262,
        "longitude": 27.07641
    },
    {
        "name": "Нарва",
        "latitude": 59.37722,
        "longitude": 28.19028
    },
    {
        "name": "Нарва-Йыэсуу",
        "latitude": 59.45889,
        "longitude": 28.04083
    },
    {
        "name": "Нарва-Йыэсууский Линн",
        "latitude": 59.44127,
        "longitude": 28.02142
    },
    {
        "name": "Пюсси",
        "latitude": 59.36,
        "longitude": 27.04972
    },
    {
        "name": "Силламяэ",
        "latitude": 59.39697,
        "longitude": 27.76331
    },
    {
        "name": "Тойла",
        "latitude": 59.42127,
        "longitude": 27.50807
    },
    {
        "name": "Вока",
        "latitude": 59.40776,
        "longitude": 27.58263
    },
    {
        "name": "Ярва-Яани",
        "latitude": 59.03861,
        "longitude": 25.88639
    },
    {
        "name": "Коэру",
        "latitude": 58.96306,
        "longitude": 26.03083
    },
    {
        "name": "Луперон",
        "latitude": 58.88556,
        "longitude": 25.55722
    },
    {
        "name": "Пайде Линн",
        "latitude": 58.88504,
        "longitude": 25.56021
    },
    {
        "name": "Сяревере",
        "latitude": 58.79,
        "longitude": 25.42806
    },
    {
        "name": "Тюри",
        "latitude": 58.80861,
        "longitude": 25.4325
    },
    {
        "name": "Тюри Валд",
        "latitude": 58.74143,
        "longitude": 25.46443
    },
    {
        "name": "Йыгева",
        "latitude": 58.74667,
        "longitude": 26.39389
    },
    {
        "name": "Йыгева валд",
        "latitude": 58.78732,
        "longitude": 26.38122
    },
    {
        "name": "Муствеэ",
        "latitude": 58.84861,
        "longitude": 26.93972
    },
    {
        "name": "Фрайбургский регион",
        "latitude": 58.6525,
        "longitude": 25.97056
    },
    {
        "name": "Пыльтсамаа валд",
        "latitude": 58.64067,
        "longitude": 26.00957
    },
    {
        "name": "Хаапсалу",
        "latitude": 58.94306,
        "longitude": 23.54139
    },
    {
        "name": "Хаапсалуский Линн",
        "latitude": 58.9358,
        "longitude": 23.53005
    },
    {
        "name": "Привет",
        "latitude": 58.99004,
        "longitude": 23.24441
    },
    {
        "name": "Ляэне-Нигула Валд",
        "latitude": 58.96045,
        "longitude": 23.74489
    },
    {
        "name": "Таебла",
        "latitude": 58.95389,
        "longitude": 23.75222
    },
    {
        "name": "Ууэмыйза",
        "latitude": 58.93944,
        "longitude": 23.58944
    },
    {
        "name": "Вормси валд",
        "latitude": 58.99986,
        "longitude": 23.23408
    },
    {
        "name": "Асери",
        "latitude": 59.45056,
        "longitude": 26.8675
    },
    {
        "name": "Хальяла",
        "latitude": 59.43361,
        "longitude": 26.26139
    },
    {
        "name": "Хальяла валд",
        "latitude": 59.45427,
        "longitude": 26.22015
    },
    {
        "name": "Кадрина",
        "latitude": 59.33472,
        "longitude": 26.145
    },
    {
        "name": "Кадрина Валд",
        "latitude": 59.37463,
        "longitude": 26.0415
    },
    {
        "name": "Инза",
        "latitude": 59.49861,
        "longitude": 26.52611
    },
    {
        "name": "Паюсти",
        "latitude": 59.27444,
        "longitude": 26.42333
    },
    {
        "name": "Ракке",
        "latitude": 58.98167,
        "longitude": 26.25444
    },
    {
        "name": "Раквере",
        "latitude": 59.34639,
        "longitude": 26.35583
    },
    {
        "name": "Раквереский валд",
        "latitude": 59.32457,
        "longitude": 26.29757
    },
    {
        "name": "Сымеру",
        "latitude": 59.36111,
        "longitude": 26.4375
    },
    {
        "name": "Тамсалу",
        "latitude": 59.15861,
        "longitude": 26.11528
    },
    {
        "name": "Тапа",
        "latitude": 59.26056,
        "longitude": 25.95861
    },
    {
        "name": "Тапа Валд",
        "latitude": 59.23821,
        "longitude": 25.84572
    },
    {
        "name": "Вайату",
        "latitude": 59.35556,
        "longitude": 25.99528
    },
    {
        "name": "Тынец",
        "latitude": 59.12639,
        "longitude": 26.25
    },
    {
        "name": "Валд Вяйке-Маарья",
        "latitude": 59.06556,
        "longitude": 26.31417
    },
    {
        "name": "Винни",
        "latitude": 59.29583,
        "longitude": 26.43222
    },
    {
        "name": "Винни Валд",
        "latitude": 59.23744,
        "longitude": 26.62261
    },
    {
        "name": "Валд Виру-Нигула",
        "latitude": 59.46387,
        "longitude": 26.58585
    },
    {
        "name": "Аудру",
        "latitude": 58.40861,
        "longitude": 24.37389
    },
    {
        "name": "Кихну валд",
        "latitude": 58.13,
        "longitude": 23.99002
    },
    {
        "name": "Килинги-Нымме",
        "latitude": 58.15028,
        "longitude": 24.96417
    },
    {
        "name": "Лихула",
        "latitude": 58.68139,
        "longitude": 23.84528
    },
    {
        "name": "Линакюла",
        "latitude": 58.13722,
        "longitude": 23.97444
    },
    {
        "name": "Пайкусе",
        "latitude": 58.37917,
        "longitude": 24.63444
    },
    {
        "name": "Пярну",
        "latitude": 58.38588,
        "longitude": 24.49711
    },
    {
        "name": "Пярну Линн",
        "latitude": 58.37901,
        "longitude": 24.52784
    },
    {
        "name": "Пярну-Яагупи",
        "latitude": 58.61052,
        "longitude": 24.50689
    },
    {
        "name": "Саарде Валд",
        "latitude": 58.13802,
        "longitude": 24.95564
    },
    {
        "name": "Сауга",
        "latitude": 58.4272,
        "longitude": 24.49496
    },
    {
        "name": "Синди",
        "latitude": 58.40056,
        "longitude": 24.6675
    },
    {
        "name": "Тутси",
        "latitude": 58.57806,
        "longitude": 24.7925
    },
    {
        "name": "Тори Валд",
        "latitude": 58.48663,
        "longitude": 24.88961
    },
    {
        "name": "Уулу",
        "latitude": 58.28361,
        "longitude": 24.58722
    },
    {
        "name": "Вяндра",
        "latitude": 58.64806,
        "longitude": 25.03611
    },
    {
        "name": "Канепи",
        "latitude": 57.98306,
        "longitude": 26.75639
    },
    {
        "name": "Канепи валд",
        "latitude": 57.98058,
        "longitude": 26.76151
    },
    {
        "name": "Пылва",
        "latitude": 58.06028,
        "longitude": 27.06944
    },
    {
        "name": "Пылва валд",
        "latitude": 58.08368,
        "longitude": 26.98242
    },
    {
        "name": "Ряпина",
        "latitude": 58.09806,
        "longitude": 27.46361
    },
    {
        "name": "Ряпина валд",
        "latitude": 58.10777,
        "longitude": 27.3858
    },
    {
        "name": "Ярваканди",
        "latitude": 58.77889,
        "longitude": 24.82583
    },
    {
        "name": "Кехтна",
        "latitude": 58.93028,
        "longitude": 24.87806
    },
    {
        "name": "Кехтна валд",
        "latitude": 58.84274,
        "longitude": 24.89002
    },
    {
        "name": "Кохила",
        "latitude": 59.16806,
        "longitude": 24.7575
    },
    {
        "name": "Гиза",
        "latitude": 59.15283,
        "longitude": 24.73337
    },
    {
        "name": "Мярьямаа",
        "latitude": 58.90389,
        "longitude": 24.43056
    },
    {
        "name": "Мярьямаа валд",
        "latitude": 58.90262,
        "longitude": 24.39423
    },
    {
        "name": "Рапла",
        "latitude": 59.00722,
        "longitude": 24.79278
    },
    {
        "name": "Рапла Валд",
        "latitude": 59.03309,
        "longitude": 24.71793
    },
    {
        "name": "Курессааре",
        "latitude": 58.24806,
        "longitude": 22.50389
    },
    {
        "name": "Лийва",
        "latitude": 58.60194,
        "longitude": 23.24694
    },
    {
        "name": "Муху Валд",
        "latitude": 58.58486,
        "longitude": 23.25609
    },
    {
        "name": "Ориссааре",
        "latitude": 58.55917,
        "longitude": 23.08262
    },
    {
        "name": "Рухну",
        "latitude": 57.80028,
        "longitude": 23.24833
    },
    {
        "name": "Рухну валд",
        "latitude": 57.80309,
        "longitude": 23.2425
    },
    {
        "name": "Техумарди",
        "latitude": 58.18027,
        "longitude": 22.24646
    },
    {
        "name": "Алатскиви",
        "latitude": 58.59806,
        "longitude": 27.13361
    },
    {
        "name": "Эльва",
        "latitude": 58.2225,
        "longitude": 26.42111
    },
    {
        "name": "Калласте",
        "latitude": 58.66312,
        "longitude": 27.16164
    },
    {
        "name": "Камбья валд",
        "latitude": 58.20255,
        "longitude": 26.68996
    },
    {
        "name": "Кырвекюла",
        "latitude": 58.42417,
        "longitude": 26.78222
    },
    {
        "name": "Курепалу",
        "latitude": 58.31861,
        "longitude": 26.84083
    },
    {
        "name": "Луунья",
        "latitude": 58.35583,
        "longitude": 26.88083
    },
    {
        "name": "Лууня Валд",
        "latitude": 58.39178,
        "longitude": 26.95574
    },
    {
        "name": "Ныо",
        "latitude": 58.27556,
        "longitude": 26.5375
    },
    {
        "name": "Ныо валд",
        "latitude": 58.24199,
        "longitude": 26.52499
    },
    {
        "name": "Пейпсияяре валд",
        "latitude": 58.51559,
        "longitude": 27.18444
    },
    {
        "name": "Пухья",
        "latitude": 58.34194,
        "longitude": 26.31472
    },
    {
        "name": "Тарту",
        "latitude": 58.38062,
        "longitude": 26.72509
    },
    {
        "name": "Тарту Линн",
        "latitude": 58.37498,
        "longitude": 26.73256
    },
    {
        "name": "Тарту Валд",
        "latitude": 58.478,
        "longitude": 26.74956
    },
    {
        "name": "Юленурме",
        "latitude": 58.3162,
        "longitude": 26.72517
    },
    {
        "name": "Отепя валд",
        "latitude": 58.02177,
        "longitude": 26.45306
    },
    {
        "name": "Тырва",
        "latitude": 58.00278,
        "longitude": 25.935
    },
    {
        "name": "Валга",
        "latitude": 57.77781,
        "longitude": 26.0473
    },
    {
        "name": "Абья-Палуоя",
        "latitude": 58.12528,
        "longitude": 25.34972
    },
    {
        "name": "Каркси-Нуйа",
        "latitude": 58.10333,
        "longitude": 25.56278
    },
    {
        "name": "Мыйзакюла",
        "latitude": 58.09222,
        "longitude": 25.18639
    },
    {
        "name": "Сууре-Яани",
        "latitude": 58.53611,
        "longitude": 25.47056
    },
    {
        "name": "Вийраци",
        "latitude": 58.36,
        "longitude": 25.63722
    },
    {
        "name": "Вильянди",
        "latitude": 58.36389,
        "longitude": 25.59
    },
    {
        "name": "Вильяндиский валд",
        "latitude": 58.36392,
        "longitude": 25.49103
    },
    {
        "name": "Выхма",
        "latitude": 58.62833,
        "longitude": 25.54833
    },
    {
        "name": "Антсла",
        "latitude": 57.82556,
        "longitude": 26.54056
    },
    {
        "name": "Антсла Валд",
        "latitude": 57.77738,
        "longitude": 26.5952
    },
    {
        "name": "Рыуге",
        "latitude": 57.72778,
        "longitude": 26.90972
    },
    {
        "name": "Рыуге валд",
        "latitude": 57.7278,
        "longitude": 26.88033
    },
    {
        "name": "Вана-Антсла",
        "latitude": 57.86611,
        "longitude": 26.53222
    },
    {
        "name": "Вярска",
        "latitude": 57.95806,
        "longitude": 27.63806
    },
    {
        "name": "Выру",
        "latitude": 57.83389,
        "longitude": 27.01944
    },
    {
        "name": "Выруский валд",
        "latitude": 57.86618,
        "longitude": 26.97418
    }
]