[
    {
        "name": "Хиллсборо",
        "latitude": 12.48292,
        "longitude": -61.45597
    },
    {
        "name": "Гренвилл",
        "latitude": 12.12278,
        "longitude": -61.62498
    },
    {
        "name": "Сент-Дэвидс",
        "latitude": 12.04903,
        "longitude": -61.66875
    },
    {
        "name": "Сент-Джордж",
        "latitude": 12.05288,
        "longitude": -61.75226
    },
    {
        "name": "Гуяв",
        "latitude": 12.16462,
        "longitude": -61.72965
    },
    {
        "name": "Виктория",
        "latitude": 12.19021,
        "longitude": -61.70677
    },
    {
        "name": "Сотеры",
        "latitude": 12.21833,
        "longitude": -61.63917
    }
]