[
    {
        "name": "Andau",
        "latitude": 47.77441,
        "longitude": 17.03293
    },
    {
        "name": "Antau",
        "latitude": 47.77377,
        "longitude": 16.47984
    },
    {
        "name": "Apetlon",
        "latitude": 47.74394,
        "longitude": 16.8302
    },
    {
        "name": "Bad Sauerbrunn",
        "latitude": 47.77439,
        "longitude": 16.32841
    },
    {
        "name": "Bad Tatzmannsdorf",
        "latitude": 47.33126,
        "longitude": 16.23067
    },
    {
        "name": "Badersdorf",
        "latitude": 47.2,
        "longitude": 16.36667
    },
    {
        "name": "Bernstein",
        "latitude": 47.4,
        "longitude": 16.25
    },
    {
        "name": "Bocksdorf",
        "latitude": 47.14256,
        "longitude": 16.17784
    },
    {
        "name": "Breitenbrunn",
        "latitude": 47.94452,
        "longitude": 16.73149
    },
    {
        "name": "Bruckneudorf",
        "latitude": 48.01667,
        "longitude": 16.78333
    },
    {
        "name": "Deutsch Jahrndorf",
        "latitude": 48.01667,
        "longitude": 17.1
    },
    {
        "name": "Deutsch Kaltenbrunn",
        "latitude": 47.09455,
        "longitude": 16.13145
    },
    {
        "name": "Deutschkreutz",
        "latitude": 47.6,
        "longitude": 16.63333
    },
    {
        "name": "Donnerskirchen",
        "latitude": 47.89425,
        "longitude": 16.64635
    },
    {
        "name": "Drassburg",
        "latitude": 47.74645,
        "longitude": 16.48679
    },
    {
        "name": "Eberau",
        "latitude": 47.10764,
        "longitude": 16.46044
    },
    {
        "name": "Edelstal",
        "latitude": 48.1,
        "longitude": 16.98333
    },
    {
        "name": "Eisenstadt",
        "latitude": 47.84565,
        "longitude": 16.52327
    },
    {
        "name": "Eisenstadt Stadt",
        "latitude": 47.8445,
        "longitude": 16.52575
    },
    {
        "name": "Eisenstadt-Umgebung",
        "latitude": 47.83333,
        "longitude": 16.58333
    },
    {
        "name": "Eltendorf",
        "latitude": 47.0087,
        "longitude": 16.20239
    },
    {
        "name": "Forchtenstein",
        "latitude": 47.71161,
        "longitude": 16.34525
    },
    {
        "name": "Frauenkirchen",
        "latitude": 47.83678,
        "longitude": 16.92581
    },
    {
        "name": "Gattendorf",
        "latitude": 48.01667,
        "longitude": 16.98333
    },
    {
        "name": "Gols",
        "latitude": 47.89689,
        "longitude": 16.91113
    },
    {
        "name": "Grafenschachen",
        "latitude": 47.36667,
        "longitude": 16.06667
    },
    {
        "name": "Grossh\u00f6flein",
        "latitude": 47.83586,
        "longitude": 16.48035
    },
    {
        "name": "Grosspetersdorf",
        "latitude": 47.23895,
        "longitude": 16.31783
    },
    {
        "name": "G\u00fcssing",
        "latitude": 47.05936,
        "longitude": 16.32431
    },
    {
        "name": "G\u00fcttenbach",
        "latitude": 47.1571,
        "longitude": 16.2923
    },
    {
        "name": "Hackerberg",
        "latitude": 47.2,
        "longitude": 16.11667
    },
    {
        "name": "Halbturn",
        "latitude": 47.87019,
        "longitude": 16.97542
    },
    {
        "name": "Hannersdorf",
        "latitude": 47.22895,
        "longitude": 16.3825
    },
    {
        "name": "Heiligenbrunn",
        "latitude": 47.02705,
        "longitude": 16.41688
    },
    {
        "name": "Heiligenkreuz im Lafnitztal",
        "latitude": 46.98917,
        "longitude": 16.26083
    },
    {
        "name": "Heugraben",
        "latitude": 47.11783,
        "longitude": 16.19041
    },
    {
        "name": "Hirm",
        "latitude": 47.78652,
        "longitude": 16.4546
    },
    {
        "name": "Horitschon",
        "latitude": 47.58729,
        "longitude": 16.54696
    },
    {
        "name": "Hornstein",
        "latitude": 47.88049,
        "longitude": 16.44447
    },
    {
        "name": "Illmitz",
        "latitude": 47.76148,
        "longitude": 16.80024
    },
    {
        "name": "Inzenhof",
        "latitude": 47.01667,
        "longitude": 16.31667
    },
    {
        "name": "Jabing",
        "latitude": 47.2388,
        "longitude": 16.27659
    },
    {
        "name": "Jennersdorf",
        "latitude": 46.93848,
        "longitude": 16.14158
    },
    {
        "name": "Jois",
        "latitude": 47.96165,
        "longitude": 16.79604
    },
    {
        "name": "Kaisersdorf",
        "latitude": 47.53741,
        "longitude": 16.39198
    },
    {
        "name": "Kemeten",
        "latitude": 47.24859,
        "longitude": 16.15213
    },
    {
        "name": "Kittsee",
        "latitude": 48.0925,
        "longitude": 17.06389
    },
    {
        "name": "Kleinh\u00f6flein im Burgenland",
        "latitude": 47.84151,
        "longitude": 16.50413
    },
    {
        "name": "Kleinm\u00fcrbisch",
        "latitude": 47.03299,
        "longitude": 16.32448
    },
    {
        "name": "Klingenbach",
        "latitude": 47.75202,
        "longitude": 16.54069
    },
    {
        "name": "Kobersdorf",
        "latitude": 47.59572,
        "longitude": 16.39173
    },
    {
        "name": "Kohfidisch",
        "latitude": 47.17472,
        "longitude": 16.35701
    },
    {
        "name": "K\u00f6nigsdorf",
        "latitude": 47.0,
        "longitude": 16.16667
    },
    {
        "name": "Krensdorf",
        "latitude": 47.78552,
        "longitude": 16.41495
    },
    {
        "name": "Kukmirn",
        "latitude": 47.07544,
        "longitude": 16.21033
    },
    {
        "name": "Lackenbach",
        "latitude": 47.59042,
        "longitude": 16.46533
    },
    {
        "name": "Lackendorf",
        "latitude": 47.58996,
        "longitude": 16.50404
    },
    {
        "name": "Leithaprodersdorf",
        "latitude": 47.93348,
        "longitude": 16.47915
    },
    {
        "name": "Litzelsdorf",
        "latitude": 47.20826,
        "longitude": 16.1717
    },
    {
        "name": "Lockenhaus",
        "latitude": 47.40753,
        "longitude": 16.41623
    },
    {
        "name": "Loipersbach im Burgenland",
        "latitude": 47.69656,
        "longitude": 16.47919
    },
    {
        "name": "Loretto",
        "latitude": 47.91559,
        "longitude": 16.5179
    },
    {
        "name": "Lutzmannsburg",
        "latitude": 47.46373,
        "longitude": 16.63665
    },
    {
        "name": "Mannersdorf an der Rabnitz",
        "latitude": 47.42815,
        "longitude": 16.52678
    },
    {
        "name": "Mariasdorf",
        "latitude": 47.3658,
        "longitude": 16.23136
    },
    {
        "name": "Markt Allhau",
        "latitude": 47.28333,
        "longitude": 16.08333
    },
    {
        "name": "Markt Neuhodis",
        "latitude": 47.29565,
        "longitude": 16.39564
    },
    {
        "name": "Markt Sankt Martin",
        "latitude": 47.56205,
        "longitude": 16.42508
    },
    {
        "name": "Marz",
        "latitude": 47.71667,
        "longitude": 16.41667
    },
    {
        "name": "Mattersburg",
        "latitude": 47.73333,
        "longitude": 16.4
    },
    {
        "name": "Mischendorf",
        "latitude": 47.19277,
        "longitude": 16.31444
    },
    {
        "name": "Mitterpullendorf",
        "latitude": 47.49325,
        "longitude": 16.52129
    },
    {
        "name": "Mogersdorf",
        "latitude": 46.94917,
        "longitude": 16.23222
    },
    {
        "name": "M\u00f6nchhof",
        "latitude": 47.8802,
        "longitude": 16.94126
    },
    {
        "name": "M\u00f6rbisch am See",
        "latitude": 47.75,
        "longitude": 16.66667
    },
    {
        "name": "Moschendorf",
        "latitude": 47.05843,
        "longitude": 16.47728
    },
    {
        "name": "M\u00fchlgraben",
        "latitude": 46.88972,
        "longitude": 16.04083
    },
    {
        "name": "M\u00fcllendorf",
        "latitude": 47.83943,
        "longitude": 16.46258
    },
    {
        "name": "Neckenmarkt",
        "latitude": 47.59964,
        "longitude": 16.5467
    },
    {
        "name": "Neuberg im Burgenland",
        "latitude": 47.16894,
        "longitude": 16.26054
    },
    {
        "name": "Neud\u00f6rfl",
        "latitude": 47.79655,
        "longitude": 16.2977
    },
    {
        "name": "Neufeld an der Leitha",
        "latitude": 47.86558,
        "longitude": 16.37856
    },
    {
        "name": "Neuhaus am Klausenbach",
        "latitude": 46.86667,
        "longitude": 16.03333
    },
    {
        "name": "Neusiedl am See",
        "latitude": 47.94901,
        "longitude": 16.8417
    },
    {
        "name": "Neustift an der Lafnitz",
        "latitude": 47.36667,
        "longitude": 16.03333
    },
    {
        "name": "Neustift bei G\u00fcssing",
        "latitude": 47.02474,
        "longitude": 16.26041
    },
    {
        "name": "Neutal",
        "latitude": 47.54548,
        "longitude": 16.44619
    },
    {
        "name": "Nickelsdorf",
        "latitude": 47.94056,
        "longitude": 17.06944
    },
    {
        "name": "Nikitsch",
        "latitude": 47.53615,
        "longitude": 16.66017
    },
    {
        "name": "Oberdorf im Burgenland",
        "latitude": 47.21667,
        "longitude": 16.21667
    },
    {
        "name": "Oberloisdorf",
        "latitude": 47.44736,
        "longitude": 16.50764
    },
    {
        "name": "Oberpullendorf",
        "latitude": 47.50352,
        "longitude": 16.50447
    },
    {
        "name": "Obersch\u00fctzen",
        "latitude": 47.35138,
        "longitude": 16.20732
    },
    {
        "name": "Oberwart",
        "latitude": 47.28971,
        "longitude": 16.20595
    },
    {
        "name": "Oggau",
        "latitude": 47.83333,
        "longitude": 16.66667
    },
    {
        "name": "Olbendorf",
        "latitude": 47.18333,
        "longitude": 16.2
    },
    {
        "name": "Ollersdorf im Burgenland",
        "latitude": 47.18333,
        "longitude": 16.16667
    },
    {
        "name": "Oslip",
        "latitude": 47.82906,
        "longitude": 16.61957
    },
    {
        "name": "Pama",
        "latitude": 48.05,
        "longitude": 17.03333
    },
    {
        "name": "Pamhagen",
        "latitude": 47.70092,
        "longitude": 16.90779
    },
    {
        "name": "Parndorf",
        "latitude": 47.99963,
        "longitude": 16.86049
    },
    {
        "name": "Pilgersdorf",
        "latitude": 47.44106,
        "longitude": 16.3492
    },
    {
        "name": "Pinkafeld",
        "latitude": 47.36667,
        "longitude": 16.11667
    },
    {
        "name": "Piringsdorf",
        "latitude": 47.44826,
        "longitude": 16.41516
    },
    {
        "name": "Podersdorf am See",
        "latitude": 47.85412,
        "longitude": 16.83706
    },
    {
        "name": "Politischer Bezirk G\u00fcssing",
        "latitude": 47.10164,
        "longitude": 16.30363
    },
    {
        "name": "Politischer Bezirk Jennersdorf",
        "latitude": 46.96667,
        "longitude": 16.15
    },
    {
        "name": "Politischer Bezirk Mattersburg",
        "latitude": 47.73823,
        "longitude": 16.39486
    },
    {
        "name": "Politischer Bezirk Neusiedl am See",
        "latitude": 47.88853,
        "longitude": 16.92465
    },
    {
        "name": "Politischer Bezirk Oberpullendorf",
        "latitude": 47.50184,
        "longitude": 16.50593
    },
    {
        "name": "Politischer Bezirk Oberwart",
        "latitude": 47.28854,
        "longitude": 16.20861
    },
    {
        "name": "P\u00f6ttelsdorf",
        "latitude": 47.75369,
        "longitude": 16.43864
    },
    {
        "name": "P\u00f6ttsching",
        "latitude": 47.80445,
        "longitude": 16.37109
    },
    {
        "name": "Potzneusiedl",
        "latitude": 48.04504,
        "longitude": 16.9477
    },
    {
        "name": "Purbach am Neusiedler See",
        "latitude": 47.91289,
        "longitude": 16.69561
    },
    {
        "name": "Raiding",
        "latitude": 47.56581,
        "longitude": 16.53056
    },
    {
        "name": "Rechnitz",
        "latitude": 47.30467,
        "longitude": 16.44095
    },
    {
        "name": "Riedlingsdorf",
        "latitude": 47.35,
        "longitude": 16.13333
    },
    {
        "name": "Ritzing",
        "latitude": 47.61316,
        "longitude": 16.49546
    },
    {
        "name": "Rohr im Burgenland",
        "latitude": 47.11667,
        "longitude": 16.16667
    },
    {
        "name": "Rohrbach bei Mattersburg",
        "latitude": 47.7052,
        "longitude": 16.43005
    },
    {
        "name": "Rotenturm an der Pinka",
        "latitude": 47.25,
        "longitude": 16.25
    },
    {
        "name": "Rudersdorf",
        "latitude": 47.05,
        "longitude": 16.11667
    },
    {
        "name": "Rust",
        "latitude": 47.80122,
        "longitude": 16.67158
    },
    {
        "name": "Rust Stadt",
        "latitude": 47.80174,
        "longitude": 16.6721
    },
    {
        "name": "Sankt Andr\u00e4 am Zicksee",
        "latitude": 47.7841,
        "longitude": 16.94195
    },
    {
        "name": "Sankt Georgen am Leithagebirge",
        "latitude": 47.85,
        "longitude": 16.55
    },
    {
        "name": "Sankt Margarethen im Burgenland",
        "latitude": 47.80335,
        "longitude": 16.60875
    },
    {
        "name": "Sankt Martin an der Raab",
        "latitude": 46.9225,
        "longitude": 16.13611
    },
    {
        "name": "Sankt Michael im Burgenland",
        "latitude": 47.12852,
        "longitude": 16.27148
    },
    {
        "name": "Schachendorf",
        "latitude": 47.26667,
        "longitude": 16.43333
    },
    {
        "name": "Schandorf",
        "latitude": 47.24183,
        "longitude": 16.42267
    },
    {
        "name": "Schattendorf",
        "latitude": 47.70973,
        "longitude": 16.50979
    },
    {
        "name": "Sch\u00fctzen am Gebirge",
        "latitude": 47.85233,
        "longitude": 16.62334
    },
    {
        "name": "Siegendorf im Burgenland",
        "latitude": 47.78098,
        "longitude": 16.54232
    },
    {
        "name": "Sieggraben",
        "latitude": 47.65128,
        "longitude": 16.37993
    },
    {
        "name": "Sigless",
        "latitude": 47.77533,
        "longitude": 16.39503
    },
    {
        "name": "Stadtschlaining",
        "latitude": 47.31667,
        "longitude": 16.28333
    },
    {
        "name": "Stegersbach",
        "latitude": 47.16667,
        "longitude": 16.16667
    },
    {
        "name": "Steinbrunn",
        "latitude": 47.83333,
        "longitude": 16.41667
    },
    {
        "name": "Stinatz",
        "latitude": 47.20266,
        "longitude": 16.13312
    },
    {
        "name": "Stoob",
        "latitude": 47.52845,
        "longitude": 16.4776
    },
    {
        "name": "Stotzing",
        "latitude": 47.90688,
        "longitude": 16.5458
    },
    {
        "name": "Strem",
        "latitude": 47.04498,
        "longitude": 16.41426
    },
    {
        "name": "Tadten",
        "latitude": 47.76667,
        "longitude": 16.98333
    },
    {
        "name": "Tobaj",
        "latitude": 47.08333,
        "longitude": 16.3
    },
    {
        "name": "Trausdorf an der Wulka",
        "latitude": 47.8135,
        "longitude": 16.5576
    },
    {
        "name": "Tschanigraben",
        "latitude": 47.01667,
        "longitude": 16.3
    },
    {
        "name": "Unterfrauenhaid",
        "latitude": 47.57116,
        "longitude": 16.49885
    },
    {
        "name": "Unterkohlst\u00e4tten",
        "latitude": 47.38333,
        "longitude": 16.31667
    },
    {
        "name": "Unterwart",
        "latitude": 47.25,
        "longitude": 16.23333
    },
    {
        "name": "Wallern im Burgenland",
        "latitude": 47.72847,
        "longitude": 16.93706
    },
    {
        "name": "Weichselbaum",
        "latitude": 46.9425,
        "longitude": 16.1875
    },
    {
        "name": "Weiden am See",
        "latitude": 47.92532,
        "longitude": 16.86899
    },
    {
        "name": "Weiden bei Rechnitz",
        "latitude": 47.3,
        "longitude": 16.35
    },
    {
        "name": "Weingraben",
        "latitude": 47.51393,
        "longitude": 16.36375
    },
    {
        "name": "Weppersdorf",
        "latitude": 47.57954,
        "longitude": 16.42679
    },
    {
        "name": "Wiesen",
        "latitude": 47.73776,
        "longitude": 16.33798
    },
    {
        "name": "Wiesfleck",
        "latitude": 47.38458,
        "longitude": 16.14552
    },
    {
        "name": "Wimpassing an der Leitha",
        "latitude": 47.91667,
        "longitude": 16.43333
    },
    {
        "name": "Winden am See",
        "latitude": 47.95,
        "longitude": 16.75
    },
    {
        "name": "Wolfau",
        "latitude": 47.25,
        "longitude": 16.1
    },
    {
        "name": "W\u00f6rterberg",
        "latitude": 47.21667,
        "longitude": 16.1
    },
    {
        "name": "Wulkaprodersdorf",
        "latitude": 47.79753,
        "longitude": 16.50447
    },
    {
        "name": "Zagersdorf",
        "latitude": 47.76471,
        "longitude": 16.51382
    },
    {
        "name": "Zillingtal",
        "latitude": 47.81442,
        "longitude": 16.40928
    },
    {
        "name": "Zurndorf",
        "latitude": 47.98314,
        "longitude": 17.00315
    },
    {
        "name": "Albeck",
        "latitude": 46.81666667,
        "longitude": 14.1
    },
    {
        "name": "Althofen",
        "latitude": 46.87298,
        "longitude": 14.47449
    },
    {
        "name": "Annabichl",
        "latitude": 46.65,
        "longitude": 14.31667
    },
    {
        "name": "Arnoldstein",
        "latitude": 46.54611,
        "longitude": 13.71
    },
    {
        "name": "Arriach",
        "latitude": 46.72921,
        "longitude": 13.85046
    },
    {
        "name": "Auen",
        "latitude": 46.59963,
        "longitude": 13.84389
    },
    {
        "name": "Bad Bleiberg",
        "latitude": 46.62416667,
        "longitude": 13.68777778
    },
    {
        "name": "Bad Eisenkappel",
        "latitude": 46.48333333,
        "longitude": 14.6
    },
    {
        "name": "Bad Kleinkirchheim",
        "latitude": 46.81361111,
        "longitude": 13.79277778
    },
    {
        "name": "Bad Sankt Leonhard im Lavanttal",
        "latitude": 46.96278,
        "longitude": 14.79167
    },
    {
        "name": "Baldramsdorf",
        "latitude": 46.80111,
        "longitude": 13.45333
    },
    {
        "name": "Berg im Drautal",
        "latitude": 46.74915,
        "longitude": 13.13536
    },
    {
        "name": "Bleiburg",
        "latitude": 46.59,
        "longitude": 14.79889
    },
    {
        "name": "Bodensdorf",
        "latitude": 46.69111,
        "longitude": 13.97111
    },
    {
        "name": "Br\u00fcckl",
        "latitude": 46.75167,
        "longitude": 14.53667
    },
    {
        "name": "Dellach",
        "latitude": 46.66175,
        "longitude": 13.07965
    },
    {
        "name": "Dellach im Drautal",
        "latitude": 46.7375,
        "longitude": 13.07833
    },
    {
        "name": "Deutsch Griffen",
        "latitude": 46.85606,
        "longitude": 14.07501
    },
    {
        "name": "Deutsch-Griffen",
        "latitude": 46.855,
        "longitude": 14.07388889
    },
    {
        "name": "Diex",
        "latitude": 46.75,
        "longitude": 14.6
    },
    {
        "name": "D\u00f6briach",
        "latitude": 46.78049,
        "longitude": 13.65738
    },
    {
        "name": "Draschen",
        "latitude": 46.76909,
        "longitude": 14.06758
    },
    {
        "name": "Ebenthal",
        "latitude": 46.60806,
        "longitude": 14.36417
    },
    {
        "name": "Eberndorf",
        "latitude": 46.59139,
        "longitude": 14.64361
    },
    {
        "name": "Eberstein",
        "latitude": 46.80806,
        "longitude": 14.56
    },
    {
        "name": "Ebriach",
        "latitude": 46.46667,
        "longitude": 14.51667
    },
    {
        "name": "Eisenkappel-Vellach",
        "latitude": 46.48638889,
        "longitude": 14.59611111
    },
    {
        "name": "Faak am See",
        "latitude": 46.56806,
        "longitude": 13.90972
    },
    {
        "name": "Feffernitz",
        "latitude": 46.68333333,
        "longitude": 13.7
    },
    {
        "name": "Feistritz an der Drau",
        "latitude": 46.70157,
        "longitude": 13.66479
    },
    {
        "name": "Feistritz an der Gail",
        "latitude": 46.5775,
        "longitude": 13.60667
    },
    {
        "name": "Feistritz im Rosental",
        "latitude": 46.51667,
        "longitude": 14.16667
    },
    {
        "name": "Feistritz ob Bleiburg",
        "latitude": 46.55,
        "longitude": 14.76667
    },
    {
        "name": "Feld am See",
        "latitude": 46.77639,
        "longitude": 13.74778
    },
    {
        "name": "Feldkirchen District",
        "latitude": 46.72127,
        "longitude": 14.09683
    },
    {
        "name": "Feldkirchen in K\u00e4rnten",
        "latitude": 46.72368,
        "longitude": 14.0958
    },
    {
        "name": "Ferlach",
        "latitude": 46.52694,
        "longitude": 14.30194
    },
    {
        "name": "Ferndorf",
        "latitude": 46.73651,
        "longitude": 13.62661
    },
    {
        "name": "Finkenstein",
        "latitude": 46.56155,
        "longitude": 13.87086
    },
    {
        "name": "Finkenstein am Faaker See",
        "latitude": 46.57904,
        "longitude": 13.93496
    },
    {
        "name": "Flattach",
        "latitude": 46.93861,
        "longitude": 13.13444
    },
    {
        "name": "F\u00f6derlach I",
        "latitude": 46.59998,
        "longitude": 13.96128
    },
    {
        "name": "Frantschach-Sankt Gertraud",
        "latitude": 46.86111111,
        "longitude": 14.86027778
    },
    {
        "name": "Frauenstein",
        "latitude": 46.81417,
        "longitude": 14.29417
    },
    {
        "name": "Fresach",
        "latitude": 46.71556,
        "longitude": 13.69083
    },
    {
        "name": "Fresen",
        "latitude": 46.70516,
        "longitude": 14.04513
    },
    {
        "name": "Friesach",
        "latitude": 46.95528,
        "longitude": 14.40583
    },
    {
        "name": "F\u00fcrnitz",
        "latitude": 46.56188,
        "longitude": 13.81732
    },
    {
        "name": "Gailitz",
        "latitude": 46.56083,
        "longitude": 13.70444
    },
    {
        "name": "Gallizien",
        "latitude": 46.55,
        "longitude": 14.51667
    },
    {
        "name": "Gemmersdorf",
        "latitude": 46.7574,
        "longitude": 14.9022
    },
    {
        "name": "Gerlamoos",
        "latitude": 46.76391,
        "longitude": 13.272
    },
    {
        "name": "Gitschtal",
        "latitude": 46.67972222,
        "longitude": 13.26055556
    },
    {
        "name": "Glanegg",
        "latitude": 46.72259,
        "longitude": 14.19893
    },
    {
        "name": "Globasnitz",
        "latitude": 46.55694,
        "longitude": 14.70278
    },
    {
        "name": "Gl\u00f6dnitz",
        "latitude": 46.87398,
        "longitude": 14.11915
    },
    {
        "name": "Gm\u00fcnd",
        "latitude": 46.90722,
        "longitude": 13.52944
    },
    {
        "name": "Gm\u00fcnd in K\u00e4rnten",
        "latitude": 46.91472,
        "longitude": 13.5467
    },
    {
        "name": "Gnesau",
        "latitude": 46.77544,
        "longitude": 13.96251
    },
    {
        "name": "G\u00f6rtschach",
        "latitude": 46.61278,
        "longitude": 13.465
    },
    {
        "name": "Grafenstein",
        "latitude": 46.61393,
        "longitude": 14.46719
    },
    {
        "name": "Greifenburg",
        "latitude": 46.75027,
        "longitude": 13.17982
    },
    {
        "name": "Gries",
        "latitude": 46.8316,
        "longitude": 14.85103
    },
    {
        "name": "Griffen",
        "latitude": 46.70444,
        "longitude": 14.73278
    },
    {
        "name": "Gro\u00dfkirchheim",
        "latitude": 46.9727,
        "longitude": 12.89589
    },
    {
        "name": "Gurk",
        "latitude": 46.87389,
        "longitude": 14.29167
    },
    {
        "name": "Guttaring",
        "latitude": 46.88536,
        "longitude": 14.51071
    },
    {
        "name": "Heiligenblut",
        "latitude": 47.03979,
        "longitude": 12.84345
    },
    {
        "name": "Hermagor",
        "latitude": 46.62722,
        "longitude": 13.36722
    },
    {
        "name": "Hermagor District",
        "latitude": 46.63137,
        "longitude": 13.13246
    },
    {
        "name": "Hermagor-Pressegger See",
        "latitude": 46.62722222,
        "longitude": 13.36722222
    },
    {
        "name": "Himmelberg",
        "latitude": 46.75667,
        "longitude": 14.03056
    },
    {
        "name": "Hohenthurn",
        "latitude": 46.55774,
        "longitude": 13.66038
    },
    {
        "name": "H\u00f6rtendorf",
        "latitude": 46.63333,
        "longitude": 14.4
    },
    {
        "name": "H\u00fcttenberg",
        "latitude": 46.94139,
        "longitude": 14.55
    },
    {
        "name": "Irschen",
        "latitude": 46.75694,
        "longitude": 13.02528
    },
    {
        "name": "Kappel am Krappfeld",
        "latitude": 46.83861,
        "longitude": 14.48639
    },
    {
        "name": "Keutschach am See",
        "latitude": 46.59306,
        "longitude": 14.18889
    },
    {
        "name": "Kirchbach",
        "latitude": 46.6416,
        "longitude": 13.18454
    },
    {
        "name": "Klagenfurt",
        "latitude": 46.63873,
        "longitude": 14.2973
    },
    {
        "name": "Klagenfurt am W\u00f6rthersee",
        "latitude": 46.63333,
        "longitude": 14.3
    },
    {
        "name": "Klagenfurt-Land District",
        "latitude": 46.56722,
        "longitude": 14.29295
    },
    {
        "name": "Kleblach-Lind",
        "latitude": 46.76722222,
        "longitude": 13.35805556
    },
    {
        "name": "Klein Sankt Paul",
        "latitude": 46.83611,
        "longitude": 14.54139
    },
    {
        "name": "Kleinedling",
        "latitude": 46.81417,
        "longitude": 14.82778
    },
    {
        "name": "K\u00f6tschach",
        "latitude": 46.68167,
        "longitude": 13.00694
    },
    {
        "name": "K\u00f6tschach-Mauthen",
        "latitude": 46.66666667,
        "longitude": 13.0
    },
    {
        "name": "K\u00f6ttmannsdorf",
        "latitude": 46.56139,
        "longitude": 14.23389
    },
    {
        "name": "Krems",
        "latitude": 46.9225,
        "longitude": 13.5675
    },
    {
        "name": "Krumpendorf",
        "latitude": 46.63333,
        "longitude": 14.21667
    },
    {
        "name": "K\u00fchnsdorf",
        "latitude": 46.62194,
        "longitude": 14.63639
    },
    {
        "name": "Lamnitz",
        "latitude": 46.86666667,
        "longitude": 12.98333333
    },
    {
        "name": "Landskron",
        "latitude": 46.61667,
        "longitude": 13.88333
    },
    {
        "name": "Launsdorf",
        "latitude": 46.77056,
        "longitude": 14.45194
    },
    {
        "name": "Lavam\u00fcnd",
        "latitude": 46.64019,
        "longitude": 14.94733
    },
    {
        "name": "Ledenitzen",
        "latitude": 46.56639,
        "longitude": 13.96139
    },
    {
        "name": "Lendorf",
        "latitude": 46.83528,
        "longitude": 13.43028
    },
    {
        "name": "Leppen",
        "latitude": 46.48333,
        "longitude": 14.63333
    },
    {
        "name": "Lesachtal",
        "latitude": 46.69388889,
        "longitude": 12.81583333
    },
    {
        "name": "Liebenfels",
        "latitude": 46.73778,
        "longitude": 14.28667
    },
    {
        "name": "Lind",
        "latitude": 46.62244,
        "longitude": 13.84715
    },
    {
        "name": "Lobersberg",
        "latitude": 46.865,
        "longitude": 12.91111111
    },
    {
        "name": "Ludmannsdorf",
        "latitude": 46.54139,
        "longitude": 14.13425
    },
    {
        "name": "Lurnfeld",
        "latitude": 46.83333333,
        "longitude": 13.36666667
    },
    {
        "name": "Magdalensberg",
        "latitude": 46.70111111,
        "longitude": 14.43111111
    },
    {
        "name": "Mallnitz",
        "latitude": 46.98972222,
        "longitude": 13.17
    },
    {
        "name": "Malta",
        "latitude": 46.96666667,
        "longitude": 13.51666667
    },
    {
        "name": "Maria Rain",
        "latitude": 46.55389,
        "longitude": 14.29556
    },
    {
        "name": "Maria Saal",
        "latitude": 46.68083,
        "longitude": 14.34861
    },
    {
        "name": "Maria W\u00f6rth",
        "latitude": 46.61639,
        "longitude": 14.16306
    },
    {
        "name": "Mautbr\u00fccken",
        "latitude": 46.72037,
        "longitude": 14.19399
    },
    {
        "name": "Metnitz",
        "latitude": 46.98056,
        "longitude": 14.21667
    },
    {
        "name": "Micheldorf",
        "latitude": 46.91667,
        "longitude": 14.41667
    },
    {
        "name": "Millstatt",
        "latitude": 46.80417,
        "longitude": 13.58056
    },
    {
        "name": "M\u00f6lbling",
        "latitude": 46.85,
        "longitude": 14.43333
    },
    {
        "name": "M\u00f6llbr\u00fccke",
        "latitude": 46.83639,
        "longitude": 13.37278
    },
    {
        "name": "Moosburg",
        "latitude": 46.6575,
        "longitude": 14.17472
    },
    {
        "name": "M\u00f6rtschach",
        "latitude": 46.92389,
        "longitude": 12.91778
    },
    {
        "name": "M\u00fchldorf",
        "latitude": 46.86028,
        "longitude": 13.35361
    },
    {
        "name": "Neu-Feffernitz",
        "latitude": 46.68772,
        "longitude": 13.67914
    },
    {
        "name": "Neuhaus",
        "latitude": 46.63333,
        "longitude": 14.88333
    },
    {
        "name": "Niederdorf",
        "latitude": 46.61667,
        "longitude": 14.4
    },
    {
        "name": "N\u00f6tsch im Gailtal",
        "latitude": 46.59,
        "longitude": 13.62277778
    },
    {
        "name": "Oberd\u00f6rfl",
        "latitude": 46.55528,
        "longitude": 14.10806
    },
    {
        "name": "Oberdrauburg",
        "latitude": 46.74306,
        "longitude": 12.97028
    },
    {
        "name": "Obermillstatt",
        "latitude": 46.8106,
        "longitude": 13.5908
    },
    {
        "name": "Obervellach",
        "latitude": 46.93667,
        "longitude": 13.20417
    },
    {
        "name": "Ossiach",
        "latitude": 46.67435,
        "longitude": 13.98358
    },
    {
        "name": "Paternion",
        "latitude": 46.71417,
        "longitude": 13.63611
    },
    {
        "name": "Pischeldorf",
        "latitude": 46.68333,
        "longitude": 14.45
    },
    {
        "name": "P\u00f6ckau",
        "latitude": 46.55,
        "longitude": 13.7333
    },
    {
        "name": "Poggersdorf",
        "latitude": 46.65,
        "longitude": 14.45
    },
    {
        "name": "P\u00f6rtschach am W\u00f6rthersee",
        "latitude": 46.63639,
        "longitude": 14.14639
    },
    {
        "name": "Preitenegg",
        "latitude": 46.94,
        "longitude": 14.92583
    },
    {
        "name": "Priel",
        "latitude": 46.82758,
        "longitude": 14.8333
    },
    {
        "name": "Pusarnitz",
        "latitude": 46.83333,
        "longitude": 13.4
    },
    {
        "name": "Radenthein",
        "latitude": 46.80056,
        "longitude": 13.71167
    },
    {
        "name": "Rain",
        "latitude": 46.60528,
        "longitude": 14.38611
    },
    {
        "name": "Rangersdorf",
        "latitude": 46.86001,
        "longitude": 12.94923
    },
    {
        "name": "Reding",
        "latitude": 46.81667,
        "longitude": 14.85
    },
    {
        "name": "Reichenau",
        "latitude": 46.85416667,
        "longitude": 13.89305556
    },
    {
        "name": "Reichenfels",
        "latitude": 47.00718,
        "longitude": 14.74425
    },
    {
        "name": "Rei\u00dfeck",
        "latitude": 46.87694444,
        "longitude": 13.30555556
    },
    {
        "name": "Rennweg am Katschberg",
        "latitude": 47.01667,
        "longitude": 13.61667
    },
    {
        "name": "Rittersdorf",
        "latitude": 46.75111,
        "longitude": 13.03444
    },
    {
        "name": "Rosegg",
        "latitude": 46.58833,
        "longitude": 14.01718
    },
    {
        "name": "Ruden",
        "latitude": 46.65833,
        "longitude": 14.77639
    },
    {
        "name": "Sachsenburg",
        "latitude": 46.82917,
        "longitude": 13.355
    },
    {
        "name": "Sankt Andr\u00e4",
        "latitude": 46.76829,
        "longitude": 14.81991
    },
    {
        "name": "Sankt Egyden an der Drau",
        "latitude": 46.57722,
        "longitude": 14.06167
    },
    {
        "name": "Sankt Georgen am L\u00e4ngsee",
        "latitude": 46.78061,
        "longitude": 14.43033
    },
    {
        "name": "Sankt Georgen im Lavanttal",
        "latitude": 46.71666667,
        "longitude": 14.91666667
    },
    {
        "name": "Sankt Jakob",
        "latitude": 46.54777778,
        "longitude": 14.05722222
    },
    {
        "name": "Sankt Jakob im Rosental",
        "latitude": 46.54777778,
        "longitude": 14.05722222
    },
    {
        "name": "Sankt Kanzian am Klopeiner See",
        "latitude": 46.61444444,
        "longitude": 14.57583333
    },
    {
        "name": "Sankt Leonhard",
        "latitude": 46.62528,
        "longitude": 13.85865
    },
    {
        "name": "Sankt Magdalen",
        "latitude": 46.61667,
        "longitude": 13.88333
    },
    {
        "name": "Sankt Margareten im Rosental",
        "latitude": 46.54417,
        "longitude": 14.42444
    },
    {
        "name": "Sankt Martin",
        "latitude": 46.61667,
        "longitude": 14.28333
    },
    {
        "name": "Sankt Paul im Lavanttal",
        "latitude": 46.70056,
        "longitude": 14.87556
    },
    {
        "name": "Sankt Peter",
        "latitude": 46.62978,
        "longitude": 14.34016
    },
    {
        "name": "Sankt Ruprecht",
        "latitude": 46.6,
        "longitude": 14.31667
    },
    {
        "name": "Sankt Stefan",
        "latitude": 46.8075,
        "longitude": 14.85167
    },
    {
        "name": "Sankt Stefan im Gailtal",
        "latitude": 46.61666667,
        "longitude": 13.51666667
    },
    {
        "name": "Sankt Urban",
        "latitude": 46.75027778,
        "longitude": 14.16916667
    },
    {
        "name": "Sankt Veit an der Glan",
        "latitude": 46.76806,
        "longitude": 14.36028
    },
    {
        "name": "Sankt Veit an der Glan District",
        "latitude": 46.83333,
        "longitude": 14.4
    },
    {
        "name": "Schiefling am See",
        "latitude": 46.60444,
        "longitude": 14.0975
    },
    {
        "name": "Schleben",
        "latitude": 46.62039,
        "longitude": 13.93301
    },
    {
        "name": "Seebach",
        "latitude": 46.61667,
        "longitude": 13.86667
    },
    {
        "name": "Seeboden",
        "latitude": 46.81909,
        "longitude": 13.5143
    },
    {
        "name": "Seitenberg",
        "latitude": 46.74801,
        "longitude": 14.08825
    },
    {
        "name": "Sirnitz",
        "latitude": 46.82361,
        "longitude": 14.05944
    },
    {
        "name": "Sittersdorf",
        "latitude": 46.54444,
        "longitude": 14.60583
    },
    {
        "name": "Spittal an der Drau",
        "latitude": 46.8,
        "longitude": 13.5
    },
    {
        "name": "Spittal an der Drau District",
        "latitude": 46.85,
        "longitude": 13.33333
    },
    {
        "name": "St. Agathen und Perau",
        "latitude": 46.60627,
        "longitude": 13.85615
    },
    {
        "name": "St. Andr\u00e4",
        "latitude": 46.76473,
        "longitude": 14.82442
    },
    {
        "name": "St. Margareten im Rosental",
        "latitude": 46.52498,
        "longitude": 14.416
    },
    {
        "name": "St. Paul im Lavanttal",
        "latitude": 46.69869,
        "longitude": 14.84877
    },
    {
        "name": "St. Stefan im Gailtal",
        "latitude": 46.60796,
        "longitude": 13.50973
    },
    {
        "name": "St. Urban",
        "latitude": 46.76128,
        "longitude": 14.16658
    },
    {
        "name": "St. Veit an der Glan",
        "latitude": 46.73536,
        "longitude": 14.35404
    },
    {
        "name": "St. Veiter Vorstadt",
        "latitude": 46.6317,
        "longitude": 14.30579
    },
    {
        "name": "Stall",
        "latitude": 46.89056,
        "longitude": 13.03694
    },
    {
        "name": "Steindorf am Ossiacher See",
        "latitude": 46.69833,
        "longitude": 14.00917
    },
    {
        "name": "Steinfeld",
        "latitude": 46.75812,
        "longitude": 13.24934
    },
    {
        "name": "Steuerberg",
        "latitude": 46.78804,
        "longitude": 14.1129
    },
    {
        "name": "Stockenboi",
        "latitude": 46.72611,
        "longitude": 13.52306
    },
    {
        "name": "Stra\u00dfburg",
        "latitude": 46.89555556,
        "longitude": 14.33083333
    },
    {
        "name": "Stra\u00dfburg-Stadt",
        "latitude": 46.89444,
        "longitude": 14.32861
    },
    {
        "name": "Suetschach",
        "latitude": 46.52694444,
        "longitude": 14.15638889
    },
    {
        "name": "Techelsberg",
        "latitude": 46.65861111,
        "longitude": 14.10194444
    },
    {
        "name": "Timenitz",
        "latitude": 46.68333,
        "longitude": 14.41667
    },
    {
        "name": "Trebesing",
        "latitude": 46.88639,
        "longitude": 13.51028
    },
    {
        "name": "Treffen",
        "latitude": 46.66833333,
        "longitude": 13.85555556
    },
    {
        "name": "Treibach",
        "latitude": 46.86667,
        "longitude": 14.46667
    },
    {
        "name": "Tschachoritsch",
        "latitude": 46.55352,
        "longitude": 14.21461
    },
    {
        "name": "Umberg",
        "latitude": 46.64833,
        "longitude": 13.9575
    },
    {
        "name": "Untere Fellach",
        "latitude": 46.62504,
        "longitude": 13.82681
    },
    {
        "name": "Velden am W\u00f6rther See",
        "latitude": 46.6125,
        "longitude": 14.04194444
    },
    {
        "name": "Velden am W\u00f6rthersee",
        "latitude": 46.61301,
        "longitude": 14.0413
    },
    {
        "name": "Viktring",
        "latitude": 46.59194,
        "longitude": 14.26917
    },
    {
        "name": "Viktringer Vorstadt",
        "latitude": 46.61773,
        "longitude": 14.30931
    },
    {
        "name": "Villach",
        "latitude": 46.61028,
        "longitude": 13.85583
    },
    {
        "name": "Villach-Innere Stadt",
        "latitude": 46.61275,
        "longitude": 13.84638
    },
    {
        "name": "Villach-Land District",
        "latitude": 46.65308,
        "longitude": 13.77287
    },
    {
        "name": "Villacher Vorstadt",
        "latitude": 46.62368,
        "longitude": 14.28892
    },
    {
        "name": "V\u00f6lkendorf",
        "latitude": 46.60806,
        "longitude": 13.83153
    },
    {
        "name": "V\u00f6lkermarkt",
        "latitude": 46.66222,
        "longitude": 14.63444
    },
    {
        "name": "V\u00f6lkermarkt District",
        "latitude": 46.59641,
        "longitude": 14.66664
    },
    {
        "name": "V\u00f6lkermarkter Vorstadt",
        "latitude": 46.62418,
        "longitude": 14.32081
    },
    {
        "name": "Waiern",
        "latitude": 46.73028,
        "longitude": 14.08194
    },
    {
        "name": "Warmbad-Judendorf",
        "latitude": 46.60126,
        "longitude": 13.82241
    },
    {
        "name": "Wei\u00dfensee",
        "latitude": 46.71666667,
        "longitude": 13.3
    },
    {
        "name": "Wei\u00dfenstein",
        "latitude": 46.68222222,
        "longitude": 13.72361111
    },
    {
        "name": "Weitensfeld",
        "latitude": 46.84743,
        "longitude": 14.19213
    },
    {
        "name": "Weitensfeld im Gurktal",
        "latitude": 46.84861111,
        "longitude": 14.19166667
    },
    {
        "name": "Wernberg",
        "latitude": 46.61667,
        "longitude": 13.93333
    },
    {
        "name": "Winklern",
        "latitude": 46.87361,
        "longitude": 12.87472
    },
    {
        "name": "W\u00f6lfnitz",
        "latitude": 46.66639,
        "longitude": 14.25806
    },
    {
        "name": "Wolfsberg",
        "latitude": 46.84056,
        "longitude": 14.84417
    },
    {
        "name": "Wolfsberg District",
        "latitude": 46.83333,
        "longitude": 14.83333
    },
    {
        "name": "Wudmath",
        "latitude": 46.59634,
        "longitude": 13.98067
    },
    {
        "name": "Zell",
        "latitude": 46.47222222,
        "longitude": 14.38888889
    },
    {
        "name": "Absdorf",
        "latitude": 48.40021,
        "longitude": 15.97874
    },
    {
        "name": "Achau",
        "latitude": 48.08026,
        "longitude": 16.38611
    },
    {
        "name": "Aderklaa",
        "latitude": 48.28333,
        "longitude": 16.53333
    },
    {
        "name": "Aggsbach",
        "latitude": 48.29404,
        "longitude": 15.40382
    },
    {
        "name": "Alland",
        "latitude": 48.05829,
        "longitude": 16.07901
    },
    {
        "name": "Allentsteig",
        "latitude": 48.69725,
        "longitude": 15.32756
    },
    {
        "name": "Allhartsberg",
        "latitude": 48.02633,
        "longitude": 14.79009
    },
    {
        "name": "Altenburg",
        "latitude": 48.64765,
        "longitude": 15.59295
    },
    {
        "name": "Altendorf",
        "latitude": 47.65,
        "longitude": 16.01667
    },
    {
        "name": "Altenmarkt an der Triesting",
        "latitude": 48.01553,
        "longitude": 15.99661
    },
    {
        "name": "Altlengbach",
        "latitude": 48.15355,
        "longitude": 15.92606
    },
    {
        "name": "Altlichtenwarth",
        "latitude": 48.64442,
        "longitude": 16.79664
    },
    {
        "name": "Altmelon",
        "latitude": 48.46222,
        "longitude": 14.96552
    },
    {
        "name": "Amstetten",
        "latitude": 48.1229,
        "longitude": 14.87206
    },
    {
        "name": "Andlersdorf",
        "latitude": 48.18333,
        "longitude": 16.66667
    },
    {
        "name": "Angern an der March",
        "latitude": 48.37778,
        "longitude": 16.82806
    },
    {
        "name": "Arbesbach",
        "latitude": 48.49337,
        "longitude": 14.95308
    },
    {
        "name": "Ardagger Stift",
        "latitude": 48.15,
        "longitude": 14.83333
    },
    {
        "name": "Aschbach Markt",
        "latitude": 48.07234,
        "longitude": 14.75395
    },
    {
        "name": "Aspang Markt",
        "latitude": 47.55,
        "longitude": 16.08333
    },
    {
        "name": "Asparn an der Zaya",
        "latitude": 48.58333,
        "longitude": 16.5
    },
    {
        "name": "Asperhofen",
        "latitude": 48.24583,
        "longitude": 15.92606
    },
    {
        "name": "Atzenbrugg",
        "latitude": 48.29119,
        "longitude": 15.90614
    },
    {
        "name": "Au am Leithaberge",
        "latitude": 47.92296,
        "longitude": 16.55794
    },
    {
        "name": "Auersthal",
        "latitude": 48.37373,
        "longitude": 16.63596
    },
    {
        "name": "Bad Deutsch-Altenburg",
        "latitude": 48.13425,
        "longitude": 16.90624
    },
    {
        "name": "Bad Erlach",
        "latitude": 47.72722,
        "longitude": 16.21444
    },
    {
        "name": "Bad Fischau",
        "latitude": 47.83137,
        "longitude": 16.16707
    },
    {
        "name": "Bad Pirawarth",
        "latitude": 48.45194,
        "longitude": 16.59833
    },
    {
        "name": "Bad Sch\u00f6nau",
        "latitude": 47.49473,
        "longitude": 16.2341
    },
    {
        "name": "Bad Traunstein",
        "latitude": 48.4385,
        "longitude": 15.11712
    },
    {
        "name": "Bad V\u00f6slau",
        "latitude": 47.96533,
        "longitude": 16.21359
    },
    {
        "name": "Baden",
        "latitude": 48.00543,
        "longitude": 16.23264
    },
    {
        "name": "B\u00e4rnkopf",
        "latitude": 48.39046,
        "longitude": 15.00479
    },
    {
        "name": "Behamberg",
        "latitude": 48.01667,
        "longitude": 14.48333
    },
    {
        "name": "Berg",
        "latitude": 48.10147,
        "longitude": 17.03842
    },
    {
        "name": "Bergland",
        "latitude": 48.15595,
        "longitude": 15.18553
    },
    {
        "name": "Berndorf",
        "latitude": 47.94567,
        "longitude": 16.10973
    },
    {
        "name": "Bernhardsthal",
        "latitude": 48.69158,
        "longitude": 16.86951
    },
    {
        "name": "Biberbach",
        "latitude": 48.03006,
        "longitude": 14.70795
    },
    {
        "name": "Biedermannsdorf",
        "latitude": 48.08393,
        "longitude": 16.34542
    },
    {
        "name": "Bisamberg",
        "latitude": 48.33333,
        "longitude": 16.35
    },
    {
        "name": "Bischofstetten",
        "latitude": 48.12222,
        "longitude": 15.46909
    },
    {
        "name": "Blindenmarkt",
        "latitude": 48.12749,
        "longitude": 14.98647
    },
    {
        "name": "Bockflie\u00df",
        "latitude": 48.36,
        "longitude": 16.60389
    },
    {
        "name": "B\u00f6heimkirchen",
        "latitude": 48.19779,
        "longitude": 15.76178
    },
    {
        "name": "Breitenau",
        "latitude": 47.73355,
        "longitude": 16.14338
    },
    {
        "name": "Breitenfurt bei Wien",
        "latitude": 48.13333,
        "longitude": 16.15
    },
    {
        "name": "Bromberg",
        "latitude": 47.66539,
        "longitude": 16.2099
    },
    {
        "name": "Bruck an der Leitha",
        "latitude": 48.01667,
        "longitude": 16.76667
    },
    {
        "name": "Brunn am Gebirge",
        "latitude": 48.10697,
        "longitude": 16.28466
    },
    {
        "name": "Brunn an der Schneebergbahn",
        "latitude": 47.82376,
        "longitude": 16.15934
    },
    {
        "name": "Brunn an der Wild",
        "latitude": 48.69425,
        "longitude": 15.52008
    },
    {
        "name": "Buchbach",
        "latitude": 47.69648,
        "longitude": 15.98425
    },
    {
        "name": "Deutsch-Wagram",
        "latitude": 48.29972,
        "longitude": 16.56667
    },
    {
        "name": "Dobersberg",
        "latitude": 48.9151,
        "longitude": 15.32188
    },
    {
        "name": "Dorfstetten",
        "latitude": 48.32573,
        "longitude": 14.98218
    },
    {
        "name": "Drasenhofen",
        "latitude": 48.75,
        "longitude": 16.65
    },
    {
        "name": "Dr\u00f6sing",
        "latitude": 48.539,
        "longitude": 16.90264
    },
    {
        "name": "Dro\u00df",
        "latitude": 48.46393,
        "longitude": 15.57561
    },
    {
        "name": "D\u00fcrnkrut",
        "latitude": 48.47315,
        "longitude": 16.85062
    },
    {
        "name": "D\u00fcrnstein",
        "latitude": 48.39582,
        "longitude": 15.51973
    },
    {
        "name": "Ebenfurth",
        "latitude": 47.87738,
        "longitude": 16.36731
    },
    {
        "name": "Ebenthal",
        "latitude": 48.43333,
        "longitude": 16.78333
    },
    {
        "name": "Ebergassing",
        "latitude": 48.04567,
        "longitude": 16.51709
    },
    {
        "name": "Ebreichsdorf",
        "latitude": 47.95579,
        "longitude": 16.40705
    },
    {
        "name": "Echsenbach",
        "latitude": 48.71667,
        "longitude": 15.21667
    },
    {
        "name": "Eckartsau",
        "latitude": 48.14507,
        "longitude": 16.79737
    },
    {
        "name": "Edlitz",
        "latitude": 47.59797,
        "longitude": 16.14052
    },
    {
        "name": "Eggenburg",
        "latitude": 48.63892,
        "longitude": 15.81903
    },
    {
        "name": "Eggendorf",
        "latitude": 47.85809,
        "longitude": 16.32182
    },
    {
        "name": "Eggern",
        "latitude": 48.90829,
        "longitude": 15.14877
    },
    {
        "name": "Eichgraben",
        "latitude": 48.17204,
        "longitude": 15.98391
    },
    {
        "name": "Eisgarn",
        "latitude": 48.91675,
        "longitude": 15.1032
    },
    {
        "name": "Emmersdorf an der Donau",
        "latitude": 48.2414,
        "longitude": 15.33721
    },
    {
        "name": "Engelhartstetten",
        "latitude": 48.1816,
        "longitude": 16.88367
    },
    {
        "name": "Ennsdorf",
        "latitude": 48.21181,
        "longitude": 14.5029
    },
    {
        "name": "Enzenreith",
        "latitude": 47.66839,
        "longitude": 15.95249
    },
    {
        "name": "Enzersdorf an der Fischa",
        "latitude": 48.08502,
        "longitude": 16.60832
    },
    {
        "name": "Enzersfeld",
        "latitude": 48.36338,
        "longitude": 16.42387
    },
    {
        "name": "Erlauf",
        "latitude": 48.18333,
        "longitude": 15.18333
    },
    {
        "name": "Ernstbrunn",
        "latitude": 48.53333,
        "longitude": 16.35
    },
    {
        "name": "Ernsthofen",
        "latitude": 48.12915,
        "longitude": 14.48058
    },
    {
        "name": "Erpersdorf",
        "latitude": 48.3421,
        "longitude": 15.91747
    },
    {
        "name": "Ertl",
        "latitude": 47.97704,
        "longitude": 14.63134
    },
    {
        "name": "Eschenau",
        "latitude": 48.04825,
        "longitude": 15.56694
    },
    {
        "name": "Euratsfeld",
        "latitude": 48.08181,
        "longitude": 14.93154
    },
    {
        "name": "Falkenstein",
        "latitude": 48.71667,
        "longitude": 16.58333
    },
    {
        "name": "Fallbach",
        "latitude": 48.65,
        "longitude": 16.41667
    },
    {
        "name": "Feistritz am Wechsel",
        "latitude": 47.6,
        "longitude": 16.05
    },
    {
        "name": "Felixdorf",
        "latitude": 47.88159,
        "longitude": 16.24208
    },
    {
        "name": "Fels am Wagram",
        "latitude": 48.43333,
        "longitude": 15.81667
    },
    {
        "name": "Ferschnitz",
        "latitude": 48.09419,
        "longitude": 14.98454
    },
    {
        "name": "Fischamend-Markt",
        "latitude": 48.11667,
        "longitude": 16.6
    },
    {
        "name": "Frankenfels",
        "latitude": 47.98234,
        "longitude": 15.32593
    },
    {
        "name": "Frohsdorf",
        "latitude": 47.73333,
        "longitude": 16.25
    },
    {
        "name": "Furth an der Triesting",
        "latitude": 47.97326,
        "longitude": 15.97326
    },
    {
        "name": "Furth bei G\u00f6ttweig",
        "latitude": 48.37385,
        "longitude": 15.61408
    },
    {
        "name": "Gaaden",
        "latitude": 48.05364,
        "longitude": 16.20003
    },
    {
        "name": "Gablitz",
        "latitude": 48.22856,
        "longitude": 16.15437
    },
    {
        "name": "Gainfarn",
        "latitude": 47.9628,
        "longitude": 16.19368
    },
    {
        "name": "Gaming",
        "latitude": 47.929,
        "longitude": 15.08818
    },
    {
        "name": "G\u00e4nserndorf",
        "latitude": 48.33925,
        "longitude": 16.72016
    },
    {
        "name": "Gars am Kamp",
        "latitude": 48.58899,
        "longitude": 15.65363
    },
    {
        "name": "Gastern",
        "latitude": 48.89446,
        "longitude": 15.22027
    },
    {
        "name": "Gaubitsch",
        "latitude": 48.65,
        "longitude": 16.38333
    },
    {
        "name": "Gaweinstal",
        "latitude": 48.48003,
        "longitude": 16.5879
    },
    {
        "name": "Gedersdorf",
        "latitude": 48.43319,
        "longitude": 15.68865
    },
    {
        "name": "Geras",
        "latitude": 48.79725,
        "longitude": 15.67268
    },
    {
        "name": "Gerasdorf bei Wien",
        "latitude": 48.29447,
        "longitude": 16.46765
    },
    {
        "name": "Gerersdorf",
        "latitude": 48.20088,
        "longitude": 15.55613
    },
    {
        "name": "Gerolding",
        "latitude": 48.25,
        "longitude": 15.41667
    },
    {
        "name": "Gf\u00f6hl",
        "latitude": 48.51667,
        "longitude": 15.48333
    },
    {
        "name": "Gie\u00dfh\u00fcbl",
        "latitude": 48.0978,
        "longitude": 16.23479
    },
    {
        "name": "Glinzendorf",
        "latitude": 48.24605,
        "longitude": 16.6406
    },
    {
        "name": "Gloggnitz",
        "latitude": 47.67487,
        "longitude": 15.93893
    },
    {
        "name": "Gm\u00fcnd",
        "latitude": 48.7683,
        "longitude": 14.9808
    },
    {
        "name": "Gnadendorf",
        "latitude": 48.61667,
        "longitude": 16.4
    },
    {
        "name": "Gneixendorf",
        "latitude": 48.43751,
        "longitude": 15.6181
    },
    {
        "name": "G\u00f6llersdorf",
        "latitude": 48.49357,
        "longitude": 16.11943
    },
    {
        "name": "G\u00f6pfritz an der Wild",
        "latitude": 48.72497,
        "longitude": 15.40236
    },
    {
        "name": "G\u00f6stling an der Ybbs",
        "latitude": 47.80664,
        "longitude": 14.93797
    },
    {
        "name": "G\u00f6tzendorf an der Leitha",
        "latitude": 48.01667,
        "longitude": 16.58333
    },
    {
        "name": "Grafenegg",
        "latitude": 48.4304,
        "longitude": 15.74907
    },
    {
        "name": "Grafenschlag",
        "latitude": 48.5,
        "longitude": 15.16667
    },
    {
        "name": "Grafenw\u00f6rth",
        "latitude": 48.4079,
        "longitude": 15.77826
    },
    {
        "name": "Gramatneusiedl",
        "latitude": 48.0304,
        "longitude": 16.48936
    },
    {
        "name": "Greinsfurth",
        "latitude": 48.10846,
        "longitude": 14.8439
    },
    {
        "name": "Gresten",
        "latitude": 47.98521,
        "longitude": 15.02552
    },
    {
        "name": "Grimmenstein",
        "latitude": 47.61635,
        "longitude": 16.12724
    },
    {
        "name": "Gro\u00df-Engersdorf",
        "latitude": 48.35873,
        "longitude": 16.5661
    },
    {
        "name": "Gro\u00df-Enzersdorf",
        "latitude": 48.20278,
        "longitude": 16.55083
    },
    {
        "name": "Gro\u00df-Gerungs",
        "latitude": 48.57422,
        "longitude": 14.95789
    },
    {
        "name": "Gro\u00df-Schweinbarth",
        "latitude": 48.41472,
        "longitude": 16.63194
    },
    {
        "name": "Gro\u00df-Siegharts",
        "latitude": 48.7918,
        "longitude": 15.40429
    },
    {
        "name": "Gro\u00dfebersdorf",
        "latitude": 48.36405,
        "longitude": 16.47076
    },
    {
        "name": "Gro\u00dfharras",
        "latitude": 48.66389,
        "longitude": 16.24556
    },
    {
        "name": "Gro\u00dfhofen",
        "latitude": 48.25834,
        "longitude": 16.6194
    },
    {
        "name": "Gro\u00dfkrut",
        "latitude": 48.64389,
        "longitude": 16.72361
    },
    {
        "name": "Gro\u00dfmugl",
        "latitude": 48.49917,
        "longitude": 16.23056
    },
    {
        "name": "Gro\u00dfriedenthal",
        "latitude": 48.48333,
        "longitude": 15.86667
    },
    {
        "name": "Gro\u00dfru\u00dfbach",
        "latitude": 48.47412,
        "longitude": 16.41649
    },
    {
        "name": "Gro\u00dfweikersdorf",
        "latitude": 48.47123,
        "longitude": 15.98251
    },
    {
        "name": "Gr\u00fcnbach am Schneeberg",
        "latitude": 47.79747,
        "longitude": 15.98785
    },
    {
        "name": "Gugging",
        "latitude": 48.31385,
        "longitude": 16.24852
    },
    {
        "name": "Gumpoldskirchen",
        "latitude": 48.04538,
        "longitude": 16.2771
    },
    {
        "name": "G\u00fcnselsdorf",
        "latitude": 47.94395,
        "longitude": 16.26062
    },
    {
        "name": "Guntersdorf",
        "latitude": 48.65,
        "longitude": 16.05
    },
    {
        "name": "Guntramsdorf",
        "latitude": 48.04687,
        "longitude": 16.31384
    },
    {
        "name": "Gutenbrunn",
        "latitude": 48.3652,
        "longitude": 15.11899
    },
    {
        "name": "Gutenstein",
        "latitude": 47.876,
        "longitude": 15.88881
    },
    {
        "name": "Haag",
        "latitude": 48.11362,
        "longitude": 14.56753
    },
    {
        "name": "Hadersdorf am Kamp",
        "latitude": 48.45,
        "longitude": 15.71667
    },
    {
        "name": "Hadres",
        "latitude": 48.70965,
        "longitude": 16.13038
    },
    {
        "name": "Hafnerbach",
        "latitude": 48.21667,
        "longitude": 15.48333
    },
    {
        "name": "Hagenbrunn",
        "latitude": 48.33333,
        "longitude": 16.4
    },
    {
        "name": "Haidershofen",
        "latitude": 48.07579,
        "longitude": 14.46131
    },
    {
        "name": "Hainburg an der Donau",
        "latitude": 48.14627,
        "longitude": 16.94504
    },
    {
        "name": "Hainfeld",
        "latitude": 48.0339,
        "longitude": 15.77414
    },
    {
        "name": "Hardegg",
        "latitude": 48.85,
        "longitude": 15.85
    },
    {
        "name": "Haringsee",
        "latitude": 48.1927,
        "longitude": 16.78741
    },
    {
        "name": "Harland",
        "latitude": 48.16162,
        "longitude": 15.63835
    },
    {
        "name": "Harmannsdorf",
        "latitude": 48.39724,
        "longitude": 16.3722
    },
    {
        "name": "Hart",
        "latitude": 48.1532,
        "longitude": 15.61569
    },
    {
        "name": "Haugschlag",
        "latitude": 48.98333,
        "longitude": 15.05
    },
    {
        "name": "Haugsdorf",
        "latitude": 48.70762,
        "longitude": 16.07656
    },
    {
        "name": "Haunoldstein",
        "latitude": 48.2,
        "longitude": 15.45
    },
    {
        "name": "Hausbrunn",
        "latitude": 48.62602,
        "longitude": 16.82844
    },
    {
        "name": "Hauskirchen",
        "latitude": 48.6,
        "longitude": 16.76667
    },
    {
        "name": "Hausleiten",
        "latitude": 48.38333,
        "longitude": 16.1
    },
    {
        "name": "Hausmening",
        "latitude": 48.07074,
        "longitude": 14.81438
    },
    {
        "name": "Heidenreichstein",
        "latitude": 48.86667,
        "longitude": 15.11667
    },
    {
        "name": "Heiligeneich",
        "latitude": 48.29964,
        "longitude": 15.89413
    },
    {
        "name": "Heiligenkreuz",
        "latitude": 48.05559,
        "longitude": 16.12493
    },
    {
        "name": "Hennersdorf",
        "latitude": 48.11173,
        "longitude": 16.36311
    },
    {
        "name": "Hernstein",
        "latitude": 47.89465,
        "longitude": 16.10561
    },
    {
        "name": "Herrnbaumgarten",
        "latitude": 48.69606,
        "longitude": 16.68283
    },
    {
        "name": "Herzogenburg",
        "latitude": 48.28137,
        "longitude": 15.69431
    },
    {
        "name": "Himberg",
        "latitude": 48.08333,
        "longitude": 16.43333
    },
    {
        "name": "Hinterbr\u00fchl",
        "latitude": 48.08611,
        "longitude": 16.24809
    },
    {
        "name": "Hinterleiten",
        "latitude": 48.16513,
        "longitude": 15.96654
    },
    {
        "name": "Hirschbach",
        "latitude": 48.74329,
        "longitude": 15.12521
    },
    {
        "name": "Hirtenberg",
        "latitude": 47.93095,
        "longitude": 16.17908
    },
    {
        "name": "Hochleithen",
        "latitude": 48.45317,
        "longitude": 16.5309
    },
    {
        "name": "Hochwolkersdorf",
        "latitude": 47.66127,
        "longitude": 16.28072
    },
    {
        "name": "Hof am Leithaberge",
        "latitude": 47.95,
        "longitude": 16.58333
    },
    {
        "name": "Hofamt Priel",
        "latitude": 48.19581,
        "longitude": 15.07746
    },
    {
        "name": "H\u00f6flein",
        "latitude": 48.06667,
        "longitude": 16.78333
    },
    {
        "name": "H\u00f6fling",
        "latitude": 48.05444,
        "longitude": 15.03672
    },
    {
        "name": "Hofstetten",
        "latitude": 48.09711,
        "longitude": 15.51149
    },
    {
        "name": "Hohenau",
        "latitude": 48.6042,
        "longitude": 16.9047
    },
    {
        "name": "Hohenberg",
        "latitude": 47.90679,
        "longitude": 15.61998
    },
    {
        "name": "Hoheneich",
        "latitude": 48.77195,
        "longitude": 15.02857
    },
    {
        "name": "Hohenruppersdorf",
        "latitude": 48.46439,
        "longitude": 16.65244
    },
    {
        "name": "Hollabrunn",
        "latitude": 48.55,
        "longitude": 16.08333
    },
    {
        "name": "Hollenstein an der Ybbs",
        "latitude": 47.80305,
        "longitude": 14.77312
    },
    {
        "name": "Hollenthon",
        "latitude": 47.58938,
        "longitude": 16.26131
    },
    {
        "name": "Horn",
        "latitude": 48.66274,
        "longitude": 15.65663
    },
    {
        "name": "Hundsheim",
        "latitude": 48.11749,
        "longitude": 16.93581
    },
    {
        "name": "H\u00fcrm",
        "latitude": 48.15601,
        "longitude": 15.41262
    },
    {
        "name": "Hutten",
        "latitude": 48.17856,
        "longitude": 15.98579
    },
    {
        "name": "Jaidhof",
        "latitude": 48.53333,
        "longitude": 15.48333
    },
    {
        "name": "Japons",
        "latitude": 48.7925,
        "longitude": 15.56831
    },
    {
        "name": "Jedenspeigen",
        "latitude": 48.49807,
        "longitude": 16.87225
    },
    {
        "name": "Kaltenleutgeben",
        "latitude": 48.11646,
        "longitude": 16.19956
    },
    {
        "name": "Kapelln",
        "latitude": 48.25817,
        "longitude": 15.75731
    },
    {
        "name": "Karlstetten",
        "latitude": 48.2592,
        "longitude": 15.56544
    },
    {
        "name": "Kasten bei B\u00f6heimkirchen",
        "latitude": 48.1532,
        "longitude": 15.77946
    },
    {
        "name": "Katzelsdorf",
        "latitude": 47.78055,
        "longitude": 16.26985
    },
    {
        "name": "Kaumberg",
        "latitude": 48.02415,
        "longitude": 15.89842
    },
    {
        "name": "Kautzen",
        "latitude": 48.93,
        "longitude": 15.23932
    },
    {
        "name": "Kematen an der Ybbs",
        "latitude": 48.02541,
        "longitude": 14.76468
    },
    {
        "name": "Kierling",
        "latitude": 48.30997,
        "longitude": 16.27616
    },
    {
        "name": "Kilb",
        "latitude": 48.10101,
        "longitude": 15.4085
    },
    {
        "name": "Kirchberg am Wagram",
        "latitude": 48.43182,
        "longitude": 15.89692
    },
    {
        "name": "Kirchberg am Walde",
        "latitude": 48.72477,
        "longitude": 15.08826
    },
    {
        "name": "Kirchberg am Wechsel",
        "latitude": 47.60738,
        "longitude": 15.99103
    },
    {
        "name": "Kirchberg an der Pielach",
        "latitude": 48.0269,
        "longitude": 15.42875
    },
    {
        "name": "Kirchschlag",
        "latitude": 48.39345,
        "longitude": 15.22285
    },
    {
        "name": "Kirchschlag in der Buckligen Welt",
        "latitude": 47.5,
        "longitude": 16.28333
    },
    {
        "name": "Kirchstetten",
        "latitude": 48.18333,
        "longitude": 15.81667
    },
    {
        "name": "Kirnberg an der Mank",
        "latitude": 48.07246,
        "longitude": 15.32232
    },
    {
        "name": "Klausen-Leopoldsdorf",
        "latitude": 48.08771,
        "longitude": 16.01686
    },
    {
        "name": "Klein-Neusiedl",
        "latitude": 48.09379,
        "longitude": 16.60661
    },
    {
        "name": "Klein-P\u00f6chlarn",
        "latitude": 48.21667,
        "longitude": 15.21667
    },
    {
        "name": "Kleinzell",
        "latitude": 47.97993,
        "longitude": 15.7362
    },
    {
        "name": "Klosterneuburg",
        "latitude": 48.30521,
        "longitude": 16.32522
    },
    {
        "name": "K\u00f6nigstetten",
        "latitude": 48.30198,
        "longitude": 16.14492
    },
    {
        "name": "Korneuburg",
        "latitude": 48.35,
        "longitude": 16.33333
    },
    {
        "name": "Kottingbrunn",
        "latitude": 47.95096,
        "longitude": 16.22715
    },
    {
        "name": "Krems an der Donau",
        "latitude": 48.40921,
        "longitude": 15.61415
    },
    {
        "name": "Krems an der Donau Stadt",
        "latitude": 48.4104,
        "longitude": 15.60574
    },
    {
        "name": "Kritzendorf",
        "latitude": 48.32932,
        "longitude": 16.30011
    },
    {
        "name": "Krumau am Kamp",
        "latitude": 48.58879,
        "longitude": 15.44914
    },
    {
        "name": "Krumbach Markt",
        "latitude": 47.51667,
        "longitude": 16.18333
    },
    {
        "name": "Krumnussbaum",
        "latitude": 48.20877,
        "longitude": 15.16212
    },
    {
        "name": "Laa an der Thaya",
        "latitude": 48.71667,
        "longitude": 16.38333
    },
    {
        "name": "Laab im Walde",
        "latitude": 48.15486,
        "longitude": 16.17359
    },
    {
        "name": "Ladendorf",
        "latitude": 48.53333,
        "longitude": 16.48333
    },
    {
        "name": "Landegg",
        "latitude": 47.9,
        "longitude": 16.4
    },
    {
        "name": "Langau",
        "latitude": 48.83207,
        "longitude": 15.7156
    },
    {
        "name": "Langenlebarn-Oberaigen",
        "latitude": 48.33023,
        "longitude": 16.11059
    },
    {
        "name": "Langenlois",
        "latitude": 48.46667,
        "longitude": 15.66667
    },
    {
        "name": "Langenrohr",
        "latitude": 48.30489,
        "longitude": 16.01034
    },
    {
        "name": "Langenzersdorf",
        "latitude": 48.30432,
        "longitude": 16.36143
    },
    {
        "name": "Langschlag",
        "latitude": 48.57448,
        "longitude": 14.88459
    },
    {
        "name": "Lanzendorf",
        "latitude": 48.11056,
        "longitude": 16.445
    },
    {
        "name": "Lanzenkirchen",
        "latitude": 47.73621,
        "longitude": 16.21985
    },
    {
        "name": "Lassee",
        "latitude": 48.22479,
        "longitude": 16.8223
    },
    {
        "name": "Laxenburg",
        "latitude": 48.06833,
        "longitude": 16.35607
    },
    {
        "name": "Leiben",
        "latitude": 48.24628,
        "longitude": 15.2746
    },
    {
        "name": "Leitzersdorf",
        "latitude": 48.41918,
        "longitude": 16.24513
    },
    {
        "name": "Lengenfeld",
        "latitude": 48.47187,
        "longitude": 15.5987
    },
    {
        "name": "Leobendorf",
        "latitude": 48.38333,
        "longitude": 16.31667
    },
    {
        "name": "Leobersdorf",
        "latitude": 47.92796,
        "longitude": 16.21651
    },
    {
        "name": "Leopoldsdorf",
        "latitude": 48.11557,
        "longitude": 16.39126
    },
    {
        "name": "Leopoldsdorf im Marchfelde",
        "latitude": 48.22261,
        "longitude": 16.68858
    },
    {
        "name": "Lerchenfeld",
        "latitude": 48.41234,
        "longitude": 15.63183
    },
    {
        "name": "Lichtenegg",
        "latitude": 47.6,
        "longitude": 16.2
    },
    {
        "name": "Lichtenw\u00f6rth",
        "latitude": 47.82756,
        "longitude": 16.29873
    },
    {
        "name": "Lilienfeld",
        "latitude": 48.01312,
        "longitude": 15.59664
    },
    {
        "name": "Litschau",
        "latitude": 48.94409,
        "longitude": 15.04483
    },
    {
        "name": "Loich",
        "latitude": 47.99578,
        "longitude": 15.40163
    },
    {
        "name": "Loosdorf",
        "latitude": 48.2,
        "longitude": 15.4
    },
    {
        "name": "Lunz am See",
        "latitude": 47.8612,
        "longitude": 15.02998
    },
    {
        "name": "Mailberg",
        "latitude": 48.67379,
        "longitude": 16.18132
    },
    {
        "name": "Maissau",
        "latitude": 48.573,
        "longitude": 15.83005
    },
    {
        "name": "Mank",
        "latitude": 48.11024,
        "longitude": 15.33915
    },
    {
        "name": "Mannersdorf am Leithagebirge",
        "latitude": 47.96667,
        "longitude": 16.6
    },
    {
        "name": "Mannsdorf an der Donau",
        "latitude": 48.152,
        "longitude": 16.66506
    },
    {
        "name": "Mannsw\u00f6rth",
        "latitude": 48.14547,
        "longitude": 16.51374
    },
    {
        "name": "Marbach an der Donau",
        "latitude": 48.21667,
        "longitude": 15.15
    },
    {
        "name": "Marchegg",
        "latitude": 48.26217,
        "longitude": 16.91045
    },
    {
        "name": "Margarethen am Moos",
        "latitude": 48.03333,
        "longitude": 16.6
    },
    {
        "name": "Maria Ellend",
        "latitude": 48.1,
        "longitude": 16.68333
    },
    {
        "name": "Maria Enzersdorf",
        "latitude": 48.1,
        "longitude": 16.28333
    },
    {
        "name": "Maria Laach am Jauerling",
        "latitude": 48.30412,
        "longitude": 15.34472
    },
    {
        "name": "Maria Lanzendorf",
        "latitude": 48.09923,
        "longitude": 16.41984
    },
    {
        "name": "Maria Taferl",
        "latitude": 48.22702,
        "longitude": 15.15954
    },
    {
        "name": "Maria-Anzbach",
        "latitude": 48.19012,
        "longitude": 15.93155
    },
    {
        "name": "Markersdorf an der Pielach",
        "latitude": 48.18333,
        "longitude": 15.5
    },
    {
        "name": "Markgrafneusiedl",
        "latitude": 48.26667,
        "longitude": 16.63333
    },
    {
        "name": "Markt Piesting",
        "latitude": 47.87358,
        "longitude": 16.1251
    },
    {
        "name": "Martinsberg",
        "latitude": 48.37549,
        "longitude": 15.14997
    },
    {
        "name": "Matzen",
        "latitude": 48.4,
        "longitude": 16.7
    },
    {
        "name": "Matzendorf",
        "latitude": 47.89137,
        "longitude": 16.21393
    },
    {
        "name": "Mauer bei Amstetten",
        "latitude": 48.09643,
        "longitude": 14.8006
    },
    {
        "name": "Mauerbach",
        "latitude": 48.24514,
        "longitude": 16.16793
    },
    {
        "name": "Mautern",
        "latitude": 48.39319,
        "longitude": 15.57793
    },
    {
        "name": "Melk",
        "latitude": 48.22737,
        "longitude": 15.33186
    },
    {
        "name": "Michelhausen",
        "latitude": 48.29085,
        "longitude": 15.93893
    },
    {
        "name": "Miesenbach",
        "latitude": 47.84035,
        "longitude": 15.98236
    },
    {
        "name": "Mistelbach",
        "latitude": 48.57,
        "longitude": 16.57667
    },
    {
        "name": "Mitterbach am Erlaufsee",
        "latitude": 47.81396,
        "longitude": 15.29537
    },
    {
        "name": "Mitterndorf an der Fischa",
        "latitude": 47.99739,
        "longitude": 16.47357
    },
    {
        "name": "M\u00f6dling",
        "latitude": 48.08605,
        "longitude": 16.28921
    },
    {
        "name": "M\u00f6llersdorf",
        "latitude": 48.02575,
        "longitude": 16.30508
    },
    {
        "name": "M\u00f6nichkirchen",
        "latitude": 47.51062,
        "longitude": 16.03425
    },
    {
        "name": "Moosbrunn",
        "latitude": 48.01667,
        "longitude": 16.45
    },
    {
        "name": "Muckendorf an der Donau",
        "latitude": 48.33183,
        "longitude": 16.1554
    },
    {
        "name": "Muggendorf",
        "latitude": 47.91059,
        "longitude": 15.93533
    },
    {
        "name": "M\u00fchldorf",
        "latitude": 48.37432,
        "longitude": 15.34672
    },
    {
        "name": "M\u00fcnchendorf",
        "latitude": 48.03333,
        "longitude": 16.38333
    },
    {
        "name": "Neidling",
        "latitude": 48.24005,
        "longitude": 15.55591
    },
    {
        "name": "Neu-Guntramsdorf",
        "latitude": 48.0642,
        "longitude": 16.31573
    },
    {
        "name": "Neudorf bei Staatz",
        "latitude": 48.72083,
        "longitude": 16.49139
    },
    {
        "name": "Neufurth",
        "latitude": 48.07894,
        "longitude": 14.8118
    },
    {
        "name": "Neuhofen an der Ybbs",
        "latitude": 48.05795,
        "longitude": 14.85489
    },
    {
        "name": "Neulengbach",
        "latitude": 48.19745,
        "longitude": 15.90219
    },
    {
        "name": "Neumarkt an der Ybbs",
        "latitude": 48.14103,
        "longitude": 15.05758
    },
    {
        "name": "Neunkirchen",
        "latitude": 47.72096,
        "longitude": 16.08107
    },
    {
        "name": "Neusiedl",
        "latitude": 47.88769,
        "longitude": 15.96313
    },
    {
        "name": "Neusiedl an der Zaya",
        "latitude": 48.5992,
        "longitude": 16.7799
    },
    {
        "name": "Niederhollabrunn",
        "latitude": 48.43333,
        "longitude": 16.3
    },
    {
        "name": "Niederleis",
        "latitude": 48.55,
        "longitude": 16.4
    },
    {
        "name": "N\u00f6chling",
        "latitude": 48.22433,
        "longitude": 14.98123
    },
    {
        "name": "Ober-Grafendorf",
        "latitude": 48.1504,
        "longitude": 15.54531
    },
    {
        "name": "Oberhausen",
        "latitude": 48.1769,
        "longitude": 16.58506
    },
    {
        "name": "Oberndorf an der Melk",
        "latitude": 48.06386,
        "longitude": 15.2243
    },
    {
        "name": "Oberndorf in der Ebene",
        "latitude": 48.2704,
        "longitude": 15.68985
    },
    {
        "name": "Obersdorf",
        "latitude": 48.36667,
        "longitude": 16.51667
    },
    {
        "name": "Obersiebenbrunn",
        "latitude": 48.26537,
        "longitude": 16.71076
    },
    {
        "name": "Oberwagram",
        "latitude": 48.20157,
        "longitude": 15.64917
    },
    {
        "name": "Oberwaltersdorf",
        "latitude": 47.97567,
        "longitude": 16.32191
    },
    {
        "name": "Oberw\u00f6lbling",
        "latitude": 48.31719,
        "longitude": 15.59166
    },
    {
        "name": "Oehling",
        "latitude": 48.1,
        "longitude": 14.8
    },
    {
        "name": "Oeynhausen",
        "latitude": 47.98533,
        "longitude": 16.29187
    },
    {
        "name": "Opponitz",
        "latitude": 47.87776,
        "longitude": 14.82283
    },
    {
        "name": "Orth an der Donau",
        "latitude": 48.14524,
        "longitude": 16.70089
    },
    {
        "name": "Ottenschlag",
        "latitude": 48.42393,
        "longitude": 15.21924
    },
    {
        "name": "Ottenthal",
        "latitude": 48.761,
        "longitude": 16.57914
    },
    {
        "name": "Otterthal",
        "latitude": 47.61667,
        "longitude": 15.93333
    },
    {
        "name": "Parbasdorf",
        "latitude": 48.28333,
        "longitude": 16.6
    },
    {
        "name": "Paudorf",
        "latitude": 48.35416,
        "longitude": 15.61853
    },
    {
        "name": "Payerbach",
        "latitude": 47.69209,
        "longitude": 15.8634
    },
    {
        "name": "Penz",
        "latitude": 48.03333,
        "longitude": 14.48333
    },
    {
        "name": "Perchtoldsdorf",
        "latitude": 48.11935,
        "longitude": 16.26607
    },
    {
        "name": "Pernegg",
        "latitude": 48.73333,
        "longitude": 15.61667
    },
    {
        "name": "Pernersdorf",
        "latitude": 48.7,
        "longitude": 16.01667
    },
    {
        "name": "Pernitz",
        "latitude": 47.89759,
        "longitude": 15.96022
    },
    {
        "name": "Persenbeug",
        "latitude": 48.18733,
        "longitude": 15.08809
    },
    {
        "name": "Petronell-Carnuntum",
        "latitude": 48.11296,
        "longitude": 16.86582
    },
    {
        "name": "Petzenkirchen",
        "latitude": 48.14693,
        "longitude": 15.15465
    },
    {
        "name": "Pfaffst\u00e4tten",
        "latitude": 48.01737,
        "longitude": 16.26354
    },
    {
        "name": "Pillichsdorf",
        "latitude": 48.35,
        "longitude": 16.53333
    },
    {
        "name": "Pitten",
        "latitude": 47.71667,
        "longitude": 16.18333
    },
    {
        "name": "P\u00f6chlarn",
        "latitude": 48.2,
        "longitude": 15.2
    },
    {
        "name": "P\u00f6ggstall",
        "latitude": 48.31734,
        "longitude": 15.20405
    },
    {
        "name": "Politischer Bezirk Amstetten",
        "latitude": 48.0,
        "longitude": 14.76667
    },
    {
        "name": "Politischer Bezirk Baden",
        "latitude": 47.97729,
        "longitude": 16.19845
    },
    {
        "name": "Politischer Bezirk Bruck an der Leitha",
        "latitude": 48.06781,
        "longitude": 16.77284
    },
    {
        "name": "Politischer Bezirk G\u00e4nserndorf",
        "latitude": 48.3934,
        "longitude": 16.73892
    },
    {
        "name": "Politischer Bezirk Gm\u00fcnd",
        "latitude": 48.74732,
        "longitude": 14.98166
    },
    {
        "name": "Politischer Bezirk Hollabrunn",
        "latitude": 48.65286,
        "longitude": 15.99701
    },
    {
        "name": "Politischer Bezirk Horn",
        "latitude": 48.71341,
        "longitude": 15.68712
    },
    {
        "name": "Politischer Bezirk Korneuburg",
        "latitude": 48.44343,
        "longitude": 16.2412
    },
    {
        "name": "Politischer Bezirk Krems",
        "latitude": 48.46582,
        "longitude": 15.52093
    },
    {
        "name": "Politischer Bezirk Lilienfeld",
        "latitude": 47.91667,
        "longitude": 15.6
    },
    {
        "name": "Politischer Bezirk Melk",
        "latitude": 48.21314,
        "longitude": 15.24282
    },
    {
        "name": "Politischer Bezirk Mistelbach",
        "latitude": 48.59436,
        "longitude": 16.5473
    },
    {
        "name": "Politischer Bezirk M\u00f6dling",
        "latitude": 48.08517,
        "longitude": 16.24118
    },
    {
        "name": "Politischer Bezirk Neunkirchen",
        "latitude": 47.69424,
        "longitude": 15.93783
    },
    {
        "name": "Politischer Bezirk Sankt P\u00f6lten",
        "latitude": 48.16905,
        "longitude": 15.66508
    },
    {
        "name": "Politischer Bezirk Scheibbs",
        "latitude": 47.92316,
        "longitude": 15.10376
    },
    {
        "name": "Politischer Bezirk Tulln",
        "latitude": 48.3,
        "longitude": 16.0
    },
    {
        "name": "Politischer Bezirk Waidhofen an der Thaya",
        "latitude": 48.85925,
        "longitude": 15.35814
    },
    {
        "name": "Politischer Bezirk Wiener Neustadt",
        "latitude": 47.83203,
        "longitude": 16.14291
    },
    {
        "name": "Politischer Bezirk Zwettl",
        "latitude": 48.57435,
        "longitude": 15.17159
    },
    {
        "name": "Pottenbrunn",
        "latitude": 48.23333,
        "longitude": 15.7
    },
    {
        "name": "Pottendorf",
        "latitude": 47.9,
        "longitude": 16.38333
    },
    {
        "name": "Pottenstein",
        "latitude": 47.9582,
        "longitude": 16.0948
    },
    {
        "name": "Pottschach",
        "latitude": 47.69856,
        "longitude": 16.00725
    },
    {
        "name": "Poysdorf",
        "latitude": 48.66667,
        "longitude": 16.63333
    },
    {
        "name": "Prellenkirchen",
        "latitude": 48.07401,
        "longitude": 16.95233
    },
    {
        "name": "Pressbaum",
        "latitude": 48.18333,
        "longitude": 16.08333
    },
    {
        "name": "Prigglitz",
        "latitude": 47.70318,
        "longitude": 15.92794
    },
    {
        "name": "Prinzersdorf",
        "latitude": 48.2,
        "longitude": 15.51667
    },
    {
        "name": "Prottes",
        "latitude": 48.3868,
        "longitude": 16.7389
    },
    {
        "name": "Puchberg am Schneeberg",
        "latitude": 47.78709,
        "longitude": 15.91352
    },
    {
        "name": "Puchenstuben",
        "latitude": 47.92819,
        "longitude": 15.28748
    },
    {
        "name": "Pulkau",
        "latitude": 48.70484,
        "longitude": 15.86031
    },
    {
        "name": "Purgstall",
        "latitude": 48.05841,
        "longitude": 15.13478
    },
    {
        "name": "Purkersdorf",
        "latitude": 48.20769,
        "longitude": 16.17539
    },
    {
        "name": "Pyhra",
        "latitude": 48.1591,
        "longitude": 15.68624
    },
    {
        "name": "Raabs an der Thaya",
        "latitude": 48.85,
        "longitude": 15.5
    },
    {
        "name": "Raach am Hochgebirge",
        "latitude": 47.63333,
        "longitude": 15.93333
    },
    {
        "name": "Raasdorf",
        "latitude": 48.24657,
        "longitude": 16.56532
    },
    {
        "name": "Rabensburg",
        "latitude": 48.65,
        "longitude": 16.9
    },
    {
        "name": "Rabenstein an der Pielach",
        "latitude": 48.06535,
        "longitude": 15.46772
    },
    {
        "name": "Ramsau",
        "latitude": 48.00313,
        "longitude": 15.80332
    },
    {
        "name": "Randegg",
        "latitude": 48.01198,
        "longitude": 14.97334
    },
    {
        "name": "Rannersdorf",
        "latitude": 48.12772,
        "longitude": 16.46379
    },
    {
        "name": "Rappottenstein",
        "latitude": 48.52161,
        "longitude": 15.07925
    },
    {
        "name": "Rastenfeld",
        "latitude": 48.57348,
        "longitude": 15.33176
    },
    {
        "name": "Ratzersdorf an der Traisen",
        "latitude": 48.22639,
        "longitude": 15.66629
    },
    {
        "name": "Rauchenwarth",
        "latitude": 48.0833,
        "longitude": 16.52794
    },
    {
        "name": "Ravelsbach",
        "latitude": 48.55,
        "longitude": 15.85
    },
    {
        "name": "Raxendorf",
        "latitude": 48.34108,
        "longitude": 15.27666
    },
    {
        "name": "Rehberg",
        "latitude": 48.43114,
        "longitude": 15.58702
    },
    {
        "name": "Reichenau an der Rax",
        "latitude": 47.69509,
        "longitude": 15.84572
    },
    {
        "name": "Reingers",
        "latitude": 48.96667,
        "longitude": 15.13333
    },
    {
        "name": "Reinsberg",
        "latitude": 47.98567,
        "longitude": 15.07067
    },
    {
        "name": "Reisenberg",
        "latitude": 47.99406,
        "longitude": 16.52018
    },
    {
        "name": "Retz",
        "latitude": 48.75712,
        "longitude": 15.95485
    },
    {
        "name": "Rohr im Gebirge",
        "latitude": 47.89471,
        "longitude": 15.73603
    },
    {
        "name": "Rohrau",
        "latitude": 48.06667,
        "longitude": 16.85
    },
    {
        "name": "Rohrbach an der G\u00f6lsen",
        "latitude": 48.04699,
        "longitude": 15.74169
    },
    {
        "name": "R\u00f6hrenbach",
        "latitude": 48.65,
        "longitude": 15.5
    },
    {
        "name": "Rohrendorf bei Krems",
        "latitude": 48.41935,
        "longitude": 15.65772
    },
    {
        "name": "R\u00f6schitz",
        "latitude": 48.64312,
        "longitude": 15.81774
    },
    {
        "name": "Rosenau am Sonntagberg",
        "latitude": 48.00778,
        "longitude": 14.73927
    },
    {
        "name": "Ruprechtshofen",
        "latitude": 48.13648,
        "longitude": 15.27675
    },
    {
        "name": "Sallingberg",
        "latitude": 48.46667,
        "longitude": 15.23333
    },
    {
        "name": "Sankt Aegyd am Neuwalde",
        "latitude": 47.85383,
        "longitude": 15.56969
    },
    {
        "name": "Sankt Andr\u00e4 vor dem Hagenthale",
        "latitude": 48.32202,
        "longitude": 16.20724
    },
    {
        "name": "Sankt Corona am Wechsel",
        "latitude": 47.58333,
        "longitude": 16.0
    },
    {
        "name": "Sankt Georgen am Ybbsfelde",
        "latitude": 48.12892,
        "longitude": 14.95364
    },
    {
        "name": "Sankt Georgen an der Leys",
        "latitude": 48.03149,
        "longitude": 15.22722
    },
    {
        "name": "Sankt Leonhard am Forst",
        "latitude": 48.14232,
        "longitude": 15.28464
    },
    {
        "name": "Sankt Leonhard am Hornerwald",
        "latitude": 48.6,
        "longitude": 15.53333
    },
    {
        "name": "Sankt Margarethen an der Sierning",
        "latitude": 48.1591,
        "longitude": 15.49055
    },
    {
        "name": "Sankt Martin am Ybbsfelde",
        "latitude": 48.16425,
        "longitude": 15.02076
    },
    {
        "name": "Sankt Pantaleon",
        "latitude": 48.21058,
        "longitude": 14.56804
    },
    {
        "name": "Sankt Peter in der Au Markt",
        "latitude": 48.044,
        "longitude": 14.62182
    },
    {
        "name": "Sankt P\u00f6lten",
        "latitude": 48.2,
        "longitude": 15.63333
    },
    {
        "name": "Sankt P\u00f6lten Stadt",
        "latitude": 48.2,
        "longitude": 15.61667
    },
    {
        "name": "Sankt Valentin",
        "latitude": 48.16667,
        "longitude": 14.51667
    },
    {
        "name": "Sankt Veit an der G\u00f6lsen",
        "latitude": 48.0432,
        "longitude": 15.66942
    },
    {
        "name": "Scharndorf",
        "latitude": 48.09399,
        "longitude": 16.79883
    },
    {
        "name": "Scheibbs",
        "latitude": 48.00474,
        "longitude": 15.16817
    },
    {
        "name": "Schleinbach",
        "latitude": 48.41667,
        "longitude": 16.46667
    },
    {
        "name": "Sch\u00f6nau an der Triesting",
        "latitude": 47.93452,
        "longitude": 16.25376
    },
    {
        "name": "Sch\u00f6nbach",
        "latitude": 48.45,
        "longitude": 15.03333
    },
    {
        "name": "Sch\u00f6nkirchen-Reyersdorf",
        "latitude": 48.35477,
        "longitude": 16.69115
    },
    {
        "name": "Schottwien",
        "latitude": 47.65683,
        "longitude": 15.8725
    },
    {
        "name": "Schrattenbach",
        "latitude": 47.77902,
        "longitude": 15.9906
    },
    {
        "name": "Schrattenberg",
        "latitude": 48.72359,
        "longitude": 16.72201
    },
    {
        "name": "Schrattenthal",
        "latitude": 48.7,
        "longitude": 15.9
    },
    {
        "name": "Schrems",
        "latitude": 48.78333,
        "longitude": 15.06667
    },
    {
        "name": "Schwadorf",
        "latitude": 48.06936,
        "longitude": 16.57957
    },
    {
        "name": "Schwarzau am Steinfeld",
        "latitude": 47.73183,
        "longitude": 16.17094
    },
    {
        "name": "Schwarzau im Gebirge",
        "latitude": 47.81223,
        "longitude": 15.70581
    },
    {
        "name": "Schwarzenau",
        "latitude": 48.74436,
        "longitude": 15.25838
    },
    {
        "name": "Schwarzenbach",
        "latitude": 47.63547,
        "longitude": 16.35109
    },
    {
        "name": "Schwarzenbach an der Pielach",
        "latitude": 47.93333,
        "longitude": 15.38333
    },
    {
        "name": "Schwechat",
        "latitude": 48.13333,
        "longitude": 16.46667
    },
    {
        "name": "Schweiggers",
        "latitude": 48.66667,
        "longitude": 15.06667
    },
    {
        "name": "Seebenstein",
        "latitude": 47.69936,
        "longitude": 16.14484
    },
    {
        "name": "Seibersdorf",
        "latitude": 47.95858,
        "longitude": 16.51842
    },
    {
        "name": "Seitenstetten Markt",
        "latitude": 48.03333,
        "longitude": 14.65
    },
    {
        "name": "Semmering",
        "latitude": 47.63347,
        "longitude": 15.82993
    },
    {
        "name": "Senftenberg",
        "latitude": 48.43333,
        "longitude": 15.55
    },
    {
        "name": "Seyring",
        "latitude": 48.33333,
        "longitude": 16.48333
    },
    {
        "name": "Sieghartskirchen",
        "latitude": 48.25531,
        "longitude": 16.01223
    },
    {
        "name": "Sierndorf",
        "latitude": 48.43024,
        "longitude": 16.16658
    },
    {
        "name": "Sigmundsherberg",
        "latitude": 48.68333,
        "longitude": 15.75
    },
    {
        "name": "Sitzendorf an der Schmida",
        "latitude": 48.59841,
        "longitude": 15.94254
    },
    {
        "name": "Sollenau",
        "latitude": 47.89834,
        "longitude": 16.24833
    },
    {
        "name": "Sommerein",
        "latitude": 47.98333,
        "longitude": 16.65
    },
    {
        "name": "Sonntagberg",
        "latitude": 47.99561,
        "longitude": 14.76065
    },
    {
        "name": "Sooss",
        "latitude": 47.98464,
        "longitude": 16.21737
    },
    {
        "name": "Spannberg",
        "latitude": 48.46393,
        "longitude": 16.73647
    },
    {
        "name": "Spillern",
        "latitude": 48.38333,
        "longitude": 16.25
    },
    {
        "name": "Spitz",
        "latitude": 48.3656,
        "longitude": 15.41416
    },
    {
        "name": "Spratzern",
        "latitude": 48.17044,
        "longitude": 15.61844
    },
    {
        "name": "Staatz",
        "latitude": 48.67617,
        "longitude": 16.48726
    },
    {
        "name": "Stattersdorf",
        "latitude": 48.18333,
        "longitude": 15.63333
    },
    {
        "name": "Statzendorf",
        "latitude": 48.30752,
        "longitude": 15.64127
    },
    {
        "name": "Stein an der Donau",
        "latitude": 48.40163,
        "longitude": 15.58102
    },
    {
        "name": "Steinabr\u00fcckl",
        "latitude": 47.87053,
        "longitude": 16.20277
    },
    {
        "name": "Steinakirchen am Forst",
        "latitude": 48.06965,
        "longitude": 15.04801
    },
    {
        "name": "Stephanshart",
        "latitude": 48.15,
        "longitude": 14.81667
    },
    {
        "name": "Stetteldorf am Wagram",
        "latitude": 48.40815,
        "longitude": 16.01862
    },
    {
        "name": "Stetten",
        "latitude": 48.36667,
        "longitude": 16.38333
    },
    {
        "name": "Stockerau",
        "latitude": 48.38333,
        "longitude": 16.21667
    },
    {
        "name": "Stollhofen",
        "latitude": 48.35226,
        "longitude": 15.75963
    },
    {
        "name": "St\u00f6ssing",
        "latitude": 48.12267,
        "longitude": 15.81379
    },
    {
        "name": "Strass",
        "latitude": 48.46667,
        "longitude": 15.73333
    },
    {
        "name": "Strasshof an der Nordbahn",
        "latitude": 48.31667,
        "longitude": 16.66667
    },
    {
        "name": "Stratzing",
        "latitude": 48.45,
        "longitude": 15.6
    },
    {
        "name": "Strengberg",
        "latitude": 48.14685,
        "longitude": 14.65147
    },
    {
        "name": "Stronsdorf",
        "latitude": 48.65157,
        "longitude": 16.2989
    },
    {
        "name": "Tattendorf",
        "latitude": 47.95,
        "longitude": 16.3
    },
    {
        "name": "Teesdorf",
        "latitude": 47.95,
        "longitude": 16.28333
    },
    {
        "name": "Ternitz",
        "latitude": 47.71565,
        "longitude": 16.03575
    },
    {
        "name": "Thaya",
        "latitude": 48.85489,
        "longitude": 15.28902
    },
    {
        "name": "Theresienfeld",
        "latitude": 47.85,
        "longitude": 16.23333
    },
    {
        "name": "Thomasberg",
        "latitude": 47.56667,
        "longitude": 16.13333
    },
    {
        "name": "Tiefenbach",
        "latitude": 47.5354,
        "longitude": 16.21346
    },
    {
        "name": "Traisen",
        "latitude": 48.03333,
        "longitude": 15.6
    },
    {
        "name": "Traiskirchen",
        "latitude": 48.01485,
        "longitude": 16.29324
    },
    {
        "name": "Traismauer",
        "latitude": 48.35,
        "longitude": 15.73333
    },
    {
        "name": "Trattenbach",
        "latitude": 47.6,
        "longitude": 15.86667
    },
    {
        "name": "Trautmannsdorf an der Leitha",
        "latitude": 48.02357,
        "longitude": 16.63266
    },
    {
        "name": "Tribuswinkel",
        "latitude": 48.00623,
        "longitude": 16.27075
    },
    {
        "name": "Trumau",
        "latitude": 47.99348,
        "longitude": 16.34268
    },
    {
        "name": "Tulbing",
        "latitude": 48.29336,
        "longitude": 16.12226
    },
    {
        "name": "Tulln",
        "latitude": 48.32829,
        "longitude": 16.05858
    },
    {
        "name": "Tullnerbach-Lawies",
        "latitude": 48.18912,
        "longitude": 16.09117
    },
    {
        "name": "T\u00fcrnitz",
        "latitude": 47.93095,
        "longitude": 15.49295
    },
    {
        "name": "Ulrichskirchen",
        "latitude": 48.4,
        "longitude": 16.48333
    },
    {
        "name": "Untersiebenbrunn",
        "latitude": 48.25,
        "longitude": 16.73333
    },
    {
        "name": "Unterstinkenbrunn",
        "latitude": 48.6677,
        "longitude": 16.34607
    },
    {
        "name": "Unterwagram",
        "latitude": 48.21243,
        "longitude": 15.64951
    },
    {
        "name": "Unterwaltersdorf",
        "latitude": 47.95,
        "longitude": 16.41667
    },
    {
        "name": "Velm",
        "latitude": 48.03333,
        "longitude": 16.43333
    },
    {
        "name": "Viehofen",
        "latitude": 48.21667,
        "longitude": 15.61667
    },
    {
        "name": "Vitis",
        "latitude": 48.75964,
        "longitude": 15.18259
    },
    {
        "name": "V\u00f6sendorf",
        "latitude": 48.12107,
        "longitude": 16.34036
    },
    {
        "name": "Waidhofen an der Thaya",
        "latitude": 48.81667,
        "longitude": 15.28333
    },
    {
        "name": "Waidhofen an der Ybbs",
        "latitude": 47.96004,
        "longitude": 14.77361
    },
    {
        "name": "Waidhofen an der Ybbs Stadt",
        "latitude": 47.95999,
        "longitude": 14.77438
    },
    {
        "name": "Waidmannsfeld",
        "latitude": 47.87042,
        "longitude": 15.98116
    },
    {
        "name": "Waldegg",
        "latitude": 47.86852,
        "longitude": 16.05154
    },
    {
        "name": "Waldenstein",
        "latitude": 48.72845,
        "longitude": 15.01419
    },
    {
        "name": "Waldhausen",
        "latitude": 48.52183,
        "longitude": 15.2625
    },
    {
        "name": "Waldkirchen an der Thaya",
        "latitude": 48.93333,
        "longitude": 15.35
    },
    {
        "name": "Wallsee",
        "latitude": 48.16667,
        "longitude": 14.71667
    },
    {
        "name": "Walpersbach",
        "latitude": 47.71667,
        "longitude": 16.23333
    },
    {
        "name": "Wang",
        "latitude": 48.04538,
        "longitude": 15.02672
    },
    {
        "name": "Warth",
        "latitude": 47.65,
        "longitude": 16.11667
    },
    {
        "name": "Wartmannstetten",
        "latitude": 47.69359,
        "longitude": 16.07506
    },
    {
        "name": "Weidling",
        "latitude": 48.291,
        "longitude": 16.30865
    },
    {
        "name": "Weigelsdorf",
        "latitude": 47.95,
        "longitude": 16.4
    },
    {
        "name": "Weikendorf",
        "latitude": 48.34438,
        "longitude": 16.76651
    },
    {
        "name": "Weikersdorf am Steinfelde",
        "latitude": 47.80612,
        "longitude": 16.14389
    },
    {
        "name": "Weinburg",
        "latitude": 48.11351,
        "longitude": 15.53295
    },
    {
        "name": "Weinzierl am Walde",
        "latitude": 48.43211,
        "longitude": 15.4321
    },
    {
        "name": "Weinzierl bei Krems",
        "latitude": 48.4,
        "longitude": 15.6
    },
    {
        "name": "Weissenbach an der Triesting",
        "latitude": 47.98211,
        "longitude": 16.03935
    },
    {
        "name": "Wei\u00dfenkirchen in der Wachau",
        "latitude": 48.3979,
        "longitude": 15.46931
    },
    {
        "name": "Weistrach",
        "latitude": 48.05,
        "longitude": 14.58333
    },
    {
        "name": "Weiten",
        "latitude": 48.29564,
        "longitude": 15.2601
    },
    {
        "name": "Weitersfeld",
        "latitude": 48.78097,
        "longitude": 15.81345
    },
    {
        "name": "Weitra",
        "latitude": 48.7,
        "longitude": 14.88333
    },
    {
        "name": "Wiener Neudorf",
        "latitude": 48.08278,
        "longitude": 16.31384
    },
    {
        "name": "Wiener Neustadt",
        "latitude": 47.80485,
        "longitude": 16.23196
    },
    {
        "name": "Wiener Neustadt Stadt",
        "latitude": 47.8,
        "longitude": 16.25
    },
    {
        "name": "Wienersdorf",
        "latitude": 48.00819,
        "longitude": 16.29169
    },
    {
        "name": "Wieselburg",
        "latitude": 48.13333,
        "longitude": 15.13333
    },
    {
        "name": "Wiesmath",
        "latitude": 47.61667,
        "longitude": 16.28333
    },
    {
        "name": "Wilfersdorf",
        "latitude": 48.58333,
        "longitude": 16.63333
    },
    {
        "name": "Wilfleinsdorf",
        "latitude": 48.01667,
        "longitude": 16.71667
    },
    {
        "name": "Wilhelmsburg",
        "latitude": 48.10571,
        "longitude": 15.60539
    },
    {
        "name": "Willendorf am Steinfelde",
        "latitude": 47.78929,
        "longitude": 16.05686
    },
    {
        "name": "Wimpassing im Schwarzatale",
        "latitude": 47.70295,
        "longitude": 16.03334
    },
    {
        "name": "Windhag",
        "latitude": 47.97906,
        "longitude": 14.80245
    },
    {
        "name": "Windigsteig",
        "latitude": 48.76667,
        "longitude": 15.28333
    },
    {
        "name": "Winklarn",
        "latitude": 48.09135,
        "longitude": 14.84819
    },
    {
        "name": "Winzendorf",
        "latitude": 47.81154,
        "longitude": 16.113
    },
    {
        "name": "Wolfpassing",
        "latitude": 48.07785,
        "longitude": 15.06453
    },
    {
        "name": "Wolfsbach",
        "latitude": 48.06667,
        "longitude": 14.66667
    },