[
    {
        "name": "Oistins",
        "latitude": 13.07067,
        "longitude": -59.54637
    },
    {
        "name": "Greenland",
        "latitude": 13.25808,
        "longitude": -59.57763
    },
    {
        "name": "Holetown",
        "latitude": 13.18672,
        "longitude": -59.63808
    },
    {
        "name": "Bathsheba",
        "latitude": 13.21133,
        "longitude": -59.52596
    },
    {
        "name": "Bridgetown",
        "latitude": 13.10732,
        "longitude": -59.62021
    },
    {
        "name": "Speightstown",
        "latitude": 13.25072,
        "longitude": -59.64396
    },
    {
        "name": "Crane",
        "latitude": 13.10487,
        "longitude": -59.44861
    }
]