[
    {
        "name": "В мире",
        "latitude": 13.1691,
        "longitude": -3.8899
    },
    {
        "name": "Бомомо",
        "latitude": 11.74542,
        "longitude": -2.93006
    },
    {
        "name": "Dedougou",
        "latitude": 12.46338,
        "longitude": -3.46075
    },
    {
        "name": "Монахиня",
        "latitude": 12.72939,
        "longitude": -3.86305
    },
    {
        "name": "Косси провинция",
        "latitude": 12.91667,
        "longitude": -3.83333
    },
    {
        "name": "Броанскую провинцию",
        "latitude": 11.71667,
        "longitude": -3.05
    },
    {
        "name": "Avince приходит в Банфелс из него, запрещен.",
        "latitude": 12.16667,
        "longitude": -4.16667
    },
    {
        "name": "МУХУН ПРОВОДА",
        "latitude": 12.25,
        "longitude": -3.41667
    },
    {
        "name": "Ду Налас",
        "latitude": 12.66667,
        "longitude": -3.0
    },
    {
        "name": "Провинция du Sourou",
        "latitude": 13.25,
        "longitude": -3.0
    },
    {
        "name": "Промышленность",
        "latitude": 12.17423,
        "longitude": -4.08477
    },
    {
        "name": "Томма",
        "latitude": 12.75844,
        "longitude": -2.89879
    },
    {
        "name": "Т",
        "latitude": 13.0725,
        "longitude": -3.0694
    },
    {
        "name": "Банфора",
        "latitude": 10.63333,
        "longitude": -4.76667
    },
    {
        "name": "Комо провинция",
        "latitude": 10.33333,
        "longitude": -4.41667
    },
    {
        "name": "Лераб",
        "latitude": 10.66667,
        "longitude": -5.2
    },
    {
        "name": "Грех",
        "latitude": 10.66667,
        "longitude": -5.16667
    },
    {
        "name": "Провинция Cadio",
        "latitude": 12.33333,
        "longitude": -1.5
    },
    {
        "name": "Молодой",
        "latitude": 12.36566,
        "longitude": -1.53388
    },
    {
        "name": "Фаоо",
        "latitude": 11.8,
        "longitude": -0.55056
    },
    {
        "name": "Копил",
        "latitude": 12.17864,
        "longitude": -0.35103
    },
    {
        "name": "Уплавкая провинция",
        "latitude": 12.2,
        "longitude": -0.3
    },
    {
        "name": "Эластичный",
        "latitude": 11.50202,
        "longitude": 0.05886
    },
    {
        "name": "Провинция Боулу",
        "latitude": 11.5,
        "longitude": -0.41667
    },
    {
        "name": "Провинция Coolpelog",
        "latitude": 11.41667,
        "longitude": 0.16667
    },
    {
        "name": "После броска",
        "latitude": 11.78,
        "longitude": -0.36972
    },
    {
        "name": "Вулса",
        "latitude": 12.66664,
        "longitude": -0.57469
    },
    {
        "name": "Так",
        "latitude": 13.09167,
        "longitude": -1.08444
    },
    {
        "name": "Конгос",
        "latitude": 13.32583,
        "longitude": -1.53472
    },
    {
        "name": "Провинция, бам",
        "latitude": 13.46667,
        "longitude": -1.58333
    },
    {
        "name": "Дю Наменга провинция",
        "latitude": 13.25,
        "longitude": -0.5
    },
    {
        "name": "Провинция дю Самматанга",
        "latitude": 13.25,
        "longitude": -1.08333
    },
    {
        "name": "Гульорс",
        "latitude": 12.23484,
        "longitude": -1.93394
    },
    {
        "name": "Горы вверх",
        "latitude": 12.19392,
        "longitude": -1.87687
    },
    {
        "name": "Хорошо",
        "latitude": 12.25263,
        "longitude": -2.36272
    },
    {
        "name": "Гениально",
        "latitude": 11.10033,
        "longitude": -2.10654
    },
    {
        "name": "Питмоаг",
        "latitude": 12.24564,
        "longitude": -1.88148
    },
    {
        "name": "Провинция Сиссили",
        "latitude": 11.33333,
        "longitude": -2.25
    },
    {
        "name": "Boulkde Wrunce",
        "latitude": 12.33333,
        "longitude": -2.16667
    },
    {
        "name": "Кровавая провинция",
        "latitude": 12.16667,
        "longitude": -2.66667
    },
    {
        "name": "Du Zoro Punce",
        "latitude": 11.58333,
        "longitude": -1.91667
    },
    {
        "name": "Баран",
        "latitude": 12.31963,
        "longitude": -2.47094
    },
    {
        "name": "Сапуа",
        "latitude": 11.55444,
        "longitude": -1.77361
    },
    {
        "name": "Базовая провинция",
        "latitude": 11.91667,
        "longitude": -1.5
    },
    {
        "name": "Комбинация",
        "latitude": 12.06884,
        "longitude": -1.33644
    },
    {
        "name": "Масси",
        "latitude": 11.66361,
        "longitude": -1.07306
    },
    {
        "name": "Густого",
        "latitude": 11.25,
        "longitude": -1.25
    },
    {
        "name": "К",
        "latitude": 11.16972,
        "longitude": -1.145
    },
    {
        "name": "Зундвеого",
        "latitude": 11.58333,
        "longitude": -1.0
    },
    {
        "name": "Боганде",
        "latitude": 12.9704,
        "longitude": -0.14953
    },
    {
        "name": "Диафу",
        "latitude": 12.07305,
        "longitude": 1.78838
    },
    {
        "name": "Н'Гура Фей",
        "latitude": 12.06157,
        "longitude": 0.35843
    },
    {
        "name": "Волынки",
        "latitude": 12.64824,
        "longitude": 0.49314
    },
    {
        "name": "Провинция Ньянья",
        "latitude": 12.9188,
        "longitude": 0.0392
    },
    {
        "name": "На",
        "latitude": 11.24972,
        "longitude": 0.7075
    },
    {
        "name": "Провинция Командджоари",
        "latitude": 12.66667,
        "longitude": 0.66667
    },
    {
        "name": "Провинция де ла Компьенга",
        "latitude": 11.41667,
        "longitude": 0.91667
    },
    {
        "name": "Провинция Тапоа",
        "latitude": 12.0,
        "longitude": 1.75
    },
    {
        "name": "Провинция Гурма",
        "latitude": 12.08333,
        "longitude": 0.5
    },
    {
        "name": "Бобо-Диуласо",
        "latitude": 11.17715,
        "longitude": -4.2979
    },
    {
        "name": "Собаки",
        "latitude": 11.5,
        "longitude": -3.51667
    },
    {
        "name": "Провинция Уэ",
        "latitude": 11.33333,
        "longitude": -4.25
    },
    {
        "name": "Провинция Кенедугу",
        "latitude": 11.41667,
        "longitude": -5.0
    },
    {
        "name": "Провинция Туй",
        "latitude": 11.41667,
        "longitude": -3.41667
    },
    {
        "name": "Гурси",
        "latitude": 13.20776,
        "longitude": -2.35893
    },
    {
        "name": "Вахигуя",
        "latitude": 13.58278,
        "longitude": -2.42158
    },
    {
        "name": "Провинция Лорум",
        "latitude": 13.91667,
        "longitude": -2.16667
    },
    {
        "name": "Провинция Пассоре",
        "latitude": 12.91667,
        "longitude": -2.16667
    },
    {
        "name": "Провинция дю Ятенга",
        "latitude": 13.58333,
        "longitude": -2.41667
    },
    {
        "name": "Провинция дю Зондома",
        "latitude": 13.18333,
        "longitude": -2.36667
    },
    {
        "name": "Титао",
        "latitude": 13.76667,
        "longitude": -2.06667
    },
    {
        "name": "Ваш",
        "latitude": 12.9591,
        "longitude": -2.26075
    },
    {
        "name": "Басс",
        "latitude": 12.66121,
        "longitude": -1.89515
    },
    {
        "name": "Оубритенг",
        "latitude": 12.66667,
        "longitude": -1.33333
    },
    {
        "name": "Провинция Ганзургу",
        "latitude": 12.26667,
        "longitude": -0.76667
    },
    {
        "name": "Провинция Курвеого",
        "latitude": 12.58333,
        "longitude": -1.76667
    },
    {
        "name": "Зиниаре",
        "latitude": 12.58186,
        "longitude": -1.2971
    },
    {
        "name": "беспокойство",
        "latitude": 12.24922,
        "longitude": -0.61527
    },
    {
        "name": "Джибо",
        "latitude": 14.0994,
        "longitude": -1.62554
    },
    {
        "name": "Даже",
        "latitude": 14.0354,
        "longitude": -0.0345
    },
    {
        "name": "Белые",
        "latitude": 14.4429,
        "longitude": -0.23468
    },
    {
        "name": "Провинция Удалан",
        "latitude": 14.66667,
        "longitude": -0.33333
    },
    {
        "name": "Провинция Сено",
        "latitude": 13.964,
        "longitude": 0.012
    },
    {
        "name": "Сумская область",
        "latitude": 14.33333,
        "longitude": -1.25
    },
    {
        "name": "Ягинская провинция",
        "latitude": 13.41667,
        "longitude": 0.58333
    },
    {
        "name": "Батье",
        "latitude": 9.88333,
        "longitude": -2.91667
    },
    {
        "name": "С надеждой",
        "latitude": 11.1464,
        "longitude": -3.05784
    },
    {
        "name": "Дибаг",
        "latitude": 10.96209,
        "longitude": -3.24967
    },
    {
        "name": "Провинция Бугуриба",
        "latitude": 10.83333,
        "longitude": -3.41667
    },
    {
        "name": "Провинция Йоба",
        "latitude": 11.08333,
        "longitude": -3.08333
    },
    {
        "name": "Провинция Оцепенения",
        "latitude": 9.83333,
        "longitude": -3.0
    },
    {
        "name": "Провинция Пони",
        "latitude": 10.25,
        "longitude": -3.41667
    }
]