[
    {
        "name": "Jidd \u1e28af\u015f",
        "latitude": 26.21861,
        "longitude": 50.54778
    },
    {
        "name": "Manama",
        "latitude": 26.22787,
        "longitude": 50.58565
    },
    {
        "name": "Sitrah",
        "latitude": 26.15472,
        "longitude": 50.62056
    },
    {
        "name": "Mad\u012bnat \u1e28amad",
        "latitude": 26.11528,
        "longitude": 50.50694
    },
    {
        "name": "Al \u1e28add",
        "latitude": 26.24556,
        "longitude": 50.65417
    },
    {
        "name": "Al Muharraq",
        "latitude": 26.25722,
        "longitude": 50.61194
    },
    {
        "name": "Ar Rif\u0101\u2018",
        "latitude": 26.13,
        "longitude": 50.555
    },
    {
        "name": "D\u0101r Kulayb",
        "latitude": 26.06861,
        "longitude": 50.50389
    },
    {
        "name": "Mad\u012bnat \u2018\u012as\u00e1",
        "latitude": 26.17361,
        "longitude": 50.54778
    }
]