[
    {
        "name": "Аклланд",
        "latitude": -9.98045,
        "longitude": -66.84388
    },
    {
        "name": "Ассис Бразил",
        "latitude": -10.88334,
        "longitude": -70.01314
    },
    {
        "name": "Бразилец",
        "latitude": -11.01611,
        "longitude": -68.74806
    },
    {
        "name": "щедрость",
        "latitude": -9.57859,
        "longitude": -68.17197
    },
    {
        "name": "Капиксаба",
        "latitude": -10.48782,
        "longitude": -67.84831
    },
    {
        "name": "Южный круиз",
        "latitude": -7.62759,
        "longitude": -72.67756
    },
    {
        "name": "Эпитациоланд",
        "latitude": -10.93542,
        "longitude": -68.44411
    },
    {
        "name": "Пчела",
        "latitude": -8.1654,
        "longitude": -70.35486
    },
    {
        "name": "Иордания",
        "latitude": -9.09166,
        "longitude": -71.84069
    },
    {
        "name": "Мансио Лима",
        "latitude": -7.61417,
        "longitude": -72.89583
    },
    {
        "name": "Manoel Urbano",
        "latitude": -8.83889,
        "longitude": -69.25972
    },
    {
        "name": "Маршал Тауматурго",
        "latitude": -8.94111,
        "longitude": -72.79167
    },
    {
        "name": "Кастро план",
        "latitude": -10.33528,
        "longitude": -67.18556
    },
    {
        "name": "Порто Акр",
        "latitude": -9.65038,
        "longitude": -67.77733
    },
    {
        "name": "Порту Уолтер",
        "latitude": -8.26861,
        "longitude": -72.74389
    },
    {
        "name": "Белая река",
        "latitude": -9.97472,
        "longitude": -67.81
    },
    {
        "name": "Родригес Алвес",
        "latitude": -7.85286,
        "longitude": -73.23613
    },
    {
        "name": "Санта -роз к чили",
        "latitude": -9.4773,
        "longitude": -70.39032
    },
    {
        "name": "Сена Мадурейра",
        "latitude": -9.06341,
        "longitude": -68.67245
    },
    {
        "name": "Сенатор Гиомард",
        "latitude": -10.1497,
        "longitude": -67.73741
    },
    {
        "name": "Тарауака",
        "latitude": -8.16139,
        "longitude": -70.76556
    },
    {
        "name": "Xapuri",
        "latitude": -10.59663,
        "longitude": -68.64891
    },
    {
        "name": "Белая вода",
        "latitude": -9.26988,
        "longitude": -37.91917
    },
    {
        "name": "Анадия",
        "latitude": -9.67495,
        "longitude": -36.3379
    },
    {
        "name": "Арапирака",
        "latitude": -9.7438,
        "longitude": -36.59315
    },
    {
        "name": "Аталая",
        "latitude": -9.50194,
        "longitude": -36.02278
    },
    {
        "name": "Барра де Санто Антонио",
        "latitude": -9.40472,
        "longitude": -35.50722
    },
    {
        "name": "Барра де Сан Мигель",
        "latitude": -9.8123,
        "longitude": -35.96087
    },
    {
        "name": "Боевой",
        "latitude": -9.73256,
        "longitude": -37.08877
    },
    {
        "name": "Вифлеем",
        "latitude": -9.54424,
        "longitude": -36.50196
    },
    {
        "name": "Белу Монте",
        "latitude": -9.80521,
        "longitude": -37.19157
    },
    {
        "name": "Бока да Мата",
        "latitude": -9.64651,
        "longitude": -36.14134
    },
    {
        "name": "Белый",
        "latitude": -9.21168,
        "longitude": -36.08956
    },
    {
        "name": "Касимбинхас",
        "latitude": -9.40028,
        "longitude": -36.99028
    },
    {
        "name": "Кешью",
        "latitude": -9.71667,
        "longitude": -36.45
    },
    {
        "name": "Кампестр",
        "latitude": -8.89393,
        "longitude": -35.53237
    },
    {
        "name": "Счастливое поле",
        "latitude": -9.78194,
        "longitude": -36.35083
    },
    {
        "name": "Большое поле",
        "latitude": -9.94997,
        "longitude": -36.75593
    },
    {
        "name": "Канапи",
        "latitude": -9.17327,
        "longitude": -37.51985
    },
    {
        "name": "Капела",
        "latitude": -9.39342,
        "longitude": -36.1239
    },
    {
        "name": "Овца",
        "latitude": -9.46467,
        "longitude": -37.35559
    },
    {
        "name": "Черный",
        "latitude": -9.22921,
        "longitude": -36.33049
    },
    {
        "name": "Coité do nóia",
        "latitude": -9.62616,
        "longitude": -36.60044
    },
    {
        "name": "Леопольтина Колония",
        "latitude": -8.94183,
        "longitude": -35.76005
    },
    {
        "name": "Высушенный кокос",
        "latitude": -9.64656,
        "longitude": -35.80938
    },
    {
        "name": "Корурипе",
        "latitude": -10.12556,
        "longitude": -36.17556
    },
    {
        "name": "Яростный",
        "latitude": -9.60115,
        "longitude": -36.80273
    },
    {
        "name": "Дельмиро Гувея",
        "latitude": -9.38861,
        "longitude": -37.99917
    },
    {
        "name": "Два потока",
        "latitude": -9.3925,
        "longitude": -37.10056
    },
    {
        "name": "Звезда Алагоаса",
        "latitude": -9.39858,
        "longitude": -36.76219
    },
    {
        "name": "Большая ярмарка",
        "latitude": -9.9247,
        "longitude": -36.66953
    },
    {
        "name": "К счастью, покинута",
        "latitude": -10.2908,
        "longitude": -36.35367
    },
    {
        "name": "Гибкий",
        "latitude": -9.20061,
        "longitude": -35.78
    },
    {
        "name": "Гирау до Пончано",
        "latitude": -9.88417,
        "longitude": -36.82889
    },
    {
        "name": "Ibiteruara",
        "latitude": -8.9725,
        "longitude": -35.93944
    },
    {
        "name": "Глин",
        "latitude": -9.53694,
        "longitude": -36.63361
    },
    {
        "name": "Новая церковь",
        "latitude": -10.1666,
        "longitude": -36.61724
    },
    {
        "name": "Инхапи",
        "latitude": -9.22139,
        "longitude": -37.74861
    },
    {
        "name": "Аллигатор мужчин",
        "latitude": -9.67278,
        "longitude": -37.22275
    },
    {
        "name": "Жакуипе",
        "latitude": -8.87722,
        "longitude": -35.45885
    },
    {
        "name": "Джапаратинга",
        "latitude": -9.099,
        "longitude": -35.29631
    },
    {
        "name": "Джараматия",
        "latitude": -9.65053,
        "longitude": -36.96036
    },
    {
        "name": "Žekia-da-prajya",
        "latitude": -9.91151,
        "longitude": -36.09896
    },
    {
        "name": "Хоаким Гомес",
        "latitude": -9.10352,
        "longitude": -35.73739
    },
    {
        "name": "Жундия",
        "latitude": -8.93472,
        "longitude": -35.57361
    },
    {
        "name": "Жункейру",
        "latitude": -9.88524,
        "longitude": -36.4564
    },
    {
        "name": "Каноэ Лагуна",
        "latitude": -9.82972,
        "longitude": -36.73778
    },
    {
        "name": "Анадийское лимонное дерево",
        "latitude": -9.72685,
        "longitude": -36.45407
    },
    {
        "name": "Масейо",
        "latitude": -9.66583,
        "longitude": -35.73528
    },
    {
        "name": "Майор Исидоро",
        "latitude": -9.53222,
        "longitude": -36.985
    },
    {
        "name": "красное море",
        "latitude": -9.49247,
        "longitude": -36.35042
    },
    {
        "name": "Марагожи",
        "latitude": -9.01222,
        "longitude": -35.2225
    },
    {
        "name": "Удивляться",
        "latitude": -9.22305,
        "longitude": -37.37936
    },
    {
        "name": "Маршал Деодоро",
        "latitude": -9.71028,
        "longitude": -35.895
    },
    {
        "name": "Марибонд",
        "latitude": -9.57722,
        "longitude": -36.30528
    },
    {
        "name": "Мата Гранде",
        "latitude": -8.98543,
        "longitude": -37.7615
    },
    {
        "name": "Матрица Камараджибе",
        "latitude": -9.15167,
        "longitude": -35.53333
    },
    {
        "name": "Мессия",
        "latitude": -9.38333,
        "longitude": -35.84167
    },
    {
        "name": "Неграо Минадор",
        "latitude": -9.30528,
        "longitude": -36.86472
    },
    {
        "name": "Монтейрополис",
        "latitude": -9.62019,
        "longitude": -37.2935
    },
    {
        "name": "Муричи",
        "latitude": -9.29835,
        "longitude": -35.89999
    },
    {
        "name": "Нью Лино",
        "latitude": -8.88091,
        "longitude": -35.61948
    },
    {
        "name": "Олью-д'Агуа-дас-Флорес",
        "latitude": -9.54034,
        "longitude": -37.25214
    },
    {
        "name": "Ollew-du-du-cassu",
        "latitude": -9.45648,
        "longitude": -37.83496
    },
    {
        "name": "Большой глаз",
        "latitude": -10.05622,
        "longitude": -36.79522
    },
    {
        "name": "Оливенса",
        "latitude": -9.51861,
        "longitude": -37.19056
    },
    {
        "name": "Конфета из белого шоколада",
        "latitude": -9.12895,
        "longitude": -37.37367
    },
    {
        "name": "Палестина",
        "latitude": -9.67504,
        "longitude": -37.331
    },
    {
        "name": "Пальма индейцев",
        "latitude": -9.40902,
        "longitude": -36.60651
    },
    {
        "name": "Кусок сахара",
        "latitude": -9.68353,
        "longitude": -37.45431
    },
    {
        "name": "Париконья",
        "latitude": -9.22039,
        "longitude": -38.0167
    },
    {
        "name": "Парипуэйра",
        "latitude": -9.4294,
        "longitude": -35.58979
    },
    {
        "name": "Перевал Камарагибе",
        "latitude": -9.29865,
        "longitude": -35.42788
    },
    {
        "name": "Пауло Хасинто",
        "latitude": -9.36843,
        "longitude": -36.39294
    },
    {
        "name": "Пенедо",
        "latitude": -10.24448,
        "longitude": -36.46992
    },
    {
        "name": "Пиасабусу",
        "latitude": -10.40556,
        "longitude": -36.43444
    },
    {
        "name": "Пилар",
        "latitude": -9.61752,
        "longitude": -36.06323
    },
    {
        "name": "Подол",
        "latitude": -9.47492,
        "longitude": -36.30343
    },
    {
        "name": "Пираньи",
        "latitude": -9.54806,
        "longitude": -37.74529
    },
    {
        "name": "Яма траншей",
        "latitude": -9.3125,
        "longitude": -37.28556
    },
    {
        "name": "Порто Кальво",
        "latitude": -9.045,
        "longitude": -35.39833
    },
    {
        "name": "Порт Педрас",
        "latitude": -9.11562,
        "longitude": -35.39158
    },
    {
        "name": "Порту-Реаль-ду-Колежио",
        "latitude": -10.10538,
        "longitude": -36.72695
    },
    {
        "name": "Кебрангуло",
        "latitude": -9.31889,
        "longitude": -36.47111
    },
    {
        "name": "длинная река",
        "latitude": -9.47833,
        "longitude": -35.85333
    },
    {
        "name": "Дорожная карта",
        "latitude": -9.85906,
        "longitude": -35.98311
    },
    {
        "name": "Санта-Люсиа-Даун-Норти",
        "latitude": -9.61082,
        "longitude": -35.82917
    },
    {
        "name": "Сантана-дю-Ипанемема",
        "latitude": -9.37833,
        "longitude": -37.24528
    },
    {
        "name": "Сантана-дю-Мундау",
        "latitude": -9.16806,
        "longitude": -36.22222
    },
    {
        "name": "Сан-Блас",
        "latitude": -10.12409,
        "longitude": -36.85043
    },
    {
        "name": "Сан-Джозе-Да-Лин",
        "latitude": -9.00972,
        "longitude": -36.05833
    },
    {
        "name": "Сан-Джозе-Да-Тапера",
        "latitude": -9.55833,
        "longitude": -37.38111
    },
    {
        "name": "Сан-Луис-ду-Китунде",
        "latitude": -9.31833,
        "longitude": -35.56111
    },
    {
        "name": "Сан-Мигель-дус-Кампус",
        "latitude": -9.78111,
        "longitude": -36.09361
    },
    {
        "name": "Святой Михаил Чудес",
        "latitude": -9.25423,
        "longitude": -35.38419
    },
    {
        "name": "Сан-Себастьян",
        "latitude": -9.96698,
        "longitude": -36.5528
    },
    {
        "name": "Сатуба",
        "latitude": -9.56333,
        "longitude": -35.82444
    },
    {
        "name": "Сенатор Руй Палмейра",
        "latitude": -9.33827,
        "longitude": -37.55968
    },
    {
        "name": "Ковчег забор",
        "latitude": -9.56069,
        "longitude": -36.40824
    },
    {
        "name": "Такарана",
        "latitude": -9.64342,
        "longitude": -36.49419
    },
    {
        "name": "Теотонио Вилела",
        "latitude": -9.99012,
        "longitude": -36.43273
    },
    {
        "name": "Пятно",
        "latitude": -9.8924,
        "longitude": -36.97849
    },
    {
        "name": "Союз Пальмарес",
        "latitude": -9.13251,
        "longitude": -36.08182
    },
    {
        "name": "Висоза",
        "latitude": -9.36022,
        "longitude": -36.32095
    },
    {
        "name": "Амапа",
        "latitude": 1.85706,
        "longitude": -50.84374
    },
    {
        "name": "Кальчоен",
        "latitude": 2.36098,
        "longitude": -51.45285
    },
    {
        "name": "Порезы",
        "latitude": 0.99713,
        "longitude": -50.52041
    },
    {
        "name": "Феррейра Гомеш",
        "latitude": 0.91012,
        "longitude": -51.35442
    },
    {
        "name": "Итаубал",
        "latitude": 0.57732,
        "longitude": -50.67833
    },
    {
        "name": "Ларанха Манхад",
        "latitude": 0.93828,
        "longitude": -53.22949
    },
    {
        "name": "Макапа",
        "latitude": 0.03889,
        "longitude": -51.06639
    },
    {
        "name": "Масагао",
        "latitude": -0.115,
        "longitude": -51.28944
    },
    {
        "name": "Ояпок",
        "latitude": 2.70795,
        "longitude": -52.16963
    },
    {
        "name": "Педра Бранка ду Амапари",
        "latitude": 1.14843,
        "longitude": -52.40118
    },
    {
        "name": "Порторанд",
        "latitude": 0.56553,
        "longitude": -51.71181
    },
    {
        "name": "Рабочий",
        "latitude": 1.67076,
        "longitude": -51.2449
    },
    {
        "name": "Сантана",
        "latitude": -0.05833,
        "longitude": -51.18167
    },
    {
        "name": "Serra-nwo-new",
        "latitude": 1.65803,
        "longitude": -52.28195
    },
    {
        "name": "маленькая черепаха",
        "latitude": 1.263,
        "longitude": -51.10973
    },
    {
        "name": "Победа Яри",
        "latitude": -0.95653,
        "longitude": -52.03443
    },
    {
        "name": "Альварайнш",
        "latitude": -3.22083,
        "longitude": -64.80417
    },
    {
        "name": "Аматура",
        "latitude": -3.38926,
        "longitude": -68.22698
    },
    {
        "name": "Анама",
        "latitude": -3.4799,
        "longitude": -61.71689
    },
    {
        "name": "Анори",
        "latitude": -3.77278,
        "longitude": -61.64417
    },
    {
        "name": "Апуи",
        "latitude": -7.78922,
        "longitude": -59.34104
    },
    {
        "name": "Северная Аталайя",
        "latitude": -5.66448,
        "longitude": -71.82776
    },
    {
        "name": "Аутазы",
        "latitude": -3.57972,
        "longitude": -59.13056
    },
    {
        "name": "Барселона",
        "latitude": -0.97357,
        "longitude": -62.9269
    },
    {
        "name": "Баррейринья",
        "latitude": -2.79333,
        "longitude": -57.07
    },
    {
        "name": "Бенджамин Констант",
        "latitude": -4.37555,
        "longitude": -70.03179
    },
    {
        "name": "Берури",
        "latitude": -4.34371,
        "longitude": -61.75126
    },
    {
        "name": "Боа-Виста-Дю-Рамуш",
        "latitude": -3.15779,
        "longitude": -57.90517
    },
    {
        "name": "Boka-du-akre",
        "latitude": -8.75222,
        "longitude": -67.39778
    },
    {
        "name": "Драться",
        "latitude": -4.39143,
        "longitude": -59.58864
    },
    {
        "name": "Храбрость",
        "latitude": -3.12981,
        "longitude": -61.74406
    },
    {
        "name": "Канутама",
        "latitude": -6.53389,
        "longitude": -64.38306
    },
    {
        "name": "Каравари",
        "latitude": -4.88278,
        "longitude": -66.89583
    },
    {
        "name": "Карейро",
        "latitude": -3.78706,
        "longitude": -60.3479
    },
    {
        "name": "Карайро-да-варзея",
        "latitude": -3.19695,
        "longitude": -59.82674
    },
    {
        "name": "Коари",
        "latitude": -4.085,
        "longitude": -63.14139
    },
    {
        "name": "Поедание хвоста",
        "latitude": -3.83667,
        "longitude": -62.05694
    },
    {
        "name": "Эйрунепе",
        "latitude": -6.66028,
        "longitude": -69.87361
    },
    {
        "name": "Энвира",
        "latitude": -7.3,
        "longitude": -70.21667
    },
    {
        "name": "Хороший источник",
        "latitude": -2.51389,
        "longitude": -66.09167
    },
    {
        "name": "Гуахара",
        "latitude": -2.96667,
        "longitude": -57.66667
    },
    {
        "name": "Умайта",
        "latitude": -7.51651,
        "longitude": -63.03105
    },
    {
        "name": "Ипиксуна",
        "latitude": -7.1191,
        "longitude": -71.3759
    },
    {
        "name": "Ирандуба",
        "latitude": -3.28472,
        "longitude": -60.18611
    },
    {
        "name": "Итакоатиара",
        "latitude": -3.13435,
        "longitude": -58.43353
    },
    {
        "name": "Итамарати",
        "latitude": -6.76472,
        "longitude": -68.03926
    },
    {
        "name": "Итапиранга",
        "latitude": -2.516,
        "longitude": -58.5573
    },
    {
        "name": "Джапура",
        "latitude": -1.55349,
        "longitude": -68.24526
    },
    {
        "name": "Журуа",
        "latitude": -3.27526,
        "longitude": -66.24211
    },
    {
        "name": "Хутаи",
        "latitude": -5.18333,
        "longitude": -68.9
    },
    {
        "name": "Лабреа",
        "latitude": -8.18437,
        "longitude": -66.075
    },
    {
        "name": "Манакапуру",
        "latitude": -3.29972,
        "longitude": -60.62056
    },
    {
        "name": "Манакири не",
        "latitude": -3.31667,
        "longitude": -60.35
    },
    {
        "name": "Манаус",
        "latitude": -3.04361,
        "longitude": -60.01282
    },
    {
        "name": "Маникоре",
        "latitude": -5.80917,
        "longitude": -61.30028
    },
    {
        "name": "Никто",
        "latitude": -1.82403,
        "longitude": -65.35883
    },
    {
        "name": "Мауэс",
        "latitude": -3.38361,
        "longitude": -57.71861
    },
    {
        "name": "Нхамунда",
        "latitude": -2.18611,
        "longitude": -56.71306
    },
    {
        "name": "Нью-Олинда-ду-Норти",
        "latitude": -3.89174,
        "longitude": -59.09542
    },
    {
        "name": "Нью-Айран",
        "latitude": -1.98386,
        "longitude": -61.78513
    },
    {
        "name": "Нью-Арипуана",
        "latitude": -5.12056,
        "longitude": -60.37972
    },
    {
        "name": "Паринтинс",
        "latitude": -2.62833,
        "longitude": -56.73583
    },
    {
        "name": "Болезненный",
        "latitude": -7.71361,
        "longitude": -66.97639
    },
    {
        "name": "Президент Фигейредо",
        "latitude": -1.28344,
        "longitude": -59.98317
    },
    {
        "name": "Рио Прето Да-Ава",
        "latitude": -2.69795,
        "longitude": -59.70172
    },
    {
        "name": "Санта-Исабель-дю-Риу-Негро",
        "latitude": -0.41389,
        "longitude": -65.01917
    },
    {
        "name": "Santu-Antoniu-Du-Isa",
        "latitude": -3.10222,
        "longitude": -67.93972
    },
    {
        "name": "Сан-Габриэль-да-Кашуэйра",
        "latitude": -0.1181,
        "longitude": -67.08527
    },
    {
        "name": "Сан-Паулу-де-Оливенса",
        "latitude": -3.37833,
        "longitude": -68.8725
    },
    {
        "name": "Сан-Себастьян-ду-Уатума",
        "latitude": -1.93197,
        "longitude": -58.74216
    },
    {
        "name": "Силвеш",
        "latitude": -2.76846,
        "longitude": -58.62751
    },
    {
        "name": "Табатинга",
        "latitude": -3.96298,
        "longitude": -69.60265
    },
    {
        "name": "Зарегистрироваться",
        "latitude": -6.21423,
        "longitude": -65.69985
    },
    {
        "name": "Тефе",
        "latitude": -3.36841,
        "longitude": -64.72054
    },
    {
        "name": "Тонантины",
        "latitude": -2.87306,
        "longitude": -67.80222
    },
    {
        "name": "Варини",
        "latitude": -3.14736,
        "longitude": -65.42036
    },
    {
        "name": "Урукара",
        "latitude": -2.53639,
        "longitude": -57.76
    },
    {
        "name": "Урукуритуба",
        "latitude": -3.12845,
        "longitude": -58.15856
    },
    {
        "name": "Абаира",
        "latitude": -13.32129,
        "longitude": -41.69759
    },
    {
        "name": "Абаре",
        "latitude": -8.80961,
        "longitude": -39.27062
    },
    {
        "name": "Акажутиба",
        "latitude": -11.60682,
        "longitude": -38.03594
    },
    {
        "name": "Адустина",
        "latitude": -10.48227,
        "longitude": -37.98446
    },
    {
        "name": "Холодная вода",
        "latitude": -11.74762,
        "longitude": -38.73497
    },
    {
        "name": "Аквара",
        "latitude": -14.11135,
        "longitude": -39.87641
    },
    {
        "name": "Алагоиньяс",
        "latitude": -12.0058,
        "longitude": -38.36146
    },
    {
        "name": "Алькобаса",
        "latitude": -17.46365,
        "longitude": -39.37401
    },
    {
        "name": "Альмадина",
        "latitude": -14.67608,
        "longitude": -39.69066
    },
    {
        "name": "Горький",
        "latitude": -13.0497,
        "longitude": -39.6072
    },
    {
        "name": "Амелия Родригес",
        "latitude": -12.38975,
        "longitude": -38.75153
    },
    {
        "name": "Золотая Америка",
        "latitude": -11.4694,
        "longitude": -41.47335
    },
    {
        "name": "Плавал",
        "latitude": -14.66168,
        "longitude": -41.14703
    },
    {
        "name": "Андараи",
        "latitude": -12.84167,
        "longitude": -41.27679
    },
    {
        "name": "глотать",
        "latitude": -10.22216,
        "longitude": -39.86387
    },
    {
        "name": "Ангиальный",
        "latitude": -11.9628,
        "longitude": -44.7498
    },
    {
        "name": "Злость",
        "latitude": -12.18221,
        "longitude": -39.21384
    },
    {
        "name": "Уровень",
        "latitude": -10.42138,
        "longitude": -38.30341
    },
    {
        "name": "Антонио Кардосо",
        "latitude": -12.38641,
        "longitude": -39.14549
    },
    {
        "name": "Антонио Гонсалвес",
        "latitude": -10.62282,
        "longitude": -40.40933
    },
    {
        "name": "Апора",
        "latitude": -11.75439,
        "longitude": -38.22784
    },
    {
        "name": "Апуарема",
        "latitude": -13.83005,
        "longitude": -39.73444
    },
    {
        "name": "Арасас",
        "latitude": -12.14681,
        "longitude": -38.17233
    },
    {
        "name": "Аракату",
        "latitude": -14.39011,
        "longitude": -41.36331
    },
    {
        "name": "посредник",
        "latitude": -11.13564,
        "longitude": -39.07003
    },
    {
        "name": "Арамари",
        "latitude": -12.04618,
        "longitude": -38.55762
    },
    {
        "name": "Аратака",
        "latitude": -15.24607,
        "longitude": -39.42481
    },
    {
        "name": "Аратуипе",
        "latitude": -13.09363,
        "longitude": -39.08259
    },
    {
        "name": "Аурелино Леаль",
        "latitude": -14.3631,
        "longitude": -39.47961
    },
    {
        "name": "Байанополис",
        "latitude": -12.48331,
        "longitude": -44.53105
    },
    {
        "name": "БАКА ДЛЯ",
        "latitude": -11.97735,
        "longitude": -40.17993
    },
    {
        "name": "Банза",
        "latitude": -10.61578,
        "longitude": -38.62688
    },
    {
        "name": "Барра",
        "latitude": -11.08944,
        "longitude": -43.14167
    },
    {
        "name": "Летний бар",
        "latitude": -13.62611,
        "longitude": -41.32694
    },
    {
        "name": "Lamb-two",
        "latitude": -15.01024,
        "longitude": -40.66731
    },
    {
        "name": "Лэмб-два Мендес",
        "latitude": -12.16094,
        "longitude": -42.03542
    },
    {
        "name": "Lamb-two",
        "latitude": -14.0751,
        "longitude": -39.59068
    },
    {
        "name": "Барьеры",
        "latitude": -12.15278,
        "longitude": -44.99
    },
    {
        "name": "Высокая грязь",
        "latitude": -11.76083,
        "longitude": -41.91167
    },
    {
        "name": "Черная глина",
        "latitude": -14.75795,
        "longitude": -39.40711
    },
    {
        "name": "Барокко",
        "latitude": -11.6019,
        "longitude": -39.12267
    },
    {
        "name": "Бейра Рио",
        "latitude": -12.25438,
        "longitude": -42.75529
    },
    {
        "name": "Бельмонте",
        "latitude": -15.86126,
        "longitude": -38.87982
    },
    {
        "name": "Белу-Кампо",
        "latitude": -14.87419,
        "longitude": -41.22671
    },
    {
        "name": "Британия",
        "latitude": -11.67075,
        "longitude": -38.78931
    },
    {
        "name": "Хорошие новости",
        "latitude": -14.36412,
        "longitude": -40.22378
    },
    {
        "name": "BOA-VISTA-DU-DEFIM",
        "latitude": -12.87313,
        "longitude": -40.62823
    },
    {
        "name": "Бом Жезус да Лапа",
        "latitude": -13.255,
        "longitude": -43.41806
    },
    {
        "name": "Бом Жезус да Серра",
        "latitude": -14.3838,
        "longitude": -40.53982
    },
    {
        "name": "Бониналь",
        "latitude": -12.80363,
        "longitude": -41.68338
    },
    {
        "name": "Бонито",
        "latitude": -12.00488,
        "longitude": -41.31779
    },
    {
        "name": "Бокира",
        "latitude": -12.82306,
        "longitude": -42.73056
    },
    {
        "name": "Ботупора",
        "latitude": -13.29549,
        "longitude": -42.52593
    },
    {
        "name": "Брейойнс",
        "latitude": -13.07059,
        "longitude": -39.82099
    },
    {
        "name": "Брехоландия",
        "latitude": -12.41237,
        "longitude": -43.92822
    },
    {
        "name": "Ростки Макаубы",
        "latitude": -12.10605,
        "longitude": -42.51108
    },
    {
        "name": "Туман",
        "latitude": -14.20361,
        "longitude": -41.66528
    },
    {
        "name": "Буэрарема",
        "latitude": -14.95944,
        "longitude": -39.29972
    },
    {
        "name": "Буритирама",
        "latitude": -10.57081,
        "longitude": -43.68863
    },
    {
        "name": "Атиба",
        "latitude": -14.9761,
        "longitude": -40.39048
    },
    {
        "name": "MaaSressor-TWO-Paraguasu",
        "latitude": -12.55423,
        "longitude": -39.19596
    },
    {
        "name": "Водопад",
        "latitude": -12.60139,
        "longitude": -38.96576
    },
    {
        "name": "Рассчитано",
        "latitude": -14.38829,
        "longitude": -42.41516
    },
    {
        "name": "Каем",
        "latitude": -11.14182,
        "longitude": -40.29142
    },
    {
        "name": "Каэтанос",
        "latitude": -14.29234,
        "longitude": -41.01004
    },
    {
        "name": "Каэтит",
        "latitude": -13.97883,
        "longitude": -42.49334
    },
    {
        "name": "Капернаум",
        "latitude": -11.69361,
        "longitude": -41.46833
    },
    {
        "name": "Каиру",
        "latitude": -13.52662,
        "longitude": -38.94814
    },
    {
        "name": "Большой котел",
        "latitude": -11.04347,
        "longitude": -40.29515
    },
    {
        "name": "Камакан",
        "latitude": -15.42769,
        "longitude": -39.50818
    },
    {
        "name": "Камасари",
        "latitude": -12.6975,
        "longitude": -38.32417
    },
    {
        "name": "Камаму",
        "latitude": -13.94472,
        "longitude": -39.10389
    },
    {
        "name": "Camp-alegri-de-lourd",
        "latitude": -9.50097,
        "longitude": -42.98275
    },
    {
        "name": "Кампо Формосо",
        "latitude": -10.5075,
        "longitude": -40.32139
    },
    {
        "name": "Канаполис",
        "latitude": -13.12516,
        "longitude": -44.25095
    },
    {
        "name": "Канарана",
        "latitude": -11.68472,
        "longitude": -41.76889
    },
    {
        "name": "Деревья сахарного тростника",
        "latitude": -15.675,
        "longitude": -38.94722
    },
    {
        "name": "Кандил",
        "latitude": -11.89504,
        "longitude": -39.2039
    },
    {
        "name": "Кандеяс",
        "latitude": -12.65569,
        "longitude": -38.487
    },
    {
        "name": "Кандиба",
        "latitude": -14.46972,
        "longitude": -42.87386
    },
    {
        "name": "Кандидо Продажи",
        "latitude": -15.46082,
        "longitude": -41.16353
    },
    {
        "name": "Усталость",
        "latitude": -10.73105,
        "longitude": -39.47418
    },
    {
        "name": "соломинка",
        "latitude": -9.87981,
        "longitude": -39.14723
    },
    {
        "name": "Часовня Альто-Алегри",
        "latitude": -11.61838,
        "longitude": -39.83227
    },
    {
        "name": "Капим Гроссо",
        "latitude": -11.38111,
        "longitude": -40.01278
    },
    {
        "name": "Карибский бассейн",
        "latitude": -14.60631,
        "longitude": -41.25763
    },
    {
        "name": "Каравеллы",
        "latitude": -17.65842,
        "longitude": -39.35989
    },
    {
        "name": "Кардинал да Силва",
        "latitude": -11.99798,
        "longitude": -37.92468
    },
    {
        "name": "Кариньянья",
        "latitude": -14.30472,
        "longitude": -43.765
    },
    {
        "name": "Новый дом",
        "latitude": -9.10439,
        "longitude": -41.15736
    },
    {
        "name": "Кастро Алвес",
        "latitude": -12.74937,
        "longitude": -39.37691
    },
    {
        "name": "Католандия",
        "latitude": -12.29613,
        "longitude": -44.67528
    },
    {
        "name": "Кот",
        "latitude": -12.35306,
        "longitude": -38.37889
    },
    {
        "name": "Катурама",
        "latitude": -13.18601,
        "longitude": -42.3025
    },
    {
        "name": "Центральный",
        "latitude": -11.15424,
        "longitude": -42.08146
    },
    {
        "name": "брызгал",
        "latitude": -9.3055,
        "longitude": -39.15652
    },
    {
        "name": "Цицерон Дантас",
        "latitude": -10.6,
        "longitude": -38.38333
    },
    {
        "name": "ципо",
        "latitude": -11.09972,
        "longitude": -38.51361
    },
    {
        "name": "Коарачи",
        "latitude": -14.64083,
        "longitude": -39.55111
    },
    {
        "name": "Кокосовые острова",
        "latitude": -14.59438,
        "longitude": -45.2796
    },
    {
        "name": "Концепция Фейры",
        "latitude": -12.50583,
        "longitude": -38.99861
    },
    {
        "name": "Концепция Алмейды",
        "latitude": -12.77944,
        "longitude": -39.17
    },
    {
        "name": "Синтез-кво-кетте",
        "latitude": -11.56389,
        "longitude": -39.28278
    },
    {
        "name": "Концепция Жакуипе",
        "latitude": -12.31667,
        "longitude": -38.76667
    },
    {
        "name": "Конде",
        "latitude": -11.81361,
        "longitude": -37.61056
    },
    {
        "name": "Кондеуба",
        "latitude": -14.93275,
        "longitude": -42.00693
    },
    {
        "name": "Синкора споры",
        "latitude": -13.79599,
        "longitude": -41.05002
    },
    {
        "name": "Сердце Марии",
        "latitude": -12.23333,
        "longitude": -38.75
    },
    {
        "name": "Ягнята",
        "latitude": -14.99846,
        "longitude": -41.89749
    },
    {
        "name": "Кориб",
        "latitude": -13.72337,
        "longitude": -44.43538
    },
    {
        "name": "Полковник Жоао Са",
        "latitude": -10.38878,
        "longitude": -37.94281
    },
    {
        "name": "Корриентес",
        "latitude": -13.34333,
        "longitude": -44.63667
    },
    {
        "name": "Котеджипе",
        "latitude": -11.58844,
        "longitude": -44.17
    },
    {
        "name": "Краволандия",
        "latitude": -13.47018,
        "longitude": -39.75493
    },
    {
        "name": "Хризополь",
        "latitude": -11.45532,
        "longitude": -38.13933
    },
    {
        "name": "Кристополис",
        "latitude": -12.21789,
        "longitude": -44.24987
    },
    {
        "name": "Крест душ",
        "latitude": -12.67,
        "longitude": -39.10194
    },
    {
        "name": "Курака",
        "latitude": -8.99028,
        "longitude": -39.90944
    },
    {
        "name": "Дарио Мейра",
        "latitude": -14.4234,
        "longitude": -39.95935
    },
    {
        "name": "Диас д'Авила",
        "latitude": -12.60625,
        "longitude": -38.33717
    },
    {
        "name": "Дом Базилио",
        "latitude": -13.79717,
        "longitude": -41.70877
    },
    {
        "name": "Дом Маседо Коста",
        "latitude": -12.93379,
        "longitude": -39.14621
    },
    {
        "name": "Элисио Медрадо",
        "latitude": -12.95431,
        "longitude": -39.50579
    },
    {
        "name": "Перекресток",
        "latitude": -15.56839,
        "longitude": -40.90789
    },
    {
        "name": "Между реками",
        "latitude": -11.94194,
        "longitude": -38.08444
    },
    {
        "name": "Эрик Кардосо",
        "latitude": -13.43695,
        "longitude": -42.10325
    },
    {
        "name": "Эспланада",
        "latitude": -11.79611,
        "longitude": -37.945
    },
    {
        "name": "Евклид да Кунья",
        "latitude": -10.5075,
        "longitude": -39.01583
    },
    {
        "name": "Юнаполис",
        "latitude": -16.3775,
        "longitude": -39.58028
    },
    {
        "name": "Фатима",
        "latitude": -10.546,
        "longitude": -38.22367
    },
    {
        "name": "Лесная ярмарка",
        "latitude": -14.13203,
        "longitude": -44.25281
    },
    {
        "name": "Фейра де Сантана",
        "latitude": -12.26667,
        "longitude": -38.96667
    },
    {
        "name": "Филадельфия",
        "latitude": -10.76635,
        "longitude": -40.20555
    },
    {
        "name": "Фирмино Алвес",
        "latitude": -14.9136,
        "longitude": -39.91192
    },
    {
        "name": "Голубой лес",
        "latitude": -14.8445,
        "longitude": -39.75503
    },
    {
        "name": "Formosa do rio preto",
        "latitude": -11.04833,
        "longitude": -45.19306
    },
    {
        "name": "Дань",
        "latitude": -13.74389,
        "longitude": -39.48667
    },
    {
        "name": "Ястреб",
        "latitude": -11.48891,
        "longitude": -39.77412
    },
    {
        "name": "Язычник золота",
        "latitude": -11.36279,
        "longitude": -42.54827
    },
    {
        "name": "Слава",
        "latitude": -9.11097,
        "longitude": -38.40655
    },
    {
        "name": "Слушать",
        "latitude": -14.29995,
        "longitude": -39.60138
    },
    {
        "name": "Губернатор Мангабейра",
        "latitude": -12.57719,
        "longitude": -39.03115
    },
    {
        "name": "Гуахеру",
        "latitude": -14.57881,
        "longitude": -42.03986
    },
    {
        "name": "Гуанамби",
        "latitude": -14.22333,
        "longitude": -42.78139
    },
    {
        "name": "Гуаратинга",
        "latitude": -16.58564,
        "longitude": -39.78189
    },
    {
        "name": "Гелиополис",
        "latitude": -10.72863,
        "longitude": -38.2549
    },
    {
        "name": "Ясу",
        "latitude": -12.76722,
        "longitude": -40.21167
    },
    {
        "name": "Ибиассук",
        "latitude": -14.20285,
        "longitude": -42.30214
    },
    {
        "name": "Ибикараи",
        "latitude": -14.865,
        "longitude": -39.5875
    },
    {
        "name": "Ибикоара",
        "latitude": -13.37664,
        "longitude": -41.34081
    },
    {
        "name": "Ибикуи",
        "latitude": -14.84167,
        "longitude": -39.98667
    },
    {
        "name": "Что вы думаете?",
        "latitude": -11.64083,
        "longitude": -42.01111
    },
    {
        "name": "Что он предлагает?",
        "latitude": -12.88655,
        "longitude": -42.37115
    },
    {
        "name": "Ибикера",
        "latitude": -12.57265,
        "longitude": -40.84158
    },
    {
        "name": "Ибирапитанга",
        "latitude": -14.16417,
        "longitude": -39.37361
    },
    {
        "name": "Ибирапуан",
        "latitude": -17.75567,
        "longitude": -39.97365
    },
    {
        "name": "Ибиратайя",
        "latitude": -14.06694,
        "longitude": -39.64056
    },
    {
        "name": "Ибития",
        "latitude": -12.56582,
        "longitude": -42.3899
    },
    {
        "name": "Ибитита",
        "latitude": -11.69354,
        "longitude": -41.84148
    },
    {
        "name": "Иботирама",
        "latitude": -12.18528,
        "longitude": -43.22056
    },
    {
        "name": "Охотиться",
        "latitude": -11.70344,
        "longitude": -39.18722
    },
    {
        "name": "Игапора",
        "latitude": -13.89064,
        "longitude": -42.76046
    },
    {
        "name": "Играпюна",
        "latitude": -13.85607,
        "longitude": -39.19363
    },
    {
        "name": "Игуаи",
        "latitude": -14.75639,
        "longitude": -40.08917
    },
    {
        "name": "Ильеус",
        "latitude": -14.79364,
        "longitude": -39.03949
    },
    {
        "name": "Инхамбупе",
        "latitude": -11.78444,
        "longitude": -38.35306
    },
    {
        "name": "Ипекацета",
        "latitude": -12.33777,
        "longitude": -39.32835
    },
    {
        "name": "Ипиау",
        "latitude": -14.13449,
        "longitude": -39.73948
    },
    {
        "name": "Ипира",
        "latitude": -12.15833,
        "longitude": -39.73722
    },
    {
        "name": "Ипупиара",
        "latitude": -11.76946,
        "longitude": -42.43301
    },
    {
        "name": "Ираджуба",
        "latitude": -13.17999,
        "longitude": -39.9953
    },
    {
        "name": "Ирамайя",
        "latitude": -13.54627,
        "longitude": -40.82834
    },
    {
        "name": "Иракуара",
        "latitude": -12.28624,
        "longitude": -41.59153
    },
    {
        "name": "Воля",
        "latitude": -12.05,
        "longitude": -38.76667
    },
    {
        "name": "Иресе",
        "latitude": -11.30417,
        "longitude": -41.85583
    },
    {
        "name": "Итабела",
        "latitude": -16.71635,
        "longitude": -39.57325
    },
    {
        "name": "Итабераба",
        "latitude": -12.5275,
        "longitude": -40.30694
    },
    {
        "name": "Итабуна",
        "latitude": -14.78556,
        "longitude": -39.28028
    },
    {
        "name": "Итакаре",
        "latitude": -14.2789,
        "longitude": -38.99584
    },
    {
        "name": "Итаэте",
        "latitude": -13.08598,
        "longitude": -41.02566
    },
    {
        "name": "Итаги",
        "latitude": -14.16278,
        "longitude": -40.00611
    },
    {
        "name": "Итагиба",
        "latitude": -14.28361,
        "longitude": -39.84278
    },
    {
        "name": "Итагимирим",
        "latitude": -16.13473,
        "longitude": -39.81646
    },
    {
        "name": "Итагуасу-да-байя",
        "latitude": -10.64259,
        "longitude": -42.21083
    },
    {
        "name": "Itazu Do Colony",
        "latitude": -15.15505,
        "longitude": -39.71598
    },
    {
        "name": "Итахуипе",
        "latitude": -14.67806,
        "longitude": -39.375
    },
    {
        "name": "Итамараджу",
        "latitude": -17.03917,
        "longitude": -39.53111
    },
    {
        "name": "Итамари",
        "latitude": -13.7859,
        "longitude": -39.68416
    },
    {
        "name": "Итамбе",
        "latitude": -15.245,
        "longitude": -40.62444
    },
    {
        "name": "Итанагра",
        "latitude": -12.30982,
        "longitude": -38.11328
    },
    {
        "name": "Итанхем",
        "latitude": -17.16639,
        "longitude": -40.33
    },
    {
        "name": "Итапарика",
        "latitude": -12.90598,
        "longitude": -38.66383
    },
    {
        "name": "Итапе",
        "latitude": -14.91851,
        "longitude": -39.48637
    },
    {
        "name": "Он будет летать",
        "latitude": -15.88751,
        "longitude": -39.68792
    },
    {
        "name": "Итапетинга",
        "latitude": -15.24889,
        "longitude": -40.24778
    },
    {
        "name": "Итапикуру",
        "latitude": -11.31667,
        "longitude": -38.23333
    },
    {
        "name": "Он будет бродить",
        "latitude": -14.46369,
        "longitude": -39.62565
    },
    {
        "name": "Итакуара",
        "latitude": -13.4472,
        "longitude": -39.9103
    },
    {
        "name": "Итерантим",
        "latitude": -15.65972,
        "longitude": -40.06556
    },
    {
        "name": "Да",
        "latitude": -12.62835,
        "longitude": -39.68234
    },
    {
        "name": "Итиручу",
        "latitude": -13.53167,
        "longitude": -40.15028
    },
    {
        "name": "Итиуба",
        "latitude": -10.79357,
        "longitude": -39.80381
    },
    {
        "name": "Итороро",
        "latitude": -15.11694,
        "longitude": -40.07028
    },
    {
        "name": "Итуасу",
        "latitude": -13.81333,
        "longitude": -41.29667
    },
    {
        "name": "Итубера",
        "latitude": -13.73538,
        "longitude": -39.14785
    },
    {
        "name": "Мне жаль",
        "latitude": -14.65015,
        "longitude": -43.6487
    },
    {
        "name": "Джаборанди",
        "latitude": -14.0385,
        "longitude": -45.18408
    },
    {
        "name": "Жакарачи",
        "latitude": -14.83523,
        "longitude": -42.40112
    },
    {
        "name": "Якобина",
        "latitude": -11.18143,
        "longitude": -40.51372
    },
    {
        "name": "Ягуакуара",
        "latitude": -13.53056,
        "longitude": -39.97083
    },
    {
        "name": "Ягуарари",
        "latitude": -10.26389,
        "longitude": -40.19583
    },
    {
        "name": "В Ягуаре",
        "latitude": -13.12834,
        "longitude": -39.01339
    },
    {
        "name": "Джандайра",
        "latitude": -11.61099,
        "longitude": -37.61845
    },
    {
        "name": "Жекие",
        "latitude": -13.85875,
        "longitude": -40.08512
    },
    {
        "name": "Джеремоабо",
        "latitude": -9.92088,
        "longitude": -38.72629
    },
    {
        "name": "Хикириса",
        "latitude": -13.31081,
        "longitude": -39.58091
    },
    {
        "name": "Хитауна",
        "latitude": -14.01274,
        "longitude": -39.89833
    },
    {
        "name": "Жоау Дурадо",
        "latitude": -11.14883,
        "longitude": -41.40438
    },
    {
        "name": "Жуазейро",
        "latitude": -9.39679,
        "longitude": -40.23381
    },
    {
        "name": "Хукуручу",
        "latitude": -16.84832,
        "longitude": -40.08414
    },
    {
        "name": "Джуссара",
        "latitude": -10.96408,
        "longitude": -41.85572
    },
    {
        "name": "Джуссари",
        "latitude": -15.15451,
        "longitude": -39.51559
    },
    {
        "name": "Жюссиапе",
        "latitude": -13.4881,
        "longitude": -41.62335
    },
    {
        "name": "Лафайете Коутиньо",
        "latitude": -13.62029,
        "longitude": -40.20444
    },
    {
        "name": "Королевская лагуна",
        "latitude": -14.10985,
        "longitude": -42.21697
    },
    {
        "name": "Плита",
        "latitude": -10.18708,
        "longitude": -40.97076
    },
    {
        "name": "Лахедао",
        "latitude": -17.57112,
        "longitude": -40.31123
    },
    {
        "name": "Лажидиньо",
        "latitude": -12.42698,
        "longitude": -41.15097
    },
    {
        "name": "Лажедо-ду-Табокаль",
        "latitude": -13.37125,
        "longitude": -40.23004
    },
    {
        "name": "Ламарао",
        "latitude": -11.77625,
        "longitude": -38.90341
    },
    {
        "name": "Лапландия",
        "latitude": -11.38333,
        "longitude": -41.83194
    },
    {
        "name": "Лаура де Фрейтас",
        "latitude": -12.89444,
        "longitude": -38.32722
    },
    {
        "name": "Шерсть",
        "latitude": -12.47259,
        "longitude": -41.30815
    },
    {
        "name": "Лициниу-де-Алмейда",
        "latitude": -14.70644,
        "longitude": -42.50442
    },
    {
        "name": "Освобождение Богоматери",
        "latitude": -13.8068,
        "longitude": -41.99709
    },
    {
        "name": "Освобождение Брумадо",
        "latitude": -13.65145,
        "longitude": -41.84564
    },
    {
        "name": "Луис Эдуардо Магальяйнс",
        "latitude": -12.23208,
        "longitude": -46.1146
    },
    {
        "name": "Макаюба",
        "latitude": -12.14371,
        "longitude": -40.30199
    },
    {
        "name": "Макарани",
        "latitude": -15.557,
        "longitude": -40.39049
    },
    {
        "name": "Макаубас",
        "latitude": -13.01944,
        "longitude": -42.69861
    },
    {
        "name": "Макюруре",
        "latitude": -9.28091,
        "longitude": -38.91463
    },
    {
        "name": "Матерь Божья",
        "latitude": -12.74083,
        "longitude": -38.62083
    },
    {
        "name": "Матинга",
        "latitude": -14.6653,
        "longitude": -41.49055
    },
    {
        "name": "И рубашка",
        "latitude": -15.69897,
        "longitude": -40.26411
    },
    {
        "name": "В этом",
        "latitude": -11.71139,
        "longitude": -40.14889
    },
    {
        "name": "Малхада",
        "latitude": -14.19145,
        "longitude": -43.63151
    },
    {
        "name": "Мальяда де Педрас",
        "latitude": -14.27766,
        "longitude": -41.89207
    },
    {
        "name": "Маноэль Виторино",
        "latitude": -14.00487,
        "longitude": -40.48008
    },
    {
        "name": "Кротость",
        "latitude": -11.2078,
        "longitude": -44.14109
    },
    {
        "name": "Маракасы",
        "latitude": -13.44111,
        "longitude": -40.43083
    },
    {
        "name": "Марагожипе",
        "latitude": -12.77778,
        "longitude": -38.91944
    },
    {
        "name": "Марау",
        "latitude": -14.10395,
        "longitude": -39.0149
    },
    {
        "name": "Марсионилио Соуза",
        "latitude": -13.11581,
        "longitude": -40.62915
    },
    {
        "name": "Талисман",
        "latitude": -15.56306,
        "longitude": -39.3025
    },
    {
        "name": "Мата-де-Сан-Хуан",
        "latitude": -12.53028,
        "longitude": -38.29917
    },
    {
        "name": "утро",
        "latitude": -13.89342,
        "longitude": -42.98279
    },
    {
        "name": "Медейрос Нето",
        "latitude": -17.37389,
        "longitude": -40.22056
    },
    {
        "name": "Мигель Кальмон",
        "latitude": -11.42889,
        "longitude": -40.595
    },
    {
        "name": "Чудеса",
        "latitude": -12.95591,
        "longitude": -39.81783
    },
    {
        "name": "Не стесняйтесь",
        "latitude": -10.80362,
        "longitude": -40.67056
    },
    {
        "name": "Высматривать",
        "latitude": -14.18613,
        "longitude": -40.7831
    },
    {
        "name": "Святая Гора",
        "latitude": -10.43778,
        "longitude": -39.33278
    },
    {
        "name": "Морпара",
        "latitude": -11.75265,
        "longitude": -43.09133
    },
    {
        "name": "Хэт-Хилл",
        "latitude": -11.54852,
        "longitude": -41.15804
    },
    {
        "name": "Мортугаба",
        "latitude": -14.9848,
        "longitude": -42.40555
    },
    {
        "name": "Мукуге",
        "latitude": -13.14869,
        "longitude": -41.51742
    },
    {
        "name": "Мукури",
        "latitude": -18.08639,
        "longitude": -39.55083
    },
    {
        "name": "Гоша, Морро",
        "latitude": -12.00797,
        "longitude": -41.42582
    },
    {
        "name": "Новый мир",
        "latitude": -11.85889,
        "longitude": -40.4725
    },
    {
        "name": "Мунис Феррейра",
        "latitude": -13.00146,
        "longitude": -39.10601
    },
    {
        "name": "Мукем-ду-Сан-Франциско",
        "latitude": -12.19886,
        "longitude": -43.51311
    },
    {
        "name": "Муритиба",
        "latitude": -12.91667,
        "longitude": -39.25
    },
    {
        "name": "Взаимный",
        "latitude": -13.22861,
        "longitude": -39.50472
    },
    {
        "name": "Назарет",
        "latitude": -12.95002,
        "longitude": -38.97869
    },
    {
        "name": "Нило Песанья",
        "latitude": -13.64812,
        "longitude": -39.23876
    },
    {
        "name": "Северо-восточный",
        "latitude": -10.89685,
        "longitude": -39.45141
    },
    {
        "name": "Новый Ханаан",
        "latitude": -14.84621,
        "longitude": -40.17826
    },
    {
        "name": "Новая Фатима",
        "latitude": -11.56608,
        "longitude": -39.58609
    },
    {
        "name": "Новая Ибиа",
        "latitude": -13.8623,
        "longitude": -39.58877
    },
    {
        "name": "Нова Итарана",
        "latitude": -13.04028,
        "longitude": -40.00784
    },
    {
        "name": "Новое искупление",
        "latitude": -12.87403,
        "longitude": -41.12335
    },
    {
        "name": "Нова Суре",
        "latitude": -11.23333,
        "longitude": -38.48333
    },
    {
        "name": "Нова-Висоза",
        "latitude": -17.89194,
        "longitude": -39.37194
    },
    {
        "name": "Новый горизонт",
        "latitude": -12.87886,
        "longitude": -42.13834
    },
    {
        "name": "Новый Триумф",
        "latitude": -10.34787,
        "longitude": -38.40211
    },
    {
        "name": "Первый",
        "latitude": -11.36667,
        "longitude": -38.33333
    },
    {
        "name": "Оливейра душ Брежиньюс",
        "latitude": -12.31694,
        "longitude": -42.89611
    },
    {
        "name": "Урисангас",
        "latitude": -12.00343,
        "longitude": -38.65208
    },
    {
        "name": "Уроландия",
        "latitude": -10.83804,
        "longitude": -41.02839
    },
    {
        "name": "Монте-Альто-Палмс",
        "latitude": -14.26722,
        "longitude": -43.16194
    },
    {
        "name": "пальмовые деревья",
        "latitude": -12.51485,
        "longitude": -41.57707
    },
    {
        "name": "Парамирим",
        "latitude": -13.4425,
        "longitude": -42.23889
    },
    {
        "name": "Сглаживание",
        "latitude": -12.69056,
        "longitude": -43.18417
    },
    {
        "name": "Париж",
        "latitude": -10.6875,
        "longitude": -37.86167
    },
    {
        "name": "Пау Бразилия",
        "latitude": -15.46417,
        "longitude": -39.65111
    },
    {
        "name": "Пауло Афонсу",
        "latitude": -9.55234,
        "longitude": -38.16905
    },
    {
        "name": "Серра Фут",
        "latitude": -11.88974,
        "longitude": -39.61937
    },
    {
        "name": "Педрао",
        "latitude": -12.13311,
        "longitude": -38.60621
    },
    {
        "name": "Питер Александр",
        "latitude": -9.97693,
        "longitude": -37.91489
    },
    {
        "name": "Пиата",
        "latitude": -13.12099,
        "longitude": -41.89093
    },
    {
        "name": "Аркадный пилон",
        "latitude": -10.00201,
        "longitude": -43.39371
    },
    {
        "name": "Пинеда",
        "latitude": -14.52319,
        "longitude": -42.67822
    },
    {
        "name": "Пиндобасу",
        "latitude": -10.74167,
        "longitude": -40.36083
    },
    {
        "name": "Окрашенный",
        "latitude": -11.92312,
        "longitude": -39.97782
    },
    {
        "name": "Пираи-дю-Норти",
        "latitude": -13.84971,
        "longitude": -39.39208
    },
    {
        "name": "Филип",
        "latitude": -14.92617,
        "longitude": -41.75304
    },
    {
        "name": "Притиба",
        "latitude": -11.73028,
        "longitude": -40.55528
    },
    {
        "name": "Планальтино",
        "latitude": -13.27349,
        "longitude": -40.22316
    },
    {
        "name": "Хайленд",
        "latitude": -14.72862,
        "longitude": -40.38025
    },
    {
        "name": "Зелья",
        "latitude": -14.52972,
        "longitude": -40.36528
    },
    {
        "name": "Пожука",
        "latitude": -12.36588,
        "longitude": -38.24332
    },
    {
        "name": "Новая точка",
        "latitude": -10.86278,
        "longitude": -40.13361
    },
    {
        "name": "безопасная гавань",
        "latitude": -16.44972,
        "longitude": -39.06472
    },
    {
        "name": "Автор: Мата",
        "latitude": -17.88828,
        "longitude": -39.85593
    },
    {
        "name": "Потирагуа",
        "latitude": -15.70117,
        "longitude": -39.76689
    },
    {
        "name": "Прадо",
        "latitude": -17.31655,
        "longitude": -39.23355
    },
    {
        "name": "Президент Дутра",
        "latitude": -11.29503,
        "longitude": -41.98563
    },
    {
        "name": "Президент Джанио Квадрос",
        "latitude": -14.82942,
        "longitude": -41.78616
    },
    {
        "name": "Президент Танкредо Невеш",
        "latitude": -13.46145,
        "longitude": -39.42126
    },
    {
        "name": "Пожары",
        "latitude": -10.97833,
        "longitude": -39.62639
    },
    {
        "name": "Кижинге",
        "latitude": -10.7525,
        "longitude": -39.20917
    },
    {
        "name": "Кишабейра",
        "latitude": -11.41345,
        "longitude": -40.13302
    },
    {
        "name": "Рафаэль Джамбейро",
        "latitude": -12.50087,
        "longitude": -39.50915
    },
    {
        "name": "Заводь",
        "latitude": -9.54115,
        "longitude": -42.36956
    },
    {
        "name": "Ретироландия",
        "latitude": -11.47733,
        "longitude": -39.40649
    },
    {
        "name": "Риашао-дас-Невес",
        "latitude": -11.74611,
        "longitude": -44.91
    },
    {
        "name": "Жакуипе Риашао",
        "latitude": -11.80694,
        "longitude": -39.38556
    },
    {
        "name": "Сантана Крик",
        "latitude": -13.60917,
        "longitude": -42.93889
    },
    {
        "name": "Рибейра-ду-Ампаро",
        "latitude": -11.00558,
        "longitude": -38.38732
    },
    {
        "name": "Рибейра-ду-Помбал",
        "latitude": -10.83444,
        "longitude": -38.53583
    },
    {
        "name": "Рибейру-ду-Ларго",
        "latitude": -15.38558,
        "longitude": -40.65886
    },
    {
        "name": "Рио-де-Контас",
        "latitude": -13.62169,
        "longitude": -41.68702
    },
    {
        "name": "Рио-ду-Антониу",
        "latitude": -14.22674,
        "longitude": -42.16613
    },
    {
        "name": "Река Пирес",
        "latitude": -13.11134,
        "longitude": -42.17747
    },
    {
        "name": "Рио Реал",
        "latitude": -11.48472,
        "longitude": -37.93278
    },
    {
        "name": "Роделас",
        "latitude": -9.21767,
        "longitude": -38.64607
    },
    {
        "name": "Руй Барбоза",
        "latitude": -12.28389,
        "longitude": -40.49389
    },
    {
        "name": "Соляные равнины Маргариды",
        "latitude": -12.90667,
        "longitude": -38.78043
    },
    {
        "name": "Сальвадор",
        "latitude": -12.97111,
        "longitude": -38.51083
    },
    {
        "name": "Святая Варвара",
        "latitude": -11.9177,
        "longitude": -38.99206
    },
    {
        "name": "Святая Бригитта",
        "latitude": -9.67904,
        "longitude": -38.11371
    },
    {
        "name": "Санта-Крус-Кабралия",
        "latitude": -16.27806,
        "longitude": -39.02472
    },
    {
        "name": "Санта-Крус-да-Витория",
        "latitude": -14.90311,
        "longitude": -39.79148
    },
    {
        "name": "Санта-Инез",
        "latitude": -13.29222,
        "longitude": -39.81889
    },
    {
        "name": "Санта-Люсия",
        "latitude": -15.46388,
        "longitude": -39.27671
    },
    {
        "name": "Санта-Мария-да-Витория",
        "latitude": -13.38814,
        "longitude": -44.19868
    },
    {
        "name": "Святая Рита де Кассия",
        "latitude": -11.02715,
        "longitude": -44.59582
    },
    {
        "name": "Санта-Тереза",
        "latitude": -12.6712,
        "longitude": -39.55082
    },
    {
        "name": "Санталуз",
        "latitude": -11.25583,
        "longitude": -39.37472
    },
    {
        "name": "Сантана",
        "latitude": -14.46667,
        "longitude": -41.8
    },
    {
        "name": "Сантанополис",
        "latitude": -12.02416,
        "longitude": -38.88007
    },
    {
        "name": "Святой горький",
        "latitude": -12.54667,
        "longitude": -38.71194
    },
    {
        "name": "Святой Антоний Иисусов",
        "latitude": -12.96889,
        "longitude": -39.26139
    },
    {
        "name": "Святой Стефан",
        "latitude": -12.43028,
        "longitude": -39.25139
    },
    {
        "name": "Святой Дезидерий",
        "latitude": -12.36333,
        "longitude": -44.97333
    },
    {
        "name": "Сен-Домингос",
        "latitude": -11.48464,
        "longitude": -39.59916
    },
    {
        "name": "Святой Филипп",
        "latitude": -14.8386,
        "longitude": -41.39174
    },
    {
        "name": "Святой Феликс",
        "latitude": -12.67807,
        "longitude": -38.99979
    },
    {
        "name": "Сан-Феликс-ду-Корибе",
        "latitude": -13.41471,
        "longitude": -43.98138
    },
    {
        "name": "Сан-Франциско-дю-Конде",
        "latitude": -12.64556,
        "longitude": -38.63335
    },
    {
        "name": "Святой Габриэль",
        "latitude": -10.95576,
        "longitude": -41.55411
    },
    {
        "name": "Сан-Гонсалу-дус-Кампус",
        "latitude": -12.43333,
        "longitude": -38.96667
    },
    {
        "name": "Сан-Хосе да Витория",
        "latitude": -15.07185,
        "longitude": -39.35016
    },
    {
        "name": "Сан-Хосе-ду-Хакипе",
        "latitude": -11.46833,
        "longitude": -39.90377
    },
    {
        "name": "Сан-Мигель-дас-Матас",
        "latitude": -13.04308,
        "longitude": -39.43403
    },
    {
        "name": "Сан-Себастьян-ду-Пассе",
        "latitude": -12.5125,
        "longitude": -38.49528
    },
    {
        "name": "Сапеасу",
        "latitude": -12.772,
        "longitude": -39.23848
    },
    {
        "name": "Сатиро Диас",
        "latitude": -11.63166,
        "longitude": -38.48886
    },
    {
        "name": "Саубара",
        "latitude": -12.7375,
        "longitude": -38.76861
    },
    {
        "name": "Здоровье",
        "latitude": -10.84463,
        "longitude": -40.3751
    },
    {
        "name": "Сибра",
        "latitude": -12.41713,
        "longitude": -41.77049
    },
    {
        "name": "Себастьян Ларанжейрас",
        "latitude": -14.56848,
        "longitude": -43.13729
    },
    {
        "name": "Лорд Бонфима",
        "latitude": -10.46139,
        "longitude": -40.18944
    },
    {
        "name": "я чувствую, что знаю",
        "latitude": -10.21251,
        "longitude": -41.57947
    },
    {
        "name": "Серра-ду-Рамалло",
        "latitude": -13.41101,
        "longitude": -43.77849
    },
    {
        "name": "Серра-Дурада",
        "latitude": -12.91499,
        "longitude": -43.796
    },
    {
        "name": "Серра-Прета",
        "latitude": -12.06913,
        "longitude": -39.3005
    },
    {
        "name": "Серринья",
        "latitude": -11.66417,
        "longitude": -39.0075
    },
    {
        "name": "Серроландия",
        "latitude": -11.54018,
        "longitude": -40.24783
    },
    {
        "name": "Симоэнс Фильо",
        "latitude": -12.78444,
        "longitude": -38.40389
    },
    {
        "name": "Город Мату",
        "latitude": -13.00385,
        "longitude": -43.54537
    },
    {
        "name": "Сайт Квинто",
        "latitude": -10.34321,
        "longitude": -38.07346
    },
    {
        "name": "Собрадиньо",
        "latitude": -12.83333,
        "longitude": -39.1
    },
    {
        "name": "Соуто Соарес",
        "latitude": -11.94603,
        "longitude": -41.94815
    },
    {
        "name": "Табокас-ду-Брежу-Велью",
        "latitude": -12.36943,
        "longitude": -44.08362
    },
    {
        "name": "Танхасу",
        "latitude": -14.0701,
        "longitude": -41.13506
    },
    {
        "name": "Новый Танк",
        "latitude": -13.58365,
        "longitude": -42.54311
    },
    {
        "name": "Танкиньо",
        "latitude": -11.95674,
        "longitude": -39.09608
    },
    {
        "name": "Тапероа",
        "latitude": -13.56959,
        "longitude": -39.2202
    },
    {
        "name": "Тапирамута",
        "latitude": -11.84722,
        "longitude": -40.79139
    },
    {
        "name": "Тейшейра де Фрейтас",
        "latitude": -17.42402,
        "longitude": -39.78697
    },
    {
        "name": "Теодоро Сампайо",
        "latitude": -12.26547,
        "longitude": -38.61211
    },
    {
        "name": "Теофиландия",
        "latitude": -11.53412,
        "longitude": -38.94519
    },
    {
        "name": "Теоландия",
        "latitude": -13.57031,
        "longitude": -39.46492
    },
    {
        "name": "Новая Земля",
        "latitude": -12.38537,
        "longitude": -38.61874
    },
    {
        "name": "Тремедаль",
        "latitude": -14.9008,
        "longitude": -41.32339
    },
    {
        "name": "Тукан",
        "latitude": -10.99427,
        "longitude": -38.86249
    },
    {
        "name": "Ух ты",
        "latitude": -9.84143,
        "longitude": -39.23025
    },
    {
        "name": "Убайра",
        "latitude": -13.287,
        "longitude": -39.69347
    },
    {
        "name": "Убайтаба",
        "latitude": -14.3125,
        "longitude": -39.32333
    },
    {
        "name": "Убата",
        "latitude": -14.05629,
        "longitude": -39.52278
    },
    {
        "name": "Уби",
        "latitude": -11.3906,
        "longitude": -42.15615
    },
    {
        "name": "Умбураны",
        "latitude": -10.5086,
        "longitude": -41.17419
    },
    {
        "name": "А",
        "latitude": -15.16451,
        "longitude": -39.20568
    },
    {
        "name": "Другой",
        "latitude": -14.734,
        "longitude": -42.66544
    },
    {
        "name": "Уручука",
        "latitude": -14.59306,
        "longitude": -39.28444
    },
    {
        "name": "Утинга",
        "latitude": -12.04274,
        "longitude": -41.19475
    },
    {
        "name": "Валенса",
        "latitude": -13.37213,
        "longitude": -39.24002
    },
    {
        "name": "Валенте",
        "latitude": -11.43393,
        "longitude": -39.48472
    },
    {
        "name": "Варзеа-да-Роса",
        "latitude": -11.53905,
        "longitude": -40.07647
    },
    {
        "name": "Варзеа-дю-Посу",
        "latitude": -11.53021,
        "longitude": -40.30918
    },
    {
        "name": "Варзеа-Нова",
        "latitude": -11.05523,
        "longitude": -41.2323
    },
    {
        "name": "Варзедо",
        "latitude": -12.99662,
        "longitude": -39.37091
    },
    {
        "name": "Вера Круз",
        "latitude": -13.0255,
        "longitude": -38.70906
    },
    {
        "name": "Тротуар",
        "latitude": -17.14998,
        "longitude": -40.04873
    },
    {
        "name": "Победа завоевания",
        "latitude": -15.27953,
        "longitude": -40.96575
    },
    {
        "name": "Вагнер",
        "latitude": -12.2593,
        "longitude": -41.22095
    },
    {
        "name": "Вандерли",
        "latitude": -11.765,
        "longitude": -43.99378
    },
    {
        "name": "Венсеслав Гимарайнш",
        "latitude": -13.61819,
        "longitude": -39.58092
    },
    {
        "name": "Шике Шике",
        "latitude": -10.82294,
        "longitude": -42.72815
    },
    {
        "name": "Шике-Шике",
        "latitude": -10.83393,
        "longitude": -42.5632
    },
    {
        "name": "в залив",
        "latitude": -7.33642,
        "longitude": -39.06129
    },
    {
        "name": "Эвентпе",
        "latitude": -4.20565,
        "longitude": -38.6916
    },
    {
        "name": "Акарау",
        "latitude": -2.95424,
        "longitude": -40.08597
    },
    {
        "name": "Акопиара",
        "latitude": -6.11312,
        "longitude": -39.51756
    },
    {
        "name": "Айюаба",
        "latitude": -6.58896,
        "longitude": -40.23948
    },
    {
        "name": "Алькантарас",
        "latitude": -3.58733,
        "longitude": -40.55517
    },
    {
        "name": "Возвышающийся",
        "latitude": -6.98737,
        "longitude": -39.7274
    },
    {
        "name": "Высшая Святость",
        "latitude": -5.5241,
        "longitude": -38.20916
    },
    {
        "name": "Амонтада",
        "latitude": -3.27941,
        "longitude": -39.80582
    },
    {
        "name": "Антонина ду Норте",
        "latitude": -6.73622,
        "longitude": -39.97882
    },
    {
        "name": "Апуйарес",
        "latitude": -3.95004,
        "longitude": -39.30373
    },
    {
        "name": "Акирас",
        "latitude": -3.90157,
        "longitude": -38.39127
    },
    {
        "name": "Аракати",
        "latitude": -4.56513,
        "longitude": -37.76688
    },
    {
        "name": "Аракоиаба",
        "latitude": -4.49045,
        "longitude": -38.67765
    },
    {
        "name": "Аренда",
        "latitude": -4.77058,
        "longitude": -40.75389
    },
    {
        "name": "Арарипе",
        "latitude": -7.20462,
        "longitude": -40.11426
    },
    {
        "name": "Он злится",
        "latitude": -4.41898,
        "longitude": -39.04818
    },
    {
        "name": "Арнейроз",
        "latitude": -6.23607,
        "longitude": -40.094
    },
    {
        "name": "Выпекать",
        "latitude": -6.89746,
        "longitude": -39.82906
    },
    {
        "name": "Аврора",
        "latitude": -7.00011,
        "longitude": -38.97042
    },
    {
        "name": "мелкий",
        "latitude": -6.70726,
        "longitude": -38.75748
    },
    {
        "name": "Банабуйу",
        "latitude": -5.23555,
        "longitude": -38.87457
    },
    {
        "name": "Барбалья",
        "latitude": -7.43604,
        "longitude": -39.35273
    },
    {
        "name": "Барьер",
        "latitude": -4.37049,
        "longitude": -38.61021
    },
    {
        "name": "Барро",
        "latitude": -7.13537,
        "longitude": -38.73373
    },
    {
        "name": "Барокко",
        "latitude": -3.01889,
        "longitude": -41.13611
    },
    {
        "name": "Батурите",
        "latitude": -4.37308,
        "longitude": -38.85915
    },
    {
        "name": "Беберибе",
        "latitude": -4.17972,
        "longitude": -38.13056
    },
    {
        "name": "Бела Круз",
        "latitude": -3.05056,
        "longitude": -40.16778
    },
    {
        "name": "Счастливого пути",
        "latitude": -5.02536,
        "longitude": -39.84169
    },
    {
        "name": "Брехо Санто",
        "latitude": -7.62229,
        "longitude": -38.88195
    },
    {
        "name": "Камоцим",
        "latitude": -2.90222,
        "longitude": -40.84111
    },
    {
        "name": "Кампос Продажи",
        "latitude": -6.92527,
        "longitude": -40.22188
    },
    {
        "name": "Канинде",
        "latitude": -4.40473,
        "longitude": -39.41746
    },
    {
        "name": "Капистрано",
        "latitude": -4.4623,
        "longitude": -38.92072
    },
    {
        "name": "Благотворительность",
        "latitude": -4.201,
        "longitude": -39.14149
    },
    {
        "name": "Карире",
        "latitude": -3.93586,
        "longitude": -40.54679
    },
    {
        "name": "Каририасу",
        "latitude": -7.0417,
        "longitude": -39.25423
    },
    {
        "name": "Кариус",
        "latitude": -6.65619,
        "longitude": -39.47496
    },
    {
        "name": "Карнаубаль",
        "latitude": -4.12097,
        "longitude": -41.01368
    },
    {
        "name": "Гремучая змея",
        "latitude": -4.27004,
        "longitude": -38.27377
    },
    {
        "name": "Катарина",
        "latitude": -6.25016,
        "longitude": -39.9487
    },
    {
        "name": "Катунда",
        "latitude": -4.60469,
        "longitude": -40.1863
    },
    {
        "name": "Каукайя",
        "latitude": -3.73611,
        "longitude": -38.65306
    },
    {
        "name": "Кедр",
        "latitude": -6.59104,
        "longitude": -39.12042
    },
    {
        "name": "Ребенок",
        "latitude": -3.07497,
        "longitude": -41.23723
    },
    {
        "name": "Чоро",
        "latitude": -4.77277,
        "longitude": -39.17779
    },
    {
        "name": "Маленький крик",
        "latitude": -4.29181,
        "longitude": -38.48895
    },
    {
        "name": "Корея",
        "latitude": -3.68827,
        "longitude": -40.72725
    },
    {
        "name": "Кратеус",
        "latitude": -5.25084,
        "longitude": -40.74335
    },
    {
        "name": "Крато",
        "latitude": -7.14714,
        "longitude": -39.47132
    },
    {
        "name": "хорватский",
        "latitude": -4.39092,
        "longitude": -40.86795
    },
    {
        "name": "Круз",
        "latitude": -2.89619,
        "longitude": -40.33573
    },
    {
        "name": "Заместитель Ирапуан Пиньейро",
        "latitude": -5.88737,
        "longitude": -39.25923
    },
    {
        "name": "Да",
        "latitude": -5.99731,
        "longitude": -38.3118
    },
    {
        "name": "Эусебио",
        "latitude": -3.8695,
        "longitude": -38.45545
    },
    {
        "name": "Фариас Брито",
        "latitude": -6.88662,
        "longitude": -39.53406
    },
    {
        "name": "Вилка",
        "latitude": -3.83354,
        "longitude": -40.23431
    },
    {
        "name": "Форталеза",
        "latitude": -3.71722,
        "longitude": -38.54306
    },
    {
        "name": "Форт",
        "latitude": -4.44714,
        "longitude": -37.85289
    },
    {
        "name": "Фрешейринья",
        "latitude": -3.72816,
        "longitude": -40.82027
    },
    {
        "name": "Генерал Сампайо",
        "latitude": -4.05016,
        "longitude": -39.44451
    },
    {
        "name": "Милость",
        "latitude": -4.06621,
        "longitude": -40.79501
    },
    {
        "name": "Ферма",
        "latitude": -3.12028,
        "longitude": -40.82611
    },
    {
        "name": "Фермер",
        "latitude": -6.91745,
        "longitude": -39.27944
    },
    {
        "name": "Гройрас",
        "latitude": -3.92113,
        "longitude": -40.37696
    },
    {
        "name": "Гуаюба",
        "latitude": -4.03972,
        "longitude": -38.63722
    },
    {
        "name": "Гуарасиаба-ду-Норти",
        "latitude": -4.16694,
        "longitude": -40.7475
    },
    {
        "name": "Гуарамиранга",
        "latitude": -4.22177,
        "longitude": -38.96451
    },
    {
        "name": "Гидроландия",
        "latitude": -4.40806,
        "longitude": -40.43778
    },
    {
        "name": "Горизонте",
        "latitude": -4.11458,
        "longitude": -38.51498
    },
    {
        "name": "Ибаретама",
        "latitude": -4.75045,
        "longitude": -38.66571
    },
    {
        "name": "Ибиапина",
        "latitude": -3.93574,
        "longitude": -40.92758
    },
    {
        "name": "Дела, которые необходимо сделать",
        "latitude": -4.96187,
        "longitude": -38.52019
    },
    {
        "name": "Икапуи",
        "latitude": -4.72337,
        "longitude": -37.41335
    },
    {
        "name": "Ико",
        "latitude": -6.35186,
        "longitude": -38.75674
    },
    {
        "name": "Игуату",
        "latitude": -6.3555,
        "longitude": -39.27683
    },
    {
        "name": "Независимость",
        "latitude": -5.47187,
        "longitude": -40.32314
    },
    {
        "name": "Политика",
        "latitude": -4.84741,
        "longitude": -40.81027
    },
    {
        "name": "Ипаумирим",
        "latitude": -6.80882,
        "longitude": -38.73227
    },
    {
        "name": "Я ПУ",
        "latitude": -4.34934,
        "longitude": -40.65931
    },
    {
        "name": "Ипуэйрас",
        "latitude": -4.62127,
        "longitude": -40.82192
    },
    {
        "name": "Ирасема",
        "latitude": -5.81274,
        "longitude": -38.35285
    },
    {
        "name": "Ираучуба",
        "latitude": -3.74611,
        "longitude": -39.78333
    },
    {
        "name": "Итакикаба",
        "latitude": -4.70171,
        "longitude": -37.82908
    },
    {
        "name": "Итайтинга",
        "latitude": -3.96944,
        "longitude": -38.52806
    },
    {
        "name": "Итапейдж",
        "latitude": -3.68667,
        "longitude": -39.58611
    },
    {
        "name": "Итапаже",
        "latitude": -3.73339,
        "longitude": -39.56508
    },
    {
        "name": "Итапипока",
        "latitude": -3.49444,
        "longitude": -39.57861
    },
    {
        "name": "Итапуна",
        "latitude": -4.61918,
        "longitude": -38.9313
    },
    {
        "name": "Итарема",
        "latitude": -3.08336,
        "longitude": -39.89698
    },
    {
        "name": "Оно будет течь",
        "latitude": -4.56784,
        "longitude": -39.5782
    },
    {
        "name": "Ягуаретама",
        "latitude": -5.4833,
        "longitude": -38.75595
    },
    {
        "name": "Ягуарибара",
        "latitude": -5.65027,
        "longitude": -38.51031
    },
    {
        "name": "Ягуарибе",
        "latitude": -5.97256,
        "longitude": -38.68571
    },
    {
        "name": "Ягуаруана",
        "latitude": -4.81405,
        "longitude": -37.79248
    },
    {
        "name": "Сад",
        "latitude": -7.63821,
        "longitude": -39.24037
    },
    {
        "name": "Джати",
        "latitude": -7.7047,
        "longitude": -38.94361
    },
    {
        "name": "Жижока из Жерикоакоары",
        "latitude": -2.87137,
        "longitude": -40.49161
    },
    {
        "name": "Жоао душ Виейрас",
        "latitude": -3.53333,
        "longitude": -41.3
    },
    {
        "name": "Жуазейру-ду-Норти",
        "latitude": -7.21306,
        "longitude": -39.31528
    },
    {
        "name": "Джукас",
        "latitude": -6.44677,
        "longitude": -39.62005
    },
    {
        "name": "Мангабейра Лаврас",
        "latitude": -6.75333,
        "longitude": -38.96444
    },
    {
        "name": "Северный Лимуэйро",
        "latitude": -5.17406,
        "longitude": -38.02656
    },
    {
        "name": "Мадалена",
        "latitude": -4.87622,
        "longitude": -39.47587
    },
    {
        "name": "Мараканау",
        "latitude": -3.87667,
        "longitude": -38.62556
    },
    {
        "name": "Марангуапе",
        "latitude": -3.99581,
        "longitude": -38.72969
    },
    {
        "name": "Марко",
        "latitude": -3.18943,
        "longitude": -40.26283
    },
    {
        "name": "Мартинополе",
        "latitude": -3.19761,
        "longitude": -40.60948
    },
    {
        "name": "Массапе",
        "latitude": -3.50912,
        "longitude": -40.36655
    },
    {
        "name": "Маврити",
        "latitude": -7.38806,
        "longitude": -38.63645
    },
    {
        "name": "Меруока",
        "latitude": -3.58604,
        "longitude": -40.4673
    },
    {
        "name": "Чудеса",
        "latitude": -7.26057,
        "longitude": -38.96244
    },
    {
        "name": "Милха",
        "latitude": -5.66904,
        "longitude": -39.22525
    },
    {
        "name": "Мирайма",
        "latitude": -3.56511,
        "longitude": -39.9039
    },
    {
        "name": "Старая миссия",
        "latitude": -7.23707,
        "longitude": -39.11196
    },
    {
        "name": "Момбаса",
        "latitude": -5.79217,
        "longitude": -39.77985
    },
    {
        "name": "Монсеньор Табоса",
        "latitude": -4.96764,
        "longitude": -40.06725
    },
    {
        "name": "новый адрес",
        "latitude": -5.10667,
        "longitude": -38.3725
    },
    {
        "name": "Мораужо",
        "latitude": -3.46006,
        "longitude": -40.69958
    },
    {
        "name": "Морриньюс",
        "latitude": -3.28421,
        "longitude": -40.09125
    },
    {
        "name": "В игре",
        "latitude": -3.9078,
        "longitude": -40.76944
    },
    {
        "name": "Бог",
        "latitude": -4.30636,
        "longitude": -38.98955
    },
    {
        "name": "Нью-Олинда",
        "latitude": -7.08567,
        "longitude": -39.67195
    },
    {
        "name": "Нова Руссас",
        "latitude": -4.72277,
        "longitude": -40.59553
    },
    {
        "name": "Новый Восток",
        "latitude": -5.58278,
        "longitude": -40.74014
    },
    {
        "name": "упрек",
        "latitude": -4.49083,
        "longitude": -38.59667
    },
    {
        "name": "Орос",
        "latitude": -6.25502,
        "longitude": -38.96761
    },
    {
        "name": "Пакахус",
        "latitude": -4.1725,
        "longitude": -38.46056
    },
    {
        "name": "Пакатуба",
        "latitude": -3.97623,
        "longitude": -38.62922
    },
    {
        "name": "Пакоти",
        "latitude": -4.19575,
        "longitude": -38.90252
    },
    {
        "name": "Пакуха",
        "latitude": -3.96747,
        "longitude": -40.67686
    },
    {
        "name": "Пальяно",
        "latitude": -4.66056,
        "longitude": -38.04453
    },
    {
        "name": "Пальма",
        "latitude": -4.12964,
        "longitude": -38.84258
    },
    {
        "name": "Паракуру",
        "latitude": -3.41,
        "longitude": -39.03056
    },
    {
        "name": "Библия",
        "latitude": -3.43944,
        "longitude": -39.14833
    },
    {
        "name": "Парамбу",
        "latitude": -6.25405,
        "longitude": -40.60876
    },
    {
        "name": "Парамот",
        "latitude": -4.14739,
        "longitude": -39.36219
    },
    {
        "name": "Белый Рок",
        "latitude": -5.49336,
        "longitude": -39.85259
    },
    {
        "name": "Пенафорте",
        "latitude": -7.80046,
        "longitude": -39.04704
    },
    {
        "name": "Пятидесятница",
        "latitude": -3.85116,
        "longitude": -39.1985
    },
    {
        "name": "Перейро",
        "latitude": -6.04085,
        "longitude": -38.48892
    },
    {
        "name": "Пиндоретама",
        "latitude": -4.06156,
        "longitude": -38.2945
    },
    {
        "name": "Пике Карнейро",
        "latitude": -5.86038,
        "longitude": -39.4558
    },
    {
        "name": "Пиреш Феррейра",
        "latitude": -4.25485,
        "longitude": -40.59869
    },
    {
        "name": "Поранга",
        "latitude": -4.76103,
        "longitude": -40.93222
    },
    {
        "name": "Ворота",
        "latitude": -7.59509,
        "longitude": -39.07443
    },
    {
        "name": "Потенги",
        "latitude": -7.03279,
        "longitude": -40.04012
    },
    {
        "name": "Власть",
        "latitude": -5.75401,
        "longitude": -38.18249
    },
    {
        "name": "Китерианополис",
        "latitude": -5.88995,
        "longitude": -40.72808
    },
    {
        "name": "Кишада",
        "latitude": -4.97056,
        "longitude": -39.01812
    },
    {
        "name": "Кисело",
        "latitude": -6.15064,
        "longitude": -39.11702
    },
    {
        "name": "Квиксерамобим",
        "latitude": -5.13424,
        "longitude": -39.33459
    },
    {
        "name": "я захочу",
        "latitude": -5.07417,
        "longitude": -37.98861
    },
    {
        "name": "Искупление",
        "latitude": -4.22583,
        "longitude": -38.73056
    },
    {
        "name": "Рериутаба",
        "latitude": -4.13835,
        "longitude": -40.61603
    },
    {
        "name": "Русский",
        "latitude": -4.8399,
        "longitude": -38.19597
    },
    {
        "name": "Сабойро",
        "latitude": -6.47813,
        "longitude": -39.88569
    },
    {
        "name": "Селитра",
        "latitude": -7.13795,
        "longitude": -40.28978
    },
    {
        "name": "Санта-Китерия",
        "latitude": -4.33194,
        "longitude": -40.15667
    },
    {
        "name": "Сантана-ду-Акарау",
        "latitude": -3.46056,
        "longitude": -40.21222
    },
    {
        "name": "Сантана-ду-Каррири",
        "latitude": -7.17968,
        "longitude": -39.78451
    },
    {
        "name": "Святой Бенедикт",
        "latitude": -4.04957,
        "longitude": -40.94585
    },
    {
        "name": "Сан-Гонсалу-ду-Амаранте",
        "latitude": -3.60722,
        "longitude": -38.96833
    },
    {
        "name": "Сан-Хуан-ду-Жагуарибе",
        "latitude": -5.31884,
        "longitude": -38.26878
    },
    {
        "name": "Святой Иоанн Ингамунский",
        "latitude": -6.0,
        "longitude": -40.28333
    },
    {
        "name": "Сан-Луи-дю-Кур",
        "latitude": -3.64119,
        "longitude": -39.24877
    },
    {
        "name": "Сенатор Помпей",
        "latitude": -5.58806,
        "longitude": -39.37167
    },
    {
        "name": "Сенатор Са",
        "latitude": -3.27654,
        "longitude": -40.44418
    },
    {
        "name": "Собрал",
        "latitude": -3.85932,
        "longitude": -40.04376
    },
    {
        "name": "Солонополь",
        "latitude": -5.87073,
        "longitude": -39.0121
    },
    {
        "name": "Северный совет",
        "latitude": -5.29109,
        "longitude": -38.07247
    },
    {
        "name": "морской черт",
        "latitude": -4.83222,
        "longitude": -40.32056
    },
    {
        "name": "Кастинговые сети",
        "latitude": -6.73736,
        "longitude": -39.72329
    },
    {
        "name": "Тауа",
        "latitude": -5.90848,
        "longitude": -40.27279
    },
    {
        "name": "Тежусуока",
        "latitude": -3.93547,
        "longitude": -39.64972
    },
    {
        "name": "Тиангуа",
        "latitude": -3.67295,
        "longitude": -40.99014
    },
    {
        "name": "опыт",
        "latitude": -3.33156,
        "longitude": -39.38032
    },
    {
        "name": "Пар",
        "latitude": -3.53335,
        "longitude": -39.37556
    },
    {
        "name": "Убаджара",
        "latitude": -3.8402,
        "longitude": -40.93422
    },
    {
        "name": "Приходить",
        "latitude": -6.60924,
        "longitude": -38.71952
    },
    {
        "name": "я успокаиваюсь",
        "latitude": -3.70599,
        "longitude": -39.39689
    },
    {
        "name": "Урубуретама",
        "latitude": -3.62829,
        "longitude": -39.5476
    },
    {
        "name": "Уруока",
        "latitude": -3.31983,
        "longitude": -40.7217
    },
    {
        "name": "Варьота",
        "latitude": -4.19444,
        "longitude": -40.47667
    },
    {
        "name": "Варзеа Алегре",
        "latitude": -5.35,
        "longitude": -40.38333
    },
    {
        "name": "Визоза-дю-Сеара",
        "latitude": -3.56222,
        "longitude": -41.09222
    },
    {
        "name": "Бразилиа",
        "latitude": -15.77972,
        "longitude": -47.92972
    },
    {
        "name": "Планалтина",
        "latitude": -15.61791,
        "longitude": -47.64874
    },
    {
        "name": "Афонсу Клаудио",
        "latitude": -20.10512,
        "longitude": -41.12422
    },
    {
        "name": "Северная пресная вода",
        "latitude": -18.50646,
        "longitude": -40.9919
    },
    {
        "name": "Белый Орел",
        "latitude": -18.98306,
        "longitude": -40.74028
    },
    {
        "name": "Алегре",
        "latitude": -20.70897,
        "longitude": -41.51937
    },
    {
        "name": "Альфредо Чавес",
        "latitude": -20.54245,
        "longitude": -40.82368
    },
    {
        "name": "Альто Рио Ново",
        "latitude": -19.03248,
        "longitude": -40.99144
    },
    {
        "name": "Анчиета",
        "latitude": -20.7342,
        "longitude": -40.70056
    },
    {
        "name": "Мне это нравится",
        "latitude": -21.08025,
        "longitude": -41.561
    },
    {
        "name": "Аракрус",
        "latitude": -19.81952,
        "longitude": -40.19097
    },
    {
        "name": "Атилио Виваква",
        "latitude": -20.95472,
        "longitude": -41.19096
    },
    {
        "name": "Байшо Гуанду",
        "latitude": -19.51889,
        "longitude": -41.01583
    },
    {
        "name": "Сан-Франциско Бар",
        "latitude": -18.755,
        "longitude": -40.89083
    },
    {
        "name": "Хорошая надежда",
        "latitude": -18.54,
        "longitude": -40.29583
    },
    {
        "name": "Бом Жезус ду Норте",
        "latitude": -21.08831,
        "longitude": -41.63939
    },
    {
        "name": "Брежетуба",
        "latitude": -20.15621,
        "longitude": -41.3065
    },
    {
        "name": "Водопад Итапемирим",
        "latitude": -20.84889,
        "longitude": -41.11278
    },
    {
        "name": "Кариасика",
        "latitude": -20.3005,
        "longitude": -40.46919
    },
    {
        "name": "Замок",
        "latitude": -20.60361,
        "longitude": -41.18472
    },
    {
        "name": "Колатина",
        "latitude": -19.53944,
        "longitude": -40.63056
    },
    {
        "name": "Концепция да Барра",
        "latitude": -18.5854,
        "longitude": -39.73618
    },
    {
        "name": "Консейсан-ду-Каштелу",
        "latitude": -20.36226,
        "longitude": -41.26622
    },
    {
        "name": "Божество Сан-Лауренсо",
        "latitude": -20.59751,
        "longitude": -41.72185
    },
    {
        "name": "Домингос Мартинс",
        "latitude": -20.36333,
        "longitude": -40.65917
    },
    {
        "name": "Печали Рио-Прету",
        "latitude": -20.63511,
        "longitude": -41.81208
    },
    {
        "name": "Экопоранга",
        "latitude": -18.37333,
        "longitude": -40.83056
    },
    {
        "name": "Фундао",
        "latitude": -19.98985,
        "longitude": -40.31579
    },
    {
        "name": "Губернатор Линденберг",
        "latitude": -19.20034,
        "longitude": -40.4951
    },
    {
        "name": "Гуасуи",
        "latitude": -20.76804,
        "longitude": -41.71116
    },
    {
        "name": "Гуарапари",
        "latitude": -20.67182,
        "longitude": -40.50196
    },
    {
        "name": "Ибатиба",
        "latitude": -20.23389,
        "longitude": -41.51056
    },
    {
        "name": "Ибирасу",
        "latitude": -19.83194,
        "longitude": -40.36972
    },
    {
        "name": "Это не имеет значения",
        "latitude": -20.51148,
        "longitude": -41.66962
    },
    {
        "name": "икона",
        "latitude": -20.74759,
        "longitude": -40.8657
    },
    {
        "name": "Ирупи",
        "latitude": -20.34528,
        "longitude": -41.64111
    },
    {
        "name": "Итагуасу",
        "latitude": -19.80194,
        "longitude": -40.85556
    },
    {
        "name": "Итапемирим",
        "latitude": -21.01111,
        "longitude": -40.83389
    },
    {
        "name": "Итарана",
        "latitude": -19.87389,
        "longitude": -40.87528
    },
    {
        "name": "Юна",
        "latitude": -20.34583,
        "longitude": -41.53583
    },
    {
        "name": "Скунс",
        "latitude": -18.99187,
        "longitude": -39.97521
    },
    {
        "name": "Херонимо Монтейру",
        "latitude": -20.81243,
        "longitude": -41.39536
    },
    {
        "name": "Джетиба",
        "latitude": -20.02069,
        "longitude": -40.68145
    },
    {
        "name": "Жоау Нейва",
        "latitude": -19.7575,
        "longitude": -40.38556
    },
    {
        "name": "Земляной оранжевый",
        "latitude": -19.89889,
        "longitude": -41.05667
    },
    {
        "name": "Линьярес",
        "latitude": -19.39111,
        "longitude": -40.07222
    },
    {
        "name": "Мантенополис",
        "latitude": -18.8625,
        "longitude": -41.12278
    },
    {
        "name": "Маратаизес",
        "latitude": -21.04333,
        "longitude": -40.82444
    },
    {
        "name": "Маршал Флориано",
        "latitude": -20.41278,
        "longitude": -40.68306
    },
    {
        "name": "Мариландия",
        "latitude": -19.42199,
        "longitude": -40.52021
    },
    {
        "name": "Мимоза ду Сул",
        "latitude": -21.10474,
        "longitude": -41.37566
    },
    {
        "name": "Гора",
        "latitude": -18.12694,
        "longitude": -40.36333
    },
    {
        "name": "Мукуричи",
        "latitude": -18.09333,
        "longitude": -40.51583
    },
    {
        "name": "Мунис Фрейре",
        "latitude": -20.46417,
        "longitude": -41.41306
    },
    {
        "name": "Муки",
        "latitude": -20.91522,
        "longitude": -41.30089
    },
    {
        "name": "Новая Венеция",
        "latitude": -18.71056,
        "longitude": -40.40056
    },
    {
        "name": "Панкас",
        "latitude": -19.225,
        "longitude": -40.85139
    },
    {
        "name": "Педро Канарио",
        "latitude": -18.20359,
        "longitude": -40.03155
    },
    {
        "name": "сосны",
        "latitude": -18.34486,
        "longitude": -40.20984
    },
    {
        "name": "Пиума",
        "latitude": -20.83106,
        "longitude": -40.72932
    },
    {
        "name": "Пойнт Бело",
        "latitude": -18.25222,
        "longitude": -40.49863
    },
    {
        "name": "Президент Кеннеди",
        "latitude": -21.14995,
        "longitude": -41.07293
    },
    {
        "name": "Бананальная река",
        "latitude": -19.265,
        "longitude": -40.33333
    },
    {
        "name": "Риу-Ново-ду-Сул",
        "latitude": -20.78326,
        "longitude": -40.93976
    },
    {
        "name": "Санта-Леопольдина",
        "latitude": -20.10056,
        "longitude": -40.52972
    },
    {
        "name": "Санта-Мария-де-Жетиба",
        "latitude": -20.02745,
        "longitude": -40.74336
    },
    {
        "name": "Санта-Тереза",
        "latitude": -19.93556,
        "longitude": -40.60028
    },
    {
        "name": "Сан-Домингос-ду-Норти",
        "latitude": -19.1297,
        "longitude": -40.55454
    },
    {
        "name": "Сан-Габриэль-да-Палья",
        "latitude": -18.97356,
        "longitude": -40.52522
    },
    {
        "name": "Сан-Хосе-ду-Кальсадо",
        "latitude": -20.98599,
        "longitude": -41.66419
    },
    {
        "name": "Святой Матфей",
        "latitude": -18.72011,
        "longitude": -39.85891
    },
    {
        "name": "Сан-Роке-ду-Ханаан",
        "latitude": -19.73027,
        "longitude": -40.67143
    },
    {
        "name": "Серра",
        "latitude": -20.10822,
        "longitude": -40.30186
    },
    {
        "name": "Соортама",
        "latitude": -19.08218,
        "longitude": -40.14134
    },
    {
        "name": "Варгем Альта",
        "latitude": -20.64727,
        "longitude": -41.00855
    },
    {
        "name": "Венда Нова до Иммигранте",
        "latitude": -20.38487,
        "longitude": -41.13539
    },
    {
        "name": "Виана",
        "latitude": -20.36757,
        "longitude": -40.51413
    },
    {
        "name": "Вила Павао",
        "latitude": -18.61186,
        "longitude": -40.65163
    },
    {
        "name": "Вилла Валерио",
        "latitude": -18.97995,
        "longitude": -40.36633
    },
    {
        "name": "старая деревня",
        "latitude": -20.32972,
        "longitude": -40.2925
    },
    {
        "name": "Победа",
        "latitude": -20.31944,
        "longitude": -40.33778
    },
    {
        "name": "Аббатство Гояс",
        "latitude": -16.77762,
        "longitude": -49.46841
    },
    {
        "name": "Абадиания",
        "latitude": -16.22632,
        "longitude": -48.62681
    },
    {
        "name": "Акреуна",
        "latitude": -17.43605,
        "longitude": -50.26696
    },
    {
        "name": "Аделандия",
        "latitude": -16.38577,
        "longitude": -50.18846
    },
    {
        "name": "Гояс Холодная Вода",
        "latitude": -14.96056,
        "longitude": -47.84963
    },
    {
        "name": "Чистая вода",
        "latitude": -18.07999,
        "longitude": -48.79951
    },
    {
        "name": "Агуас Линдас де Гояс",
        "latitude": -15.76613,
        "longitude": -48.28611
    },
    {
        "name": "Алексания",
        "latitude": -16.14926,
        "longitude": -48.45973
    },
    {
        "name": "Алоандия",
        "latitude": -17.69411,
        "longitude": -49.44985
    },
    {
        "name": "Высокий горизонт",
        "latitude": -14.20236,
        "longitude": -49.435
    },
    {
        "name": "Альто Параисо де Гояс",
        "latitude": -14.18198,
        "longitude": -47.45902
    },
    {
        "name": "Северная заря",
        "latitude": -14.52424,
        "longitude": -46.64133
    },
    {
        "name": "Амаралина",
        "latitude": -13.8139,
        "longitude": -49.63205
    },
    {
        "name": "Американец из Бразилии",
        "latitude": -16.26498,
        "longitude": -49.99408
    },
    {
        "name": "Аморинополис",
        "latitude": -16.6342,
        "longitude": -51.09852
    },
    {
        "name": "Аннаполис",
        "latitude": -16.32667,
        "longitude": -48.95278
    },
    {
        "name": "Анхангера",
        "latitude": -18.31505,
        "longitude": -48.2219
    },
    {
        "name": "Аникуны",
        "latitude": -16.38582,
        "longitude": -49.97942
    },
    {
        "name": "Апаресида-де-Гояния",
        "latitude": -16.82333,
        "longitude": -49.24389
    },
    {
        "name": "Апаресида-ду-Риу-Досе",
        "latitude": -18.22963,
        "longitude": -51.2414
    },
    {
        "name": "Апоре",
        "latitude": -18.74325,
        "longitude": -52.06942
    },
    {
        "name": "Арасу",
        "latitude": -16.38304,
        "longitude": -49.70782
    },
    {
        "name": "Арагаркас",
        "latitude": -15.94743,
        "longitude": -52.08069
    },
    {
        "name": "Арагон",
        "latitude": -16.95418,
        "longitude": -49.40598
    },
    {
        "name": "Арагуапас",
        "latitude": -15.12986,
        "longitude": -50.4984
    },
    {
        "name": "Аренополис",
        "latitude": -16.36096,
        "longitude": -51.60464
    },
    {
        "name": "аруана",
        "latitude": -14.8102,
        "longitude": -50.94501
    },
    {
        "name": "Ауриландия",
        "latitude": -16.67681,
        "longitude": -50.52582
    },
    {
        "name": "Авелинополис",
        "latitude": -16.49121,
        "longitude": -49.76368
    },
    {
        "name": "Цель",
        "latitude": -16.36672,
        "longitude": -52.43611
    },
    {
        "name": "Высокая грязь",
        "latitude": -14.91276,
        "longitude": -48.87739
    },
    {
        "name": "Бела Виста де Гояс",
        "latitude": -16.97278,
        "longitude": -48.95333
    },
    {
        "name": "Бом Жардим де Гояс",
        "latitude": -16.27033,
        "longitude": -52.05682
    },
    {
        "name": "Бом Хесус де Гояс",
        "latitude": -18.19213,
        "longitude": -49.89536
    },
    {
        "name": "Бонфинополис",
        "latitude": -16.59726,
        "longitude": -49.01486
    },
    {
        "name": "Бонополис",
        "latitude": -13.57725,
        "longitude": -49.89702
    },
    {
        "name": "Брасабрантес",
        "latitude": -16.37909,
        "longitude": -49.38445
    },
    {
        "name": "Британия",
        "latitude": -15.21115,
        "longitude": -51.14785
    },
    {
        "name": "Бурити-Аллегри",
        "latitude": -18.14,
        "longitude": -49.04028
    },
    {
        "name": "Бурить-де-Гояс",
        "latitude": -16.16439,
        "longitude": -50.42918
    },
    {
        "name": "Буритинополис",
        "latitude": -14.40974,
        "longitude": -46.31759
    },
    {
        "name": "Изголовья",
        "latitude": -15.73747,
        "longitude": -47.03428
    },
    {
        "name": "Высокий водопад",
        "latitude": -18.54284,
        "longitude": -50.98208
    },
    {
        "name": "Водопад Гояс",
        "latitude": -16.72507,
        "longitude": -50.68613
    },
    {
        "name": "Золотой водопад",
        "latitude": -18.49516,
        "longitude": -49.65104
    },
    {
        "name": "Качу",
        "latitude": -18.55667,
        "longitude": -51.13083
    },
    {
        "name": "Кайапония",
        "latitude": -16.95987,
        "longitude": -51.79148
    },
    {
        "name": "Кальдас-Новас",
        "latitude": -17.73126,
        "longitude": -48.65479
    },
    {
        "name": "Кальдазинья",
        "latitude": -16.74858,
        "longitude": -49.00064
    },
    {
        "name": "Кампестре де Гояс",
        "latitude": -16.78337,
        "longitude": -49.70958
    },
    {
        "name": "Кампинасу",
        "latitude": -13.86371,
        "longitude": -48.56754
    },
    {
        "name": "Кампинорте",
        "latitude": -14.045,
        "longitude": -48.97524
    },
    {
        "name": "Кампу-Алегри-де-Гояс",
        "latitude": -17.67336,
        "longitude": -47.77801
    },
    {
        "name": "Кампо Лимпо де Гояс",
        "latitude": -16.30048,
        "longitude": -49.09041
    },
    {
        "name": "Кампос Белас",
        "latitude": -13.03667,
        "longitude": -46.77167
    },
    {
        "name": "Зеленые поля",
        "latitude": -14.19022,
        "longitude": -49.65835
    },
    {
        "name": "Карму-ду-Риу-Верде",
        "latitude": -15.35361,
        "longitude": -49.7075
    },
    {
        "name": "Кастеландия",
        "latitude": -18.15581,
        "longitude": -50.34
    },
    {
        "name": "каталонский",
        "latitude": -18.16583,
        "longitude": -47.94639
    },
    {
        "name": "Катураи",
        "latitude": -16.46981,
        "longitude": -49.59556
    },
    {
        "name": "Кавальканте",
        "latitude": -13.7975,
        "longitude": -47.45833
    },
    {
        "name": "Церера",
        "latitude": -15.2735,
        "longitude": -49.64455
    },