[
    {
        "name": "Абиджан",
        "latitude": 5.30966,
        "longitude": -4.01266
    },
    {
        "name": "Абобо",
        "latitude": 5.41613,
        "longitude": -4.0159
    },
    {
        "name": "Животные",
        "latitude": 5.49462,
        "longitude": -4.05183
    },
    {
        "name": "Бингервилль",
        "latitude": 5.35581,
        "longitude": -3.88537
    },
    {
        "name": "Подниматься",
        "latitude": 4.95712,
        "longitude": -6.09372
    },
    {
        "name": "Сколько",
        "latitude": 5.80112,
        "longitude": -6.60313
    },
    {
        "name": "Сан-Педро",
        "latitude": 4.76768,
        "longitude": -6.65033
    },
    {
        "name": "Сасандра",
        "latitude": 4.95384,
        "longitude": -6.08531
    },
    {
        "name": "Найти",
        "latitude": 4.42295,
        "longitude": -7.3528
    },
    {
        "name": "Абенгуру",
        "latitude": 6.72972,
        "longitude": -3.49639
    },
    {
        "name": "Абоиссо",
        "latitude": 5.46779,
        "longitude": -3.20711
    },
    {
        "name": "Адиаке",
        "latitude": 5.28634,
        "longitude": -3.30403
    },
    {
        "name": "Агнибилекрау",
        "latitude": 7.13113,
        "longitude": -3.20415
    },
    {
        "name": "Аяме",
        "latitude": 5.6052,
        "longitude": -3.15709
    },
    {
        "name": "Бонуа",
        "latitude": 5.27247,
        "longitude": -3.59625
    },
    {
        "name": "Гранд Басам",
        "latitude": 5.2118,
        "longitude": -3.73884
    },
    {
        "name": "Инденье-Джюаблин",
        "latitude": 6.74434,
        "longitude": -3.494
    },
    {
        "name": "Южный Комоэ",
        "latitude": 5.49961,
        "longitude": -3.2408
    },
    {
        "name": "Четыре",
        "latitude": 9.81241,
        "longitude": -7.51894
    },
    {
        "name": "Кабадугу",
        "latitude": 9.60571,
        "longitude": -7.43774
    },
    {
        "name": "Одиенне",
        "latitude": 9.50511,
        "longitude": -7.56433
    },
    {
        "name": "Писатели",
        "latitude": 7.01232,
        "longitude": -7.48639
    },
    {
        "name": "Бьянкома",
        "latitude": 7.73909,
        "longitude": -7.61377
    },
    {
        "name": "Кавалли",
        "latitude": 6.56343,
        "longitude": -7.92526
    },
    {
        "name": "Данан",
        "latitude": 7.25957,
        "longitude": -8.15498
    },
    {
        "name": "Дуэкуэ",
        "latitude": 6.74202,
        "longitude": -7.34918
    },
    {
        "name": "Гемон",
        "latitude": 7.093,
        "longitude": -7.17785
    },
    {
        "name": "Жиголо",
        "latitude": 6.54368,
        "longitude": -7.4935
    },
    {
        "name": "Мужчина",
        "latitude": 7.41251,
        "longitude": -7.55383
    },
    {
        "name": "В танке",
        "latitude": 7.56785,
        "longitude": -7.60941
    },
    {
        "name": "Тулетт Хи",
        "latitude": 6.57395,
        "longitude": -8.42592
    },
    {
        "name": "Звезда",
        "latitude": 5.83739,
        "longitude": -5.35723
    },
    {
        "name": "Ганьоа",
        "latitude": 6.13193,
        "longitude": -5.9506
    },
    {
        "name": "Гоша",
        "latitude": 6.14459,
        "longitude": -5.92644
    },
    {
        "name": "Гиберуа",
        "latitude": 6.23869,
        "longitude": -6.17147
    },
    {
        "name": "Голод",
        "latitude": 5.84752,
        "longitude": -5.682
    },
    {
        "name": "Ло-Джибуа",
        "latitude": 5.82483,
        "longitude": -5.47668
    },
    {
        "name": "Оме",
        "latitude": 6.38309,
        "longitude": -5.41759
    },
    {
        "name": "Пила",
        "latitude": 6.67342,
        "longitude": -3.96938
    },
    {
        "name": "Баран",
        "latitude": 7.02582,
        "longitude": -5.06744
    },
    {
        "name": "Сэндвич",
        "latitude": 7.06264,
        "longitude": -4.49948
    },
    {
        "name": "Бонгуан",
        "latitude": 6.65175,
        "longitude": -4.20406
    },
    {
        "name": "Даукро",
        "latitude": 7.0591,
        "longitude": -3.9631
    },
    {
        "name": "Димбокро",
        "latitude": 6.64678,
        "longitude": -4.70519
    },
    {
        "name": "Если ты",
        "latitude": 7.11509,
        "longitude": -3.95027
    },
    {
        "name": "Придурок",
        "latitude": 6.6683,
        "longitude": -4.13155
    },
    {
        "name": "N'zi",
        "latitude": 6.82803,
        "longitude": -4.5813
    },
    {
        "name": "Тумоди",
        "latitude": 6.55799,
        "longitude": -5.01769
    },
    {
        "name": "Ямусук",
        "latitude": 6.82055,
        "longitude": -5.27674
    },
    {
        "name": "Адзопе",
        "latitude": 6.10694,
        "longitude": -3.86194
    },
    {
        "name": "Афферы",
        "latitude": 6.32035,
        "longitude": -3.95235
    },
    {
        "name": "Агбовиль",
        "latitude": 5.92801,
        "longitude": -4.21319
    },
    {
        "name": "Аньеби-Тиасса",
        "latitude": 5.79488,
        "longitude": -4.37187
    },
    {
        "name": "Аккупе",
        "latitude": 6.38423,
        "longitude": -3.88759
    },
    {
        "name": "Дабу",
        "latitude": 5.32556,
        "longitude": -4.37685
    },
    {
        "name": "Гранд-Лейк",
        "latitude": 5.25068,
        "longitude": -5.00333
    },
    {
        "name": "Гранд Пн",
        "latitude": 5.30487,
        "longitude": -4.39247
    },
    {
        "name": "Тиассале",
        "latitude": 5.89839,
        "longitude": -4.82293
    },
    {
        "name": "Буффало",
        "latitude": 6.99041,
        "longitude": -5.7442
    },
    {
        "name": "Они дали",
        "latitude": 6.87735,
        "longitude": -6.45022
    },
    {
        "name": "Верхняя Сасандра",
        "latitude": 6.66961,
        "longitude": -6.50116
    },
    {
        "name": "Иссия",
        "latitude": 6.49224,
        "longitude": -6.58558
    },
    {
        "name": "Марауэ",
        "latitude": 7.03252,
        "longitude": -5.80215
    },
    {
        "name": "Ух ты",
        "latitude": 7.38194,
        "longitude": -6.47778
    },
    {
        "name": "Суэнула",
        "latitude": 7.43027,
        "longitude": -6.05054
    },
    {
        "name": "Красивый",
        "latitude": 7.67395,
        "longitude": -5.58085
    },
    {
        "name": "Ботро",
        "latitude": 7.85249,
        "longitude": -5.31063
    },
    {
        "name": "Буака",
        "latitude": 7.69385,
        "longitude": -5.03031
    },
    {
        "name": "Дабакала",
        "latitude": 8.36321,
        "longitude": -4.42863
    },
    {
        "name": "Гбекке",
        "latitude": 7.70271,
        "longitude": -5.28511
    },
    {
        "name": "Хмбал",
        "latitude": 8.30368,
        "longitude": -5.15396
    },
    {
        "name": "Катиола",
        "latitude": 8.13728,
        "longitude": -5.10095
    },
    {
        "name": "Саки",
        "latitude": 7.45462,
        "longitude": -5.29263
    },
    {
        "name": "Бафинг",
        "latitude": 8.40611,
        "longitude": -7.58048
    },
    {
        "name": "Оставлять",
        "latitude": 8.18952,
        "longitude": -6.17157
    },
    {
        "name": "Недостаток знаний",
        "latitude": 8.05861,
        "longitude": -6.18972
    },
    {
        "name": "Достиг",
        "latitude": 7.96111,
        "longitude": -6.67306
    },
    {
        "name": "Туба",
        "latitude": 8.28333,
        "longitude": -7.68333
    },
    {
        "name": "Вородугу",
        "latitude": 8.16482,
        "longitude": -6.66595
    },
    {
        "name": "Бондук",
        "latitude": 8.0402,
        "longitude": -2.80003
    },
    {
        "name": "Буна",
        "latitude": 9.26927,
        "longitude": -2.9951
    },
    {
        "name": "Бункани",
        "latitude": 9.47841,
        "longitude": -3.31238
    },
    {
        "name": "Гонтуго",
        "latitude": 7.87132,
        "longitude": -3.07068
    },
    {
        "name": "Синфра",
        "latitude": 6.62103,
        "longitude": -5.91144
    },
    {
        "name": "Знак",
        "latitude": 7.80335,
        "longitude": -3.16832
    }
]