[
    {
        "name": "Керен",
        "latitude": 15.77792,
        "longitude": 38.45107
    },
    {
        "name": "Ади Кейх",
        "latitude": 14.84444,
        "longitude": 39.37722
    },
    {
        "name": "Декемхаре",
        "latitude": 15.07,
        "longitude": 39.0475
    },
    {
        "name": "Победа",
        "latitude": 14.88722,
        "longitude": 38.81528
    },
    {
        "name": "Ак'ордат",
        "latitude": 15.54798,
        "longitude": 37.88291
    },
    {
        "name": "Баренту",
        "latitude": 15.10582,
        "longitude": 37.59067
    },
    {
        "name": "Тесеней",
        "latitude": 15.11,
        "longitude": 36.6575
    },
    {
        "name": "Асмэра",
        "latitude": 15.33805,
        "longitude": 38.93184
    },
    {
        "name": "Даже",
        "latitude": 15.60811,
        "longitude": 39.47455
    },
    {
        "name": "Асэб",
        "latitude": 13.00917,
        "longitude": 42.73944
    },
    {
        "name": "Эдд",
        "latitude": 13.93088,
        "longitude": 41.6938
    }
]