[
    {
        "name": "Абегондо",
        "latitude": 43.21667,
        "longitude": -8.28333
    },
    {
        "name": "Кроме",
        "latitude": 42.90426,
        "longitude": -8.65551
    },
    {
        "name": "Пасха",
        "latitude": 43.23469,
        "longitude": -8.01705
    },
    {
        "name": "Арес",
        "latitude": 43.42995,
        "longitude": -8.24254
    },
    {
        "name": "Я создаю",
        "latitude": 43.30482,
        "longitude": -8.50749
    },
    {
        "name": "Арсуа",
        "latitude": 42.93333,
        "longitude": -8.15
    },
    {
        "name": "Мосты Гарсиа Родригеса",
        "latitude": 43.45266,
        "longitude": -7.85178
    },
    {
        "name": "Ванная А",
        "latitude": 0.0,
        "longitude": 0.0
    },
    {
        "name": "Бергондо",
        "latitude": 43.31667,
        "longitude": -8.23333
    },
    {
        "name": "Бетансос",
        "latitude": 43.28042,
        "longitude": -8.21467
    },
    {
        "name": "Бойморто",
        "latitude": 43.0,
        "longitude": -8.13333
    },
    {
        "name": "туман",
        "latitude": 42.64725,
        "longitude": -8.88459
    },
    {
        "name": "задыхаться",
        "latitude": 0.0,
        "longitude": 0.0
    },
    {
        "name": "Брион",
        "latitude": 0.0,
        "longitude": 0.0
    },
    {
        "name": "Кабана де Бергантиньос",
        "latitude": 0.0,
        "longitude": 0.0
    },
    {
        "name": "Кабаны",
        "latitude": 0.0,
        "longitude": 0.0
    },
    {
        "name": "примерочные",
        "latitude": 43.13115,
        "longitude": -9.18172
    },
    {
        "name": "Камбер",
        "latitude": 43.29438,
        "longitude": -8.34736
    },
    {
        "name": "Часовня А",
        "latitude": 0.0,
        "longitude": 0.0
    },
    {
        "name": "Дуб",
        "latitude": 43.213,
        "longitude": -8.69104
    },
    {
        "name": "Дорогой",
        "latitude": 43.74134,
        "longitude": -7.86715
    },
    {
        "name": "Карнота",
        "latitude": 42.8233,
        "longitude": -9.08913
    },
    {
        "name": "Карраль",
        "latitude": 43.2286,
        "longitude": -8.35545
    },
    {
        "name": "Седейра",
        "latitude": 43.66044,
        "longitude": -8.05719
    },
    {
        "name": "Си",
        "latitude": 42.95466,
        "longitude": -9.188
    },
    {
        "name": "Серседа",
        "latitude": 0.0,
        "longitude": 0.0
    },
    {
        "name": "свиной",
        "latitude": 43.62063,
        "longitude": -7.99959
    },
    {
        "name": "цезуры",
        "latitude": 43.17282,
        "longitude": -8.20061
    },
    {
        "name": "Койрос",
        "latitude": 43.25,
        "longitude": -8.16667
    },
    {
        "name": "Коркубион",
        "latitude": 42.94414,
        "longitude": -9.1926
    },
    {
        "name": "Користанко",
        "latitude": 43.2,
        "longitude": -8.75
    },
    {
        "name": "Корунья А",
        "latitude": 0.0,
        "longitude": 0.0
    },
    {
        "name": "ложкой",
        "latitude": 43.28788,
        "longitude": -8.38858
    },
    {
        "name": "Кертис",
        "latitude": 43.12374,
        "longitude": -8.14818
    },
    {
        "name": "Доро",
        "latitude": 0.0,
        "longitude": 0.0
    },
    {
        "name": "Думбрия",
        "latitude": 43.00836,
        "longitude": -9.11328
    },
    {
        "name": "Фене",
        "latitude": 43.45,
        "longitude": -8.15
    },
    {
        "name": "Феррол",
        "latitude": 43.48961,
        "longitude": -8.2194
    },
    {
        "name": "Фистерра",
        "latitude": 42.90492,
        "longitude": -9.26289
    },
    {
        "name": "Монахи",
        "latitude": 0.0,
        "longitude": 0.0
    },
    {
        "name": "орошать",
        "latitude": 43.2847,
        "longitude": -8.05916
    },
    {
        "name": "Ларача А",
        "latitude": 0.0,
        "longitude": 0.0
    },
    {
        "name": "слабый",
        "latitude": 0.0,
        "longitude": 0.0
    },
    {
        "name": "Лузам",
        "latitude": 42.76477,
        "longitude": -8.84926
    },
    {
        "name": "Мальпика де Бергантиньос",
        "latitude": 0.0,
        "longitude": 0.0
    },
    {
        "name": "Манон",
        "latitude": 0.0,
        "longitude": 0.0
    },
    {
        "name": "Мазарикос",
        "latitude": 42.94033,
        "longitude": -8.97187
    },
    {
        "name": "Мелиде",
        "latitude": 0.0,
        "longitude": 0.0
    },
    {
        "name": "Мессия",
        "latitude": 43.1,
        "longitude": -8.26667
    },
    {
        "name": "Мино",
        "latitude": 43.35,
        "longitude": -8.2
    },
    {
        "name": "Моэче",
        "latitude": 43.55,
        "longitude": -8.01667
    },
    {
        "name": "Монферо",
        "latitude": 43.33333,
        "longitude": -8.01667
    },
    {
        "name": "Мугардос",
        "latitude": 43.4604,
        "longitude": -8.25507
    },
    {
        "name": "с надеждой",
        "latitude": 43.10414,
        "longitude": -9.21791
    },
    {
        "name": "Стены",
        "latitude": 42.77617,
        "longitude": -9.06032
    },
    {
        "name": "доение",
        "latitude": 0.0,
        "longitude": 0.0
    },
    {
        "name": "Нарон",
        "latitude": 43.50175,
        "longitude": -8.19082
    },
    {
        "name": "Неда",
        "latitude": 0.0,
        "longitude": 0.0
    },
    {
        "name": "негрейра",
        "latitude": 42.90402,
        "longitude": -8.74273
    },
    {
        "name": "Ноя",
        "latitude": 0.0,
        "longitude": 0.0
    },
    {
        "name": "гончары",
        "latitude": 43.33333,
        "longitude": -8.31667
    },
    {
        "name": "заказы",
        "latitude": 43.07654,
        "longitude": -8.409
    },
    {
        "name": "золотой",
        "latitude": 42.98333,
        "longitude": -8.43333
    },
    {
        "name": "Крапива",
        "latitude": 0.0,
        "longitude": 0.0
    },
    {
        "name": "другие",
        "latitude": 42.86189,
        "longitude": -8.90181
    },
    {
        "name": "Оза душ Риос",
        "latitude": 0.0,
        "longitude": 0.0
    },
    {
        "name": "Падерна",
        "latitude": 0.0,
        "longitude": 0.0
    },
    {
        "name": "Шаблон",
        "latitude": 42.73875,
        "longitude": -8.66057
    },
    {
        "name": "Сосна О",
        "latitude": 0.0,
        "longitude": 0.0
    },
    {
        "name": "Побра-ду-Караминьял А",
        "latitude": 0.0,
        "longitude": 0.0
    },
    {
        "name": "Мост",
        "latitude": 0.0,
        "longitude": 0.0
    },
    {
        "name": "Он противостоял мне",
        "latitude": 0.0,
        "longitude": 0.0
    },
    {
        "name": "Гарсиа Родригес Бриджес",
        "latitude": 0.0,
        "longitude": 0.0
    },
    {
        "name": "Порту-ду-Сон",
        "latitude": 42.72482,
        "longitude": -9.00527
    },
    {
        "name": "я смеюсь",
        "latitude": 42.64977,
        "longitude": -8.81763
    },
    {
        "name": "Риверсайд",
        "latitude": 42.74611,
        "longitude": -8.44392
    },
    {
        "name": "Ройс",
        "latitude": 0.0,
        "longitude": 0.0
    },
    {
        "name": "Сейчас",
        "latitude": 43.35619,
        "longitude": -8.25796
    },
    {
        "name": "Сан-Садурниньо",
        "latitude": 0.0,
        "longitude": 0.0
    },
    {
        "name": "Санта-Комба",
        "latitude": 43.03306,
        "longitude": -8.80925
    },
    {
        "name": "Сантьяго-де-Компостела",
        "latitude": 42.88052,
        "longitude": -8.54569
    },
    {
        "name": "Сантисо",
        "latitude": 42.87388,
        "longitude": -8.05497
    },
    {
        "name": "чердак",
        "latitude": 43.03882,
        "longitude": -8.02784
    },
    {
        "name": "Сомосас Эйс",
        "latitude": 0.0,
        "longitude": 0.0
    },
    {
        "name": "Тео",
        "latitude": 42.75,
        "longitude": -8.5
    },
    {
        "name": "Рингтоны",
        "latitude": 0.0,
        "longitude": 0.0
    },
    {
        "name": "Дрозд",
        "latitude": 0.0,
        "longitude": 0.0
    },
    {
        "name": "Туро",
        "latitude": 42.86812,
        "longitude": -8.30764
    },
    {
        "name": "я ношу",
        "latitude": 43.01667,
        "longitude": -8.53333
    },
    {
        "name": "Вал-ду-Дубра",
        "latitude": 0.0,
        "longitude": 0.0
    },
    {
        "name": "Вальдовино",
        "latitude": 43.6,
        "longitude": -8.13333
    },
    {
        "name": "Ведра",
        "latitude": 42.77817,
        "longitude": -8.47636
    },
    {
        "name": "Вилармайор",
        "latitude": 0.0,
        "longitude": 0.0
    },
    {
        "name": "Виласантар",
        "latitude": 43.07106,
        "longitude": -8.12163
    },
    {
        "name": "Вимианцо",
        "latitude": 43.10988,
        "longitude": -9.03351
    },
    {
        "name": "Снова",
        "latitude": 43.09885,
        "longitude": -8.91558
    },
    {
        "name": "Абенжибре",
        "latitude": 0.0,
        "longitude": 0.0
    },
    {
        "name": "Алатоз",
        "latitude": 0.0,
        "longitude": 0.0
    },
    {
        "name": "Альбасете",
        "latitude": 0.0,
        "longitude": 0.0
    },
    {
        "name": "Альбатана",
        "latitude": 0.0,
        "longitude": 0.0
    },
    {
        "name": "Рассвет",
        "latitude": 0.0,
        "longitude": 0.0
    },
    {
        "name": "Алькадозо",
        "latitude": 0.0,
        "longitude": 0.0
    },
    {
        "name": "Алькала-дель-Хукар",
        "latitude": 0.0,
        "longitude": 0.0
    },
    {
        "name": "Алькарас",
        "latitude": 0.0,
        "longitude": 0.0
    },
    {
        "name": "Альманса",
        "latitude": 0.0,
        "longitude": 0.0
    },
    {
        "name": "Альпийский",
        "latitude": 0.0,
        "longitude": 0.0
    },
    {
        "name": "Айна",
        "latitude": 0.0,
        "longitude": 0.0
    },
    {
        "name": "Пуля",
        "latitude": 0.0,
        "longitude": 0.0
    },
    {
        "name": "Баллестеро",
        "latitude": 0.0,
        "longitude": 0.0
    },
    {
        "name": "Весь Рафт",
        "latitude": 0.0,
        "longitude": 0.0
    },
    {
        "name": "Скребок",
        "latitude": 0.0,
        "longitude": 0.0
    },
    {
        "name": "Бьенсервида",
        "latitude": 0.0,
        "longitude": 0.0
    },
    {
        "name": "Богарра",
        "latitude": 0.0,
        "longitude": 0.0
    },
    {
        "name": "Бонете",
        "latitude": 0.0,
        "longitude": 0.0
    },
    {
        "name": "Бонильо Эль",
        "latitude": 0.0,
        "longitude": 0.0
    },
    {
        "name": "Карселен",
        "latitude": 0.0,
        "longitude": 0.0
    },
    {
        "name": "Дома Хуана Нуньеса",
        "latitude": 0.0,
        "longitude": 0.0
    },
    {
        "name": "Дома Лазаря",
        "latitude": 0.0,
        "longitude": 0.0
    },
    {
        "name": "Дома Веса",
        "latitude": 0.0,
        "longitude": 0.0
    },
    {
        "name": "Касас-Ибаньес",
        "latitude": 0.0,
        "longitude": 0.0
    },
    {
        "name": "Каудете",
        "latitude": 0.0,
        "longitude": 0.0
    },
    {
        "name": "пепельный себя",
        "latitude": 0.0,
        "longitude": 0.0
    },
    {
        "name": "Шиншилла Монте-Арагон",
        "latitude": 0.0,
        "longitude": 0.0
    },
    {
        "name": "Коррал-Рубио",
        "latitude": 0.0,
        "longitude": 0.0
    },
    {
        "name": "Сплетни",
        "latitude": 0.0,
        "longitude": 0.0
    },
    {
        "name": "Эльче де ла Сьерра",
        "latitude": 0.0,
        "longitude": 0.0
    },
    {
        "name": "Ферез",
        "latitude": 0.0,
        "longitude": 0.0
    },
    {
        "name": "Фуэнсанта",
        "latitude": 0.0,
        "longitude": 0.0
    },
    {
        "name": "Фонтан-Тополь",
        "latitude": 0.0,
        "longitude": 0.0
    },
    {
        "name": "Источникальбилла",
        "latitude": 0.0,
        "longitude": 0.0
    },
    {
        "name": "Джинета Ла",
        "latitude": 0.0,
        "longitude": 0.0
    },
    {
        "name": "Голосалво",
        "latitude": 0.0,
        "longitude": 0.0
    },
    {
        "name": "Хеллин",
        "latitude": 0.0,
        "longitude": 0.0
    },
    {
        "name": "Эррера",
        "latitude": 0.0,
        "longitude": 0.0
    },
    {
        "name": "Игеруэла",
        "latitude": 0.0,
        "longitude": 0.0
    },
    {
        "name": "Хойя-Гонсало",
        "latitude": 0.0,
        "longitude": 0.0
    },
    {
        "name": "Хоркера",
        "latitude": 0.0,
        "longitude": 0.0
    },
    {
        "name": "Шрифт",
        "latitude": 0.0,
        "longitude": 0.0
    },
    {
        "name": "Возьми",
        "latitude": 0.0,
        "longitude": 0.0
    },
    {
        "name": "Лиетор",
        "latitude": 0.0,
        "longitude": 0.0
    },
    {
        "name": "Норы",
        "latitude": 0.0,
        "longitude": 0.0
    },
    {
        "name": "Махора",
        "latitude": 0.0,
        "longitude": 0.0
    },
    {
        "name": "Пойдем",
        "latitude": 0.0,
        "longitude": 0.0
    },
    {
        "name": "Мине",
        "latitude": 0.0,
        "longitude": 0.0
    },
    {
        "name": "Молиникос",
        "latitude": 0.0,
        "longitude": 0.0
    },
    {
        "name": "Монтальвос",
        "latitude": 0.0,
        "longitude": 0.0
    },
    {
        "name": "Монтеалегре-дель-Кастильо",
        "latitude": 0.0,
        "longitude": 0.0
    },
    {
        "name": "Мотилес",
        "latitude": 0.0,
        "longitude": 0.0
    },
    {
        "name": "Подарки",
        "latitude": 0.0,
        "longitude": 0.0
    },
    {
        "name": "Навас де Хоркера",
        "latitude": 0.0,
        "longitude": 0.0
    },
    {
        "name": "Нерпио",
        "latitude": 0.0,
        "longitude": 0.0
    },
    {
        "name": "Они в огне",
        "latitude": 0.0,
        "longitude": 0.0
    },
    {
        "name": "Осса де Монтьель",
        "latitude": 0.0,
        "longitude": 0.0
    },
    {
        "name": "Патерна дель Мадера",
        "latitude": 0.0,
        "longitude": 0.0
    },
    {
        "name": "Пеньяс де Сан Педро",
        "latitude": 0.0,
        "longitude": 0.0
    },
    {
        "name": "Пеньякоса",
        "latitude": 0.0,
        "longitude": 0.0
    },
    {
        "name": "Петрола",
        "latitude": 0.0,
        "longitude": 0.0
    },
    {
        "name": "Povedilla",
        "latitude": 0.0,
        "longitude": 0.0
    },
    {
        "name": "Каньяда Ну",
        "latitude": 0.0,
        "longitude": 0.0
    },
    {
        "name": "Посо-Лоренте",
        "latitude": 0.0,
        "longitude": 0.0
    },
    {
        "name": "Позоондо",
        "latitude": 0.0,
        "longitude": 0.0
    },
    {
        "name": "Посуэло",
        "latitude": 0.0,
        "longitude": 0.0
    },
    {
        "name": "Соберите",
        "latitude": 0.0,
        "longitude": 0.0
    },
    {
        "name": "Пара из Рио",
        "latitude": 0.0,
        "longitude": 0.0
    },
    {
        "name": "Робледо",
        "latitude": 0.0,
        "longitude": 0.0
    },
    {
        "name": "Колесо",
        "latitude": 0.0,
        "longitude": 0.0
    },
    {
        "name": "Солоноватый",
        "latitude": 0.0,
        "longitude": 0.0
    },
    {
        "name": "Святой Петр",
        "latitude": 0.0,
        "longitude": 0.0
    },
    {
        "name": "Соковос",
        "latitude": 0.0,
        "longitude": 0.0
    },
    {
        "name": "Тарасона де ла Манча",
        "latitude": 0.0,
        "longitude": 0.0
    },
    {
        "name": "Тобарра",
        "latitude": 0.0,
        "longitude": 0.0
    },
    {
        "name": "Вальдеганга",
        "latitude": 0.0,
        "longitude": 0.0
    },
    {
        "name": "Вианос",
        "latitude": 0.0,
        "longitude": 0.0
    },
    {
        "name": "Вилла де Вес",
        "latitude": 0.0,
        "longitude": 0.0
    },
    {
        "name": "Вильяльгордо дель Хукар",
        "latitude": 0.0,
        "longitude": 0.0
    },
    {
        "name": "Вилламалеа",
        "latitude": 0.0,
        "longitude": 0.0
    },
    {
        "name": "Вильяпаласиос",
        "latitude": 0.0,
        "longitude": 0.0
    },
    {
        "name": "Вильярробледо",
        "latitude": 0.0,
        "longitude": 0.0
    },
    {
        "name": "Виллатойя",
        "latitude": 0.0,
        "longitude": 0.0
    },
    {
        "name": "Вильявалиенте",
        "latitude": 0.0,
        "longitude": 0.0
    },
    {
        "name": "Вильяверде де Гуадалимар",
        "latitude": 0.0,
        "longitude": 0.0
    },
    {
        "name": "Питомники",
        "latitude": 0.0,
        "longitude": 0.0
    },
    {
        "name": "И это",
        "latitude": 0.0,
        "longitude": 0.0
    },
    {
        "name": "Адсубия",
        "latitude": 38.84819,
        "longitude": -0.15324
    },
    {
        "name": "Август",
        "latitude": 38.44003,
        "longitude": -0.63836
    },
    {
        "name": "кислый",
        "latitude": 38.78333,
        "longitude": -0.51667
    },
    {
        "name": "воды",
        "latitude": 0.0,
        "longitude": 0.0
    },
    {
        "name": "Альбатера",
        "latitude": 38.17902,
        "longitude": -0.87059
    },
    {
        "name": "щелочной",
        "latitude": 38.75038,
        "longitude": -0.04013
    },
    {
        "name": "Алкоцер планов",
        "latitude": 38.79501,
        "longitude": -0.40244
    },
    {
        "name": "Алколеха",
        "latitude": 0.0,
        "longitude": 0.0
    },
    {
        "name": "Алькой/Алкой",
        "latitude": 0.0,
        "longitude": 0.0
    },
    {
        "name": "люцерна",
        "latitude": 38.77339,
        "longitude": -0.55551
    },
    {
        "name": "Альфас-дель-Пи l",
        "latitude": 0.0,
        "longitude": 0.0
    },
    {
        "name": "Альгорфа",
        "latitude": 38.08636,
        "longitude": -0.79646
    },
    {
        "name": "Альгена",
        "latitude": 38.33905,
        "longitude": -1.00433
    },
    {
        "name": "Аликанте/Аликанте",
        "latitude": 0.0,
        "longitude": 0.0
    },
    {
        "name": "Альморади",
        "latitude": 38.10879,
        "longitude": -0.79197
    },
    {
        "name": "Альмудайна",
        "latitude": 38.75999,
        "longitude": -0.35149
    },
    {
        "name": "Алькерия д'Аснар l",
        "latitude": 0.0,
        "longitude": 0.0
    },
    {
        "name": "Алтея",
        "latitude": 38.59885,
        "longitude": -0.05139
    },
    {
        "name": "Аспе",
        "latitude": 38.34511,
        "longitude": -0.76721
    },
    {
        "name": "Мячи",
        "latitude": 38.73726,
        "longitude": -0.34324
    },
    {
        "name": "Ванны Мариолы",
        "latitude": 0.0,
        "longitude": 0.0
    },
    {
        "name": "Я не знаю",
        "latitude": 38.69047,
        "longitude": -0.34278
    },
    {
        "name": "Благослови ее",
        "latitude": 38.7,
        "longitude": -0.76667
    },
    {
        "name": "Бенежузар",
        "latitude": 38.07728,
        "longitude": -0.83942
    },
    {
        "name": "Бенферри",
        "latitude": 38.14129,
        "longitude": -0.96212
    },
    {
        "name": "Бениарбейг",
        "latitude": 38.82232,
        "longitude": -0.0021
    },
    {
        "name": "Беньярда",
        "latitude": 38.68433,
        "longitude": -0.21629
    },
    {
        "name": "Беньярес",
        "latitude": 38.82019,
        "longitude": -0.37741
    },
    {
        "name": "Бенидолейг",
        "latitude": 38.79278,
        "longitude": -0.02992
    },
    {
        "name": "Бенидорм",
        "latitude": 38.53816,
        "longitude": -0.13098
    },
    {
        "name": "Бенифаллим",
        "latitude": 38.66259,
        "longitude": -0.39994
    },
    {
        "name": "Бенифато",
        "latitude": 0.0,
        "longitude": 0.0
    },
    {
        "name": "Бенигембла",
        "latitude": 0.0,
        "longitude": 0.0
    },
    {
        "name": "Бенихофар",
        "latitude": 38.07785,
        "longitude": -0.7368
    },
    {
        "name": "Бениллоба",
        "latitude": 38.70012,
        "longitude": -0.38998
    },
    {
        "name": "Бениллап",
        "latitude": 38.75397,
        "longitude": -0.37991
    },
    {
        "name": "Бенимантель",
        "latitude": 38.67709,
        "longitude": -0.21057
    },
    {
        "name": "Бенимарфулл",
        "latitude": 38.7759,
        "longitude": -0.39079
    },
    {
        "name": "Бенимасос",
        "latitude": 38.75,
        "longitude": -0.28333
    },
    {
        "name": "Бенимели",
        "latitude": 38.82362,
        "longitude": -0.04221
    },
    {
        "name": "Бенисса",
        "latitude": 38.71492,
        "longitude": 0.04849
    },
    {
        "name": "Бенитачель/Побле Ноу де Бенитачель",
        "latitude": 0.0,
        "longitude": 0.0
    },
    {
        "name": "Позволять",
        "latitude": 38.63117,
        "longitude": -0.76458
    },
    {
        "name": "большой живот",
        "latitude": 38.06237,
        "longitude": -0.89841
    },
    {
        "name": "клецки",
        "latitude": 38.67529,
        "longitude": -0.11184
    },
    {
        "name": "Бусот",
        "latitude": 38.48206,
        "longitude": -0.41918
    },
    {
        "name": "Кальоса-де-Сегура",
        "latitude": 38.12497,
        "longitude": -0.87822
    },
    {
        "name": "Кальоса-д'Эн-Саррия",
        "latitude": 0.0,
        "longitude": 0.0
    },
    {
        "name": "кальп",
        "latitude": 38.6447,
        "longitude": 0.0445
    },
    {
        "name": "Кампельо",
        "latitude": 0.0,
        "longitude": 0.0
    },
    {
        "name": "Кампо де Мирра/Камп де Мирра",
        "latitude": 0.0,
        "longitude": 0.0
    },
    {
        "name": "Канада",
        "latitude": 0.0,
        "longitude": 0.0
    },
    {
        "name": "Кастелла",
        "latitude": 38.59694,
        "longitude": -0.67207
    },
    {
        "name": "Замок замков",
        "latitude": 38.72555,
        "longitude": -0.19242
    },
    {
        "name": "Замок Гуадалест",
        "latitude": 0.0,
        "longitude": 0.0
    },
    {
        "name": "Катрал",
        "latitude": 38.16061,
        "longitude": -0.80209
    },
    {
        "name": "100-летие",
        "latitude": 38.73975,
        "longitude": -0.43976
    },
    {
        "name": "доверять",
        "latitude": 38.68451,
        "longitude": -0.2689
    },
    {
        "name": "Кокс",
        "latitude": 38.14164,
        "longitude": -0.88736
    },
    {
        "name": "кревильент",
        "latitude": 0.0,
        "longitude": 0.0
    },
    {
        "name": "Новый день",
        "latitude": 38.11313,
        "longitude": -0.76028
    },
    {
        "name": "Дайя Вьеха",
        "latitude": 38.1048,
        "longitude": -0.73804
    },
    {
        "name": "Дения",
        "latitude": 38.84078,
        "longitude": 0.10574
    },
    {
        "name": "Долорес",
        "latitude": 38.14002,
        "longitude": -0.77088
    },
    {
        "name": "Эльче/Элькс",
        "latitude": 0.0,
        "longitude": 0.0
    },
    {
        "name": "Готовить",
        "latitude": 38.47783,
        "longitude": -0.79157
    },
    {
        "name": "Фачека",
        "latitude": 38.73501,
        "longitude": -0.26766
    },
    {
        "name": "Фаморка",
        "latitude": 38.73101,
        "longitude": -0.24726
    },
    {
        "name": "оконный",
        "latitude": 38.56737,
        "longitude": -0.21235
    },
    {
        "name": "Фонд де лес Неус эль/Ондон де лас Ньевес",
        "latitude": 0.0,
        "longitude": 0.0
    },
    {
        "name": "Форментера-дель-Сегура",
        "latitude": 0.0,
        "longitude": 0.0
    },
    {
        "name": "Гайанас",
        "latitude": 0.0,
        "longitude": 0.0
    },
    {
        "name": "Кот Горгос",
        "latitude": 38.77443,
        "longitude": 0.08538
    },
    {
        "name": "горло",
        "latitude": 38.71896,
        "longitude": -0.35589
    },
    {
        "name": "Ферма Рокамора",
        "latitude": 38.15157,
        "longitude": -0.8917
    },
    {
        "name": "Гуардамар дель Сегура",
        "latitude": 38.09031,
        "longitude": -0.65556
    },
    {
        "name": "Ондон-де-лос-Фрайлес",
        "latitude": 38.2739,
        "longitude": -0.92938
    },
    {
        "name": "Место",
        "latitude": 38.62533,
        "longitude": -0.57225
    },
    {
        "name": "Жакарилла",
        "latitude": 38.06247,
        "longitude": -0.86822
    },
    {
        "name": "Хавеа/Хавия",
        "latitude": 0.0,
        "longitude": 0.0
    },
    {
        "name": "Хихона/Хихона",
        "latitude": 0.0,
        "longitude": 0.0
    },
    {
        "name": "бесплатно",
        "latitude": 0.0,
        "longitude": 0.0
    },
    {
        "name": "Лорча/Орша л",
        "latitude": 0.0,
        "longitude": 0.0
    },
    {
        "name": "Миллена",
        "latitude": 38.73082,
        "longitude": -0.36274
    },
    {
        "name": "Монфорте дель Сид",
        "latitude": 38.38027,
        "longitude": -0.7285
    },
    {
        "name": "Моновар/Моновер",
        "latitude": 0.0,
        "longitude": 0.0
    },
    {
        "name": "Монтесинос",
        "latitude": 0.0,
        "longitude": 0.0
    },
    {
        "name": "стена",
        "latitude": 38.76037,
        "longitude": -0.08208
    },
    {
        "name": "Алькой Стена",
        "latitude": 0.0,
        "longitude": 0.0
    },
    {
        "name": "нектар",
        "latitude": 38.4158,
        "longitude": -0.44529
    },
    {
        "name": "Новелда",
        "latitude": 38.38479,
        "longitude": -0.76773
    },
    {
        "name": "Нусия ла",
        "latitude": 0.0,
        "longitude": 0.0
    },
    {
        "name": "волна",
        "latitude": 38.82817,
        "longitude": 0.0172
    },
    {
        "name": "онил",
        "latitude": 38.62606,
        "longitude": -0.67313
    },
    {
        "name": "Заказ",
        "latitude": 38.78041,
        "longitude": -0.06278
    },
    {
        "name": "Ориуэла",
        "latitude": 38.08483,
        "longitude": -0.94401
    },
    {
        "name": "Орксета",
        "latitude": 0.0,
        "longitude": 0.0
    },
    {
        "name": "Процент",
        "latitude": 38.74502,
        "longitude": -0.06446
    },
    {
        "name": "Галька",
        "latitude": 38.79312,
        "longitude": 0.03411
    },
    {
        "name": "Пойманный",
        "latitude": 38.84305,
        "longitude": -0.11707
    },
    {
        "name": "Пенагила",
        "latitude": 0.0,
        "longitude": 0.0
    },
    {
        "name": "Петрер",
        "latitude": 0.0,
        "longitude": 0.0
    },
    {
        "name": "Пилар де ла Орадада",
        "latitude": 37.86591,
        "longitude": -0.79256
    },
    {
        "name": "Пинос / Пиносо",
        "latitude": 0.0,
        "longitude": 0.0
    },
    {
        "name": "Самолеты",
        "latitude": 38.78524,
        "longitude": -0.34271
    },
    {
        "name": "Города",
        "latitude": 0.0,
        "longitude": 0.0
    },
    {
        "name": "Полоп",
        "latitude": 38.62258,
        "longitude": -0.1309
    },
    {
        "name": "Кватретондета",
        "latitude": 0.0,
        "longitude": 0.0
    },
    {
        "name": "Рафаль",
        "latitude": 38.10458,
        "longitude": -0.84904
    },
    {
        "name": "Рафол д'Альмуния Эль",
        "latitude": 0.0,
        "longitude": 0.0
    },
    {
        "name": "Переделано",
        "latitude": 38.11619,
        "longitude": -0.90981
    },
    {
        "name": "облегчение",
        "latitude": 38.58725,
        "longitude": -0.31157
    },
    {
        "name": "члены королевской семьи",
        "latitude": 38.08799,
        "longitude": -0.72544
    },
    {
        "name": "Романа",
        "latitude": 0.0,
        "longitude": 0.0
    },
    {
        "name": "Фестиваль",
        "latitude": 38.81102,
        "longitude": -0.06559
    },
    {
        "name": "Салинас",
        "latitude": 38.52025,
        "longitude": -0.91202
    },
    {
        "name": "Сен-Фульхенсио",
        "latitude": 0.0,
        "longitude": 0.0
    },
    {
        "name": "Сан-Исидро",
        "latitude": 28.07617,
        "longitude": -16.558
    },
    {
        "name": "Сан-Мигель-де-Салинас",
        "latitude": 37.97972,
        "longitude": -0.78904
    },
    {
        "name": "Сан-Висенте-дель-Распейг/Сан-Висенте-дель-Распейг",
        "latitude": 0.0,
        "longitude": 0.0
    },
    {
        "name": "Санет и негра",
        "latitude": 38.81967,
        "longitude": -0.03406
    },
    {
        "name": "Сан-Жоан-д'Алакант",
        "latitude": 0.0,
        "longitude": 0.0
    },
    {
        "name": "Санта-Пола",
        "latitude": 38.19165,
        "longitude": -0.5658
    },
    {
        "name": "Сакс",
        "latitude": 38.53729,
        "longitude": -0.81779
    },
    {
        "name": "Селла",
        "latitude": 38.60926,
        "longitude": -0.27305
    },
    {
        "name": "Сения",
        "latitude": 38.72804,
        "longitude": 0.04176
    },
    {
        "name": "Тарбена",
        "latitude": 0.0,
        "longitude": 0.0
    },
    {
        "name": "крыша",
        "latitude": 38.7294,
        "longitude": 0.10383
    },
    {
        "name": "Тиби",
        "latitude": 38.53072,
        "longitude": -0.57776
    },
    {
        "name": "Толлос",
        "latitude": 38.75629,
        "longitude": -0.27466
    },
    {
        "name": "Тормос",
        "latitude": 38.80143,
        "longitude": -0.0716
    },
    {
        "name": "Торремансанас/Торре-де-лес-Масанес-ла",
        "latitude": 0.0,
        "longitude": 0.0
    },
    {
        "name": "Торревьеха",
        "latitude": 37.97872,
        "longitude": -0.68222
    },
    {
        "name": "Валь д'Алькала ла",
        "latitude": 0.0,
        "longitude": 0.0
    },
    {
        "name": "Долина Галлинера",
        "latitude": 0.0,
        "longitude": 0.0
    },
    {
        "name": "Долина Лагуар",
        "latitude": 0.0,
        "longitude": 0.0
    },
    {
        "name": "Долина Эбо",
        "latitude": 0.0,
        "longitude": 0.0
    },
    {
        "name": "Верже",
        "latitude": 0.0,
        "longitude": 0.0
    },
    {
        "name": "Вильяхойоса/Вила-Хойоса-ла",
        "latitude": 0.0,
        "longitude": 0.0
    },
    {
        "name": "Виллена",
        "latitude": 38.6373,
        "longitude": -0.86568
    },
    {
        "name": "Привет",
        "latitude": 0.0,
        "longitude": 0.0
    },
    {
        "name": "Старшая сестра",
        "latitude": 37.14245,
        "longitude": -2.77808
    },
    {
        "name": "Абрусене",
        "latitude": 37.13226,
        "longitude": -2.79711
    },
    {
        "name": "Другой",
        "latitude": 36.74961,
        "longitude": -3.02055
    },
    {
        "name": "в Албанию",
        "latitude": 37.28361,
        "longitude": -2.18229
    },
    {
        "name": "Алболодуй",
        "latitude": 0.0,
        "longitude": 0.0
    },
    {
        "name": "Альбокс",
        "latitude": 37.38856,
        "longitude": -2.14949
    },
    {
        "name": "Алколеа",
        "latitude": 36.97458,
        "longitude": -2.9615
    },
    {
        "name": "Считать",
        "latitude": 37.33647,
        "longitude": -2.59725
    },
    {
        "name": "Алькудия де Монтегуд",
        "latitude": 37.23529,
        "longitude": -2.2665
    },
    {
        "name": "Алхабия",
        "latitude": 36.99003,
        "longitude": -2.58655
    },
    {
        "name": "Альхама де Альмерия",
        "latitude": 36.95692,
        "longitude": -2.56861
    },
    {
        "name": "Аликун",
        "latitude": 36.9658,
        "longitude": -2.60212
    },
    {
        "name": "Альмерия",
        "latitude": 37.16667,
        "longitude": -2.33333
    },
    {
        "name": "Альмокит",
        "latitude": 37.00262,
        "longitude": -2.79051
    },
    {
        "name": "Алсодукс",
        "latitude": 37.00247,
        "longitude": -2.59476
    },
    {
        "name": "Уровень",
        "latitude": 37.24536,
        "longitude": -1.9176
    },
    {
        "name": "Деревья",
        "latitude": 37.35024,
        "longitude": -2.07384
    },
    {
        "name": "Армунья де Альмансора",
        "latitude": 37.3503,
        "longitude": -2.4115
    },
    {
        "name": "Бакарес",
        "latitude": 0.0,
        "longitude": 0.0
    },
    {
        "name": "С Баяром",
        "latitude": 37.03073,
        "longitude": -2.99606
    },
    {
        "name": "Баярке",
        "latitude": 37.33062,
        "longitude": -2.4361
    },
    {
        "name": "рационализировать",
        "latitude": 37.19389,
        "longitude": -1.98166
    },
    {
        "name": "Бейреш",
        "latitude": 37.01237,
        "longitude": -2.79134
    },
    {
        "name": "Бенахаду",
        "latitude": 36.92493,
        "longitude": -2.45941
    },
    {
        "name": "Бенитагла",
        "latitude": 37.23138,
        "longitude": -2.23935
    },
    {
        "name": "Бенисалон",
        "latitude": 37.21213,
        "longitude": -2.2418
    },
    {
        "name": "Бентарике",
        "latitude": 36.98823,
        "longitude": -2.61991
    },
    {
        "name": "Бить",
        "latitude": 36.84693,
        "longitude": -2.94966
    },
    {
        "name": "Канхаяр",
        "latitude": 37.00959,
        "longitude": -2.73943
    },
    {
        "name": "Пение",
        "latitude": 37.35146,
        "longitude": -2.19209
    },
    {
        "name": "Карбонерас",
        "latitude": 36.99666,
        "longitude": -1.89651
    },
    {
        "name": "Кастро де Филабрес",
        "latitude": 37.18484,
        "longitude": -2.44024
    },
    {
        "name": "Черкос",
        "latitude": 37.2545,
        "longitude": -2.26657
    },
    {
        "name": "Чиривель",
        "latitude": 37.59527,
        "longitude": -2.26844
    },
    {
        "name": "Кобдар",
        "latitude": 37.26166,
        "longitude": -2.21098
    },
    {
        "name": "Пещеры Альманзора",
        "latitude": 37.29678,
        "longitude": -1.88218
    },
    {
        "name": "Далиас",
        "latitude": 36.82179,
        "longitude": -2.87138
    },
    {
        "name": "Эхидо Эль",
        "latitude": 0.0,
        "longitude": 0.0
    },
    {
        "name": "Эникс",
        "latitude": 36.87732,
        "longitude": -2.6018
    },
    {
        "name": "Феликс",
        "latitude": 0.0,
        "longitude": 0.0
    },
    {
        "name": "Финьяна",
        "latitude": 37.1715,
        "longitude": -2.84011
    },
    {
        "name": "Штрафы",
        "latitude": 37.36074,
        "longitude": -2.2581
    },
    {
        "name": "Фондон",
        "latitude": 36.9802,
        "longitude": -2.85957
    },
    {
        "name": "Гадор",
        "latitude": 36.95322,
        "longitude": -2.49254
    },
    {
        "name": "Галлардос",
        "latitude": 0.0,
        "longitude": 0.0
    },
    {
        "name": "Гарруча",
        "latitude": 37.18141,
        "longitude": -1.82252
    },
    {
        "name": "С Жералем",
        "latitude": 37.11886,
        "longitude": -2.54012
    },
    {
        "name": "Уэсия",
        "latitude": 36.96804,
        "longitude": -2.60941
    },
    {
        "name": "Уэркаль де Альмерия",
        "latitude": 36.88507,
        "longitude": -2.4376
    },
    {
        "name": "Уэркаль-Овера",
        "latitude": 37.38918,
        "longitude": -1.943
    },
    {
        "name": "Побочные эффекты",
        "latitude": 36.98562,
        "longitude": -2.63871
    },
    {
        "name": "Инстинкт",
        "latitude": 36.99344,
        "longitude": -2.66046
    },
    {
        "name": "Ларойя",
        "latitude": 37.29771,
        "longitude": -2.33419
    },
    {
        "name": "Лаухар де Андаракс",
        "latitude": 36.99516,
        "longitude": -2.89033
    },
    {
        "name": "Ложь",
        "latitude": 0.0,
        "longitude": 0.0
    },
    {
        "name": "Любрин",
        "latitude": 37.21538,
        "longitude": -2.06677
    },
    {
        "name": "Лукайнена де лас Торрес",
        "latitude": 37.04037,
        "longitude": -2.20095
    },
    {
        "name": "Люк",
        "latitude": 37.40035,
        "longitude": -2.42496
    },
    {
        "name": "Макаэль",
        "latitude": 37.33318,
        "longitude": -2.30087
    },
    {
        "name": "Мария",
        "latitude": 37.71023,
        "longitude": -2.16454
    },
    {
        "name": "Мохакар",
        "latitude": 37.1402,
        "longitude": -1.85102
    },
    {
        "name": "Мохонера",
        "latitude": 0.0,
        "longitude": 0.0
    },
    {
        "name": "Рождение",
        "latitude": 0.0,
        "longitude": 0.0
    },
    {
        "name": "Нихар",
        "latitude": 36.96655,
        "longitude": -2.20595
    },
    {
        "name": "Оханес",
        "latitude": 37.03861,
        "longitude": -2.74524
    },
    {
        "name": "Олула де Кастро",
        "latitude": 37.17475,
        "longitude": -2.4743
    },
    {
        "name": "Олула-дель-Рио",
        "latitude": 37.35445,
        "longitude": -2.29754
    },
    {
        "name": "Болезнь",
        "latitude": 37.4853,
        "longitude": -2.29292
    },
    {
        "name": "Падули",
        "latitude": 36.99813,
        "longitude": -2.77367
    },
    {
        "name": "Частичный",
        "latitude": 37.40764,
        "longitude": -2.22526
    },
    {
        "name": "Патерна дель Рио",
        "latitude": 37.02222,
        "longitude": -2.95343
    },
    {
        "name": "Четвертый",
        "latitude": 0.0,
        "longitude": 0.0
    },
    {
        "name": "Пульпи",
        "latitude": 37.41154,
        "longitude": -1.74496
    },
    {
        "name": "Пурчена",
        "latitude": 37.34744,
        "longitude": -2.3608
    },
    {
        "name": "Он жует",
        "latitude": 36.99523,
        "longitude": -2.68178
    },
    {
        "name": "Риоха",
        "latitude": 36.94508,
        "longitude": -2.46302
    },
    {
        "name": "Морские скалы",
        "latitude": 36.76419,
        "longitude": -2.61475
    },
    {
        "name": "Санта-Крус-де-Марчена",
        "latitude": 0.0,
        "longitude": 0.0
    },
    {
        "name": "Санта-Фе-де-Мондухар",
        "latitude": 36.97479,
        "longitude": -2.53126
    },
    {
        "name": "Сенес",
        "latitude": 0.0,
        "longitude": 0.0
    },
    {
        "name": "Паннье",
        "latitude": 37.34485,
        "longitude": -2.50913
    },
    {
        "name": "Сьерра",
        "latitude": 37.32237,
        "longitude": -2.39844
    },
    {
        "name": "Сомонтин",
        "latitude": 37.39176,
        "longitude": -2.38828
    },
    {
        "name": "поглощает",
        "latitude": 37.09761,
        "longitude": -2.12349
    },
    {
        "name": "Суффили",
        "latitude": 37.33866,
        "longitude": -2.38817
    },
    {
        "name": "Таверны",
        "latitude": 37.04992,
        "longitude": -2.39084
    },
    {
        "name": "Таберно",
        "latitude": 0.0,
        "longitude": 0.0
    },
    {
        "name": "Он вытащил",
        "latitude": 37.22797,
        "longitude": -2.2847
    },
    {
        "name": "И три",
        "latitude": 36.98393,
        "longitude": -2.59679
    },
    {
        "name": "Тихола",
        "latitude": 37.34606,
        "longitude": -2.43326
    },
    {
        "name": "Три Виллы",
        "latitude": 0.0,
        "longitude": 0.0
    },
    {
        "name": "Турре",
        "latitude": 37.15224,
        "longitude": -1.89497
    },
    {
        "name": "Туррильяс",
        "latitude": 37.02948,
        "longitude": -2.26607
    },
    {
        "name": "Улейла дель Кампо",
        "latitude": 37.1846,
        "longitude": -2.20491
    },
    {
        "name": "Урракал",
        "latitude": 37.3974,
        "longitude": -2.36485
    },
    {
        "name": "Плыть",
        "latitude": 37.19407,
        "longitude": -2.40155
    },
    {
        "name": "Велес-Бланко",
        "latitude": 37.69178,
        "longitude": -2.09587
    },
    {
        "name": "Велес-Рубио",
        "latitude": 0.0,
        "longitude": 0.0
    },
    {
        "name": "Вера",
        "latitude": 37.24345,
        "longitude": -1.85905
    },
    {
        "name": "Виатор",
        "latitude": 36.89006,
        "longitude": -2.42695
    },
    {
        "name": "викарий",
        "latitude": 36.83155,
        "longitude": -2.64273
    },
    {
        "name": "Зургена",
        "latitude": 37.34218,
        "longitude": -2.03985
    },
    {
        "name": "Алегрия-Дуланци",
        "latitude": 0.0,
        "longitude": 0.0
    },
    {
        "name": "Амуррио",
        "latitude": 43.05,
        "longitude": -3.0
    },
    {
        "name": "Анана",
        "latitude": 0.0,
        "longitude": 0.0
    },
    {
        "name": "арамейский",
        "latitude": 0.0,
        "longitude": 0.0
    },
    {
        "name": "Арминон",
        "latitude": 42.72313,
        "longitude": -2.87172
    },
    {
        "name": "Аррайя-Маэзту",
        "latitude": 0.0,
        "longitude": 0.0
    },
    {
        "name": "Раззуа-Убаррундиа",
        "latitude": 0.0,
        "longitude": 0.0
    },
    {
        "name": "Арциньега",
        "latitude": 0.0,
        "longitude": 0.0
    },
    {
        "name": "самый грубый",
        "latitude": 0.0,
        "longitude": 0.0
    },
    {
        "name": "Аяла/Айара",
        "latitude": 0.0,
        "longitude": 0.0
    },
    {
        "name": "Ванны Эбро/Маньуэта",
        "latitude": 0.0,
        "longitude": 0.0
    },
    {
        "name": "Интерьер",
        "latitude": 0.0,
        "longitude": 0.0
    },
    {
        "name": "Поздняя вилла",
        "latitude": 42.68254,
        "longitude": -2.85832
    },
    {
        "name": "Бернед",
        "latitude": 0.0,
        "longitude": 0.0
    },
    {
        "name": "Кампесо",
        "latitude": 0.0,
        "longitude": 0.0
    },
    {
        "name": "Эльбурго/Бургелу",
        "latitude": 0.0,
        "longitude": 0.0
    },
    {
        "name": "Эльчи",
        "latitude": 42.51569,
        "longitude": -2.61897
    },
    {
        "name": "Электрические виллы/Автомобили",
        "latitude": 0.0,
        "longitude": 0.0
    },
    {
        "name": "Риберагоития/Рибера-Альта",
        "latitude": 0.0,
        "longitude": 0.0
    },
    {
        "name": "Харана/Долина Арана",
        "latitude": 0.0,
        "longitude": 0.0
    },
    {
        "name": "Ирунья Ока/Ирунья де Ока",
        "latitude": 0.0,
        "longitude": 0.0
    },
    {
        "name": "Ируаиз-Гауна",
        "latitude": 0.0,
        "longitude": 0.0
    },
    {
        "name": "Крипан",
        "latitude": 0.0,
        "longitude": 0.0
    },
    {
        "name": "Квартано",
        "latitude": 0.0,
        "longitude": 0.0
    },
    {
        "name": "Лабастида/Бастида",
        "latitude": 0.0,
        "longitude": 0.0
    },
    {
        "name": "Великий",
        "latitude": 42.62625,
        "longitude": -2.58385
    },
    {
        "name": "Лагуардия",
        "latitude": 42.55461,
        "longitude": -2.58528
    },
    {
        "name": "Лансьего/Ланциего",
        "latitude": 0.0,
        "longitude": 0.0
    },
    {
        "name": "Лантарон",
        "latitude": 0.0,
        "longitude": 0.0
    },
    {
        "name": "Лапуэбла-де-Лабарка",
        "latitude": 42.49455,
        "longitude": -2.57341
    },
    {
        "name": "Лаудио/Ллодио",
        "latitude": 0.0,
        "longitude": 0.0
    },
    {
        "name": "Легуцио",
        "latitude": 0.0,
        "longitude": 0.0
    },
    {
        "name": "Скорость",
        "latitude": 42.56552,
        "longitude": -2.63324
    },
    {
        "name": "Мореда-де-Алава/Мореда-Араба",
        "latitude": 0.0,
        "longitude": 0.0
    },
    {
        "name": "Наваридас",
        "latitude": 42.54566,
        "longitude": -2.6265
    },
    {
        "name": "Окондо",
        "latitude": 0.0,
        "longitude": 0.0
    },
    {
        "name": "Ойон-Ойон",
        "latitude": 0.0,
        "longitude": 0.0
    },
    {
        "name": "Пеньясеррада-Урисахарра",
        "latitude": 0.0,
        "longitude": 0.0
    },
    {
        "name": "Рибера Баха/Ррибера Бейтиа",
        "latitude": 0.0,
        "longitude": 0.0
    },
    {
        "name": "Сальватьерра/Агуарайн",
        "latitude": 0.0,
        "longitude": 0.0
    },
    {
        "name": "Саманиего",
        "latitude": 42.56854,
        "longitude": -2.67974
    },
    {
        "name": "Сент-Миллс/Донемилиага",
        "latitude": 0.0,
        "longitude": 0.0
    },
    {
        "name": "повесив",
        "latitude": 0.0,
        "longitude": 0.0
    },
    {
        "name": "Вальдеговиа/Гаубеа",
        "latitude": 0.0,
        "longitude": 0.0
    },
    {
        "name": "Вильябуэна-де-Алава/Эскуэрнага",
        "latitude": 0.0,
        "longitude": 0.0
    },
    {
        "name": "Витория-Гастейс",
        "latitude": 0.0,
        "longitude": 0.0
    },
    {
        "name": "Йекора/Иекора",
        "latitude": 0.0,
        "longitude": 0.0
    },
    {
        "name": "рыцарский",
        "latitude": 0.0,
        "longitude": 0.0
    },
    {
        "name": "Замбрана",
        "latitude": 42.66102,
        "longitude": -2.87909
    },
    {
        "name": "зигота",
        "latitude": 0.0,
        "longitude": 0.0
    },
    {
        "name": "Заблокируй это",
        "latitude": 0.0,
        "longitude": 0.0
    },
    {
        "name": "прочь",
        "latitude": 0.0,
        "longitude": 0.0
    },
    {
        "name": "Идти",
        "latitude": 0.0,
        "longitude": 0.0
    },
    {
        "name": "Амиева",
        "latitude": 0.0,
        "longitude": 0.0
    },
    {
        "name": "Авилес",
        "latitude": 0.0,
        "longitude": 0.0
    },
    {
        "name": "Бельмонте де Миранда",
        "latitude": 0.0,
        "longitude": 0.0
    },
    {
        "name": "Бимены",
        "latitude": 0.0,
        "longitude": 0.0
    },
    {
        "name": "Боал",
        "latitude": 0.0,
        "longitude": 0.0
    },
    {
        "name": "Кабралес",
        "latitude": 0.0,
        "longitude": 0.0
    },
    {
        "name": "Кабран",
        "latitude": 0.0,
        "longitude": 0.0
    },
    {
        "name": "Кандамо",
        "latitude": 0.0,
        "longitude": 0.0
    },
    {
        "name": "Кангас-де-Онис",
        "latitude": 0.0,
        "longitude": 0.0
    },
    {
        "name": "Кангас-дель-Нарсеа",
        "latitude": 0.0,
        "longitude": 0.0
    },
    {
        "name": "Каравиа",
        "latitude": 0.0,
        "longitude": 0.0
    },
    {
        "name": "Каррено",
        "latitude": 0.0,
        "longitude": 0.0
    },
    {
        "name": "Случай",
        "latitude": 0.0,
        "longitude": 0.0
    },
    {
        "name": "Кастрильон",
        "latitude": 0.0,
        "longitude": 0.0
    },
    {
        "name": "Кастрополь",
        "latitude": 0.0,
        "longitude": 0.0
    },
    {
        "name": "Коана",
        "latitude": 0.0,
        "longitude": 0.0
    },
    {
        "name": "Колунга",
        "latitude": 0.0,
        "longitude": 0.0
    },
    {
        "name": "Корвера Астурийская",
        "latitude": 0.0,
        "longitude": 0.0
    },
    {
        "name": "Кудильеро",
        "latitude": 0.0,
        "longitude": 0.0
    },
    {
        "name": "Деганья",
        "latitude": 0.0,
        "longitude": 0.0
    },
    {
        "name": "Франко",
        "latitude": 0.0,
        "longitude": 0.0
    },
    {
        "name": "Хихон",
        "latitude": 0.0,
        "longitude": 0.0
    },
    {
        "name": "Госон",
        "latitude": 0.0,
        "longitude": 0.0
    },
    {
        "name": "Оценка",
        "latitude": 0.0,
        "longitude": 0.0
    },
    {
        "name": "Грандас де Салиме",
        "latitude": 0.0,
        "longitude": 0.0
    },
    {
        "name": "я собирался",
        "latitude": 0.0,
        "longitude": 0.0
    },
    {
        "name": "Иллано",
        "latitude": 0.0,
        "longitude": 0.0
    },
    {
        "name": "острова",
        "latitude": 0.0,
        "longitude": 0.0
    },
    {
        "name": "Лангрео",
        "latitude": 0.0,
        "longitude": 0.0
    },
    {
        "name": "Лавиана",
        "latitude": 0.0,
        "longitude": 0.0
    },
    {
        "name": "Лена",
        "latitude": 0.0,
        "longitude": 0.0
    },
    {
        "name": "Лланера",
        "latitude": 0.0,
        "longitude": 0.0
    },
    {
        "name": "Льянес",
        "latitude": 0.0,
        "longitude": 0.0
    },
    {
        "name": "Морсин",
        "latitude": 0.0,
        "longitude": 0.0
    },
    {
        "name": "Стены Налона",
        "latitude": 0.0,
        "longitude": 0.0
    },
    {
        "name": "Нава",
        "latitude": 0.0,
        "longitude": 0.0
    },
    {
        "name": "корабль",
        "latitude": 0.0,
        "longitude": 0.0
    },
    {
        "name": "Норенья",
        "latitude": 0.0,
        "longitude": 0.0
    },
    {
        "name": "Онис",
        "latitude": 0.0,
        "longitude": 0.0
    },
    {
        "name": "Овьедо",
        "latitude": 0.0,
        "longitude": 0.0
    },
    {
        "name": "Парный",
        "latitude": 0.0,
        "longitude": 0.0
    },
    {
        "name": "Пеньямеллера Альта",
        "latitude": 0.0,
        "longitude": 0.0
    },
    {
        "name": "Пеньямеллера Баха",
        "latitude": 0.0,
        "longitude": 0.0
    },
    {
        "name": "Песос",
        "latitude": 0.0,
        "longitude": 0.0
    },
    {
        "name": "Пилонья",
        "latitude": 0.0,
        "longitude": 0.0
    },
    {
        "name": "помещать",
        "latitude": 0.0,
        "longitude": 0.0
    },
    {
        "name": "Правия",
        "latitude": 0.0,
        "longitude": 0.0
    },
    {
        "name": "Проза",
        "latitude": 0.0,
        "longitude": 0.0
    },
    {
        "name": "Кирос",
        "latitude": 0.0,
        "longitude": 0.0
    },
    {
        "name": "Канавы",
        "latitude": 0.0,
        "longitude": 0.0
    },
    {
        "name": "Рибадедева",
        "latitude": 0.0,
        "longitude": 0.0
    },
    {
        "name": "Рибадеселья",
        "latitude": 0.0,
        "longitude": 0.0
    },
    {
        "name": "Рибера де Арриба",
        "latitude": 0.0,
        "longitude": 0.0
    },
    {
        "name": "Риоза",
        "latitude": 0.0,
        "longitude": 0.0
    },
    {
        "name": "Салас",
        "latitude": 0.0,
        "longitude": 0.0
    },
    {
        "name": "Сан-Мартин-де-Оскос",
        "latitude": 0.0,
        "longitude": 0.0
    },
    {
        "name": "Сан-Мартин-дель-Рей Аурелио",
        "latitude": 0.0,
        "longitude": 0.0
    },
    {
        "name": "Сан-Тирсо-де-Абрес",
        "latitude": 0.0,
        "longitude": 0.0
    },
    {
        "name": "Святая Евлалия Оскосская",
        "latitude": 0.0,
        "longitude": 0.0
    },
    {
        "name": "Святой Адриан",
        "latitude": 0.0,
        "longitude": 0.0
    },
    {
        "name": "Сарьего",
        "latitude": 0.0,
        "longitude": 0.0
    },
    {
        "name": "сыворотка",
        "latitude": 0.0,
        "longitude": 0.0
    },
    {
        "name": "переоценка",
        "latitude": 0.0,
        "longitude": 0.0
    },
    {
        "name": "Страх",
        "latitude": 0.0,
        "longitude": 0.0
    },
    {
        "name": "Сото-дель-Барко",
        "latitude": 0.0,
        "longitude": 0.0
    },
    {
        "name": "Тапиа де Касарьего",
        "latitude": 0.0,
        "longitude": 0.0
    },
    {
        "name": "Тарамунди",
        "latitude": 0.0,
        "longitude": 0.0
    },
    {
        "name": "Теверга",
        "latitude": 0.0,
        "longitude": 0.0
    },
    {
        "name": "Тинео",
        "latitude": 0.0,
        "longitude": 0.0
    },
    {
        "name": "Вальдес",
        "latitude": 0.0,
        "longitude": 0.0
    },
    {
        "name": "Растительность",
        "latitude": 0.0,
        "longitude": 0.0
    },
    {
        "name": "Вильянуэва-де-Оскос",
        "latitude": 0.0,
        "longitude": 0.0
    },
    {
        "name": "Вильявисьоза",
        "latitude": 0.0,
        "longitude": 0.0
    },
    {
        "name": "На Вильяйо",
        "latitude": 0.0,
        "longitude": 0.0
    },
    {
        "name": "Йернес и Тамеза",
        "latitude": 0.0,
        "longitude": 0.0
    },
    {
        "name": "Аданеро",
        "latitude": 40.94487,
        "longitude": -4.60561
    },
    {
        "name": "Адрада Ла",
        "latitude": 0.0,
        "longitude": 0.0
    },
    {
        "name": "Халаты",
        "latitude": 40.83795,
        "longitude": -4.88129
    },
    {
        "name": "Альдеануэва-де-Санта-Крус",
        "latitude": 40.38189,
        "longitude": -5.42142
    },
    {
        "name": "Альдеасека",
        "latitude": 41.04912,
        "longitude": -4.81707
    },
    {
        "name": "Альдеуэла Ла",
        "latitude": 0.0,
        "longitude": 0.0
    },
    {
        "name": "Проблемы",
        "latitude": 40.57371,
        "longitude": -5.06541
    },
    {
        "name": "Ареналь",
        "latitude": 0.0,
        "longitude": 0.0
    },
    {
        "name": "Пески Сан-Педро",
        "latitude": 40.21041,
        "longitude": -5.08694
    },
    {
        "name": "Аревалило",
        "latitude": 0.0,
        "longitude": 0.0
    },
    {
        "name": "Аревало",
        "latitude": 41.06255,
        "longitude": -4.72042
    },
    {
        "name": "Авенте",
        "latitude": 40.78227,
        "longitude": -4.83649
    },
    {
        "name": "Авельянеда",
        "latitude": 40.38909,
        "longitude": -5.38811
    },
    {
        "name": "Авила",
        "latitude": 40.65724,
        "longitude": -4.69951
    },
    {
        "name": "Авила Корабль",
        "latitude": 0.0,
        "longitude": 0.0
    },
    {
        "name": "Баррако Эль",
        "latitude": 0.0,
        "longitude": 0.0
    },
    {
        "name": "Барроман",
        "latitude": 41.06536,
        "longitude": -4.93066
    },
    {
        "name": "Беджед",
        "latitude": 40.40369,
        "longitude": -5.63577
    },
    {
        "name": "Беседильяс",
        "latitude": 40.53821,
        "longitude": -5.32561
    },
    {
        "name": "Берсиаль де Сапардиэль",
        "latitude": 41.04675,
        "longitude": -4.9691
    },
    {
        "name": "Берланас",
        "latitude": 0.0,
        "longitude": 0.0
    },
    {
        "name": "Bernuy-Zapardiel",
        "latitude": 0.0,
        "longitude": 0.0
    },
    {
        "name": "Беррокалехо Арагонский",
        "latitude": 40.69436,
        "longitude": -4.59474
    },
    {
        "name": "Бласкомиллан",
        "latitude": 40.80146,
        "longitude": -5.08703
    },
    {
        "name": "Бласконуньо-де-Матакабрас",
        "latitude": 0.0,
        "longitude": 0.0
    },
    {
        "name": "Бласкосанчо",
        "latitude": 40.87744,
        "longitude": -4.63743
    },
    {
        "name": "Боходон",
        "latitude": 0.0,
        "longitude": 0.0
    },
    {
        "name": "Бохойо",
        "latitude": 40.31584,
        "longitude": -5.44294
    },
    {
        "name": "Бонилья де ла Сьерра",
        "latitude": 40.53063,
        "longitude": -5.26452
    },
    {
        "name": "Брабос",
        "latitude": 40.77846,
        "longitude": -4.93934
    },
    {
        "name": "грудь",
        "latitude": 0.0,
        "longitude": 0.0
    },
    {
        "name": "Бургохондо",
        "latitude": 40.41416,
        "longitude": -4.78509
    },
    {
        "name": "Проволочные головки",
        "latitude": 40.94218,
        "longitude": -4.84184
    },
    {
        "name": "устьевые устройства",
        "latitude": 41.00139,
        "longitude": -4.95453
    },
    {
        "name": "Вильяр головы",
        "latitude": 40.71557,
        "longitude": -5.20956
    },
    {
        "name": "Кабизуэла",
        "latitude": 40.9009,
        "longitude": -4.80212
    },
    {
        "name": "Каналес",
        "latitude": 41.00331,
        "longitude": -4.90163
    },
    {
        "name": "Канделеда",
        "latitude": 40.15521,
        "longitude": -5.24045
    },
    {
        "name": "Кантиверос",
        "latitude": 40.95215,
        "longitude": -4.95455
    },
    {
        "name": "Карденьоса",
        "latitude": 40.7424,
        "longitude": -4.74579
    },
    {
        "name": "Карьера",
        "latitude": 0.0,
        "longitude": 0.0
    },
    {
        "name": "Портовые дома",
        "latitude": 0.0,
        "longitude": 0.0
    },
    {
        "name": "Одиночный дом",
        "latitude": 0.0,
        "longitude": 0.0
    },
    {
        "name": "Касавьеха",
        "latitude": 40.28325,
        "longitude": -4.7667
    },
    {
        "name": "Касильяс",
        "latitude": 40.3261,
        "longitude": -4.57182
    },
    {
        "name": "Кастелланос из Сапардиэля",
        "latitude": 41.0845,
        "longitude": -4.90984
    },
    {
        "name": "Себрерос",
        "latitude": 40.45835,
        "longitude": -4.46433
    },
    {
        "name": "Сепеда ла Мора",
        "latitude": 40.4578,
        "longitude": -5.04833
    },
    {
        "name": "Чамартен",
        "latitude": 40.70267,
        "longitude": -4.95769
    },
    {
        "name": "Чамартен",
        "latitude": 40.46206,
        "longitude": -3.6766
    },
    {
        "name": "Силла",
        "latitude": 40.70675,
        "longitude": -4.98135
    },
    {
        "name": "Числа",
        "latitude": 40.96662,
        "longitude": -5.01405
    },
    {
        "name": "Попка",
        "latitude": 0.0,
        "longitude": 0.0
    },
    {
        "name": "Контрерас Хилл",
        "latitude": 40.88743,
        "longitude": -4.9314
    },
    {
        "name": "Кольядо дель Мирон",
        "latitude": 40.55307,
        "longitude": -5.35398
    },
    {
        "name": "Констанция",
        "latitude": 40.93821,
        "longitude": -4.87515
    },
    {
        "name": "Кудрявый",
        "latitude": 40.87128,
        "longitude": -4.97094
    },
    {
        "name": "Пещеры долины",
        "latitude": 40.29418,
        "longitude": -5.00938
    },
    {
        "name": "Диего дель Карпио",
        "latitude": 0.0,
        "longitude": 0.0
    },
    {
        "name": "Под",
        "latitude": 40.95978,
        "longitude": -4.84627
    },
    {
        "name": "Донвидас",
        "latitude": 41.08954,
        "longitude": -4.80634
    },
    {
        "name": "Спиноза рыцарей",
        "latitude": 0.0,
        "longitude": 0.0
    },
    {
        "name": "Цветы Авилы",
        "latitude": 40.93358,
        "longitude": -5.07914
    },
    {
        "name": "Фонтиверос",
        "latitude": 40.92997,
        "longitude": -4.96445
    },
    {
        "name": "Френедилья",
        "latitude": 40.23233,
        "longitude": -4.62201
    },
    {
        "name": "Фресно",
        "latitude": 0.0,
        "longitude": 0.0
    },
    {
        "name": "Фонтан Эль-Сауз",
        "latitude": 0.0,
        "longitude": 0.0
    },
    {
        "name": "Источники года",
        "latitude": 41.01769,
        "longitude": -4.89907
    },
    {
        "name": "Галичане Альтамироса",
        "latitude": 0.0,
        "longitude": 0.0
    },
    {
        "name": "Гальегос де Собринос",
        "latitude": 40.71693,
        "longitude": -5.11224
    },
    {
        "name": "Ущелье Виллар",
        "latitude": 40.44965,
        "longitude": -5.1042
    },
    {
        "name": "перепелятники",
        "latitude": 40.27791,
        "longitude": -4.85321
    },
    {
        "name": "стон",
        "latitude": 40.59159,
        "longitude": -4.78178
    },
    {
        "name": "Хил Гарсия",
        "latitude": 0.0,
        "longitude": 0.0
    },
    {
        "name": "Гильбуэна",
        "latitude": 0.0,
        "longitude": 0.0
    },
    {
        "name": "Гимиалкон",
        "latitude": 40.87705,
        "longitude": -5.12308
    },
    {
        "name": "Готаррендура",
        "latitude": 40.82652,
        "longitude": -4.7409
    },
    {
        "name": "Великий и Сен-Мартен",
        "latitude": 0.0,
        "longitude": 0.0
    },
    {
        "name": "Тушение",
        "latitude": 40.22225,
        "longitude": -5.1395
    },
    {
        "name": "Гутьерре-Муньос",
        "latitude": 40.98295,
        "longitude": -4.63839
    },
    {
        "name": "Эрнансанчо",
        "latitude": 40.85753,
        "longitude": -4.73045
    },
    {
        "name": "Эррадон-де-Пинарес",
        "latitude": 0.0,
        "longitude": 0.0
    },
    {
        "name": "Кузнецы Сусо",
        "latitude": 40.80361,
        "longitude": -5.03892
    },
    {
        "name": "Фиговое дерево Дуэньяс",
        "latitude": 40.23903,
        "longitude": -4.60361
    },
    {
        "name": "Дочь Бога",
        "latitude": 0.0,
        "longitude": 0.0
    },
    {
        "name": "верхом на",
        "latitude": 0.0,
        "longitude": 0.0
    },
    {
        "name": "Оркахо де лас Торрес",
        "latitude": 41.06497,
        "longitude": -5.09092
    },
    {
        "name": "Печь",
        "latitude": 0.0,
        "longitude": 0.0
    },
    {
        "name": "Пинарес-Хоул",
        "latitude": 0.0,
        "longitude": 0.0
    },
    {
        "name": "ГлавнаяДом",
        "latitude": 40.3989,
        "longitude": -4.97455
    },
    {
        "name": "Ойорредондо",
        "latitude": 40.4627,
        "longitude": -5.41097
    },
    {
        "name": "Дырки от Мигеля Муньоса",
        "latitude": 40.39237,
        "longitude": -5.06713
    },
    {
        "name": "Колладо дыры",
        "latitude": 40.35945,
        "longitude": -5.20027
    },
    {
        "name": "Боярышник Отверстия",
        "latitude": 40.35623,
        "longitude": -5.17505
    },
    {
        "name": "Хуртумпаскуаль",
        "latitude": 40.692,
        "longitude": -5.11379
    },
    {
        "name": "Джунсиана",
        "latitude": 40.41076,
        "longitude": -5.55698
    },
    {
        "name": "Ланга",
        "latitude": 41.0055,
        "longitude": -4.85946
    },
    {
        "name": "Ланца хеттский",
        "latitude": 0.0,
        "longitude": 0.0
    },
    {
        "name": "Льянос де Тормес Лос",
        "latitude": 0.0,
        "longitude": 0.0
    },
    {
        "name": "Лосар-дель-Барко Эль",
        "latitude": 0.0,
        "longitude": 0.0
    },
    {
        "name": "Мадригал Высоких Башен",
        "latitude": 41.08968,
        "longitude": -4.99863
    },
    {
        "name": "Маэлло",
        "latitude": 40.80929,
        "longitude": -4.51186
    },
    {
        "name": "Мальпартида де Корнеха",
        "latitude": 40.52208,
        "longitude": -5.35026
    },
    {
        "name": "Мамблас",
        "latitude": 41.01925,
        "longitude": -5.00873
    },
    {
        "name": "Мансера сверху",
        "latitude": 40.79139,
        "longitude": -5.14772
    },
    {
        "name": "Манхабалаго",
        "latitude": 40.66441,
        "longitude": -5.07719
    },
    {
        "name": "Марлин",
        "latitude": 0.0,
        "longitude": 0.0
    },
    {
        "name": "Мартиэрреро",
        "latitude": 40.67392,
        "longitude": -4.78156
    },
    {
        "name": "Мартинес",
        "latitude": 40.63046,
        "longitude": -5.34801
    },
    {
        "name": "медиана Вольтоя",
        "latitude": 40.70104,
        "longitude": -4.56341
    },
    {
        "name": "Мединилья",
        "latitude": 40.43967,
        "longitude": -5.61772
    },
    {
        "name": "Менгамуньос",
        "latitude": 40.50006,
        "longitude": -4.99983
    },
    {
        "name": "Месегар-де-Корнеха",
        "latitude": 40.50209,
        "longitude": -5.30131
    },
    {
        "name": "Михарес",
        "latitude": 40.29655,
        "longitude": -4.83651
    },
    {
        "name": "Мингорриа",
        "latitude": 40.75192,
        "longitude": -4.66583
    },
    {
        "name": "Подглядывающий Том",
        "latitude": 0.0,
        "longitude": 0.0
    },
    {
        "name": "Мирончилло",
        "latitude": 40.55435,
        "longitude": -4.82449
    },
    {
        "name": "Мируэнья из инфанзон",
        "latitude": 0.0,
        "longitude": 0.0
    },
    {
        "name": "Момбельтран",
        "latitude": 40.25987,
        "longitude": -5.01749
    },
    {
        "name": "Монсалупе",
        "latitude": 40.76953,
        "longitude": -4.78131
    },
    {
        "name": "Моралеха-де-Матакабрас",
        "latitude": 41.10732,
        "longitude": -4.95717
    },
    {
        "name": "Любовь",
        "latitude": 40.59042,
        "longitude": -5.01447
    },
    {
        "name": "Муньико",
        "latitude": 40.70678,
        "longitude": -5.02717
    },
    {
        "name": "Муньогалиндо",
        "latitude": 40.60324,
        "longitude": -4.89895
    },
    {
        "name": "Муньогранде",
        "latitude": 40.82181,
        "longitude": -4.92223
    },
    {
        "name": "Муньомер дель Пеко",
        "latitude": 40.85878,
        "longitude": -4.87992
    },
    {
        "name": "Муньопепе",
        "latitude": 40.63408,
        "longitude": -4.81876
    },
    {
        "name": "Муньосанчо",
        "latitude": 40.92097,
        "longitude": -5.03559
    },
    {
        "name": "Муньотелло",
        "latitude": 40.54236,
        "longitude": -5.04187
    },
    {
        "name": "Наррильос дель Аламо",
        "latitude": 40.56673,
        "longitude": -5.46584
    },
    {
        "name": "Наррильос дель Реболлар",
        "latitude": 40.66488,
        "longitude": -4.96577
    },
    {
        "name": "Наррос де Салдуэнья",
        "latitude": 40.87268,
        "longitude": -4.86909
    },
    {
        "name": "Наррос дель Кастильо",
        "latitude": 40.85869,
        "longitude": -5.0601
    },
    {
        "name": "Наррос-дель-Пуэрто",
        "latitude": 40.54131,
        "longitude": -4.99291
    },
    {
        "name": "Нава де Аревало",
        "latitude": 40.97803,
        "longitude": -4.77573
    },
    {
        "name": "Нава дель Барко",
        "latitude": 40.29321,
        "longitude": -5.54022
    },
    {
        "name": "Корнеха Навасепедилья",
        "latitude": 40.48602,
        "longitude": -5.1838
    },
    {
        "name": "Навадия",
        "latitude": 40.42524,
        "longitude": -5.08285
    },
    {
        "name": "Наваэскуриал",
        "latitude": 40.47163,
        "longitude": -5.27756
    },
    {
        "name": "Наваондилья",
        "latitude": 40.3251,
        "longitude": -4.49661
    },
    {
        "name": "Навалакруз",
        "latitude": 40.43993,
        "longitude": -4.93122
    },
    {
        "name": "Морской",
        "latitude": 40.46028,
        "longitude": -4.76859
    },
    {
        "name": "Навалонгилья",
        "latitude": 0.0,
        "longitude": 0.0
    },
    {
        "name": "Navalosa",
        "latitude": 40.40212,
        "longitude": -4.92999
    },
    {
        "name": "Навальпераль де Пинарес",
        "latitude": 40.59398,
        "longitude": -4.41149
    },
    {
        "name": "Верфь Тормес",
        "latitude": 40.3528,
        "longitude": -5.30084
    },
    {
        "name": "Навалуэнга",
        "latitude": 40.41123,
        "longitude": -4.70897
    },
    {
        "name": "Навакесера",
        "latitude": 40.42558,
        "longitude": -4.91108
    },
    {
        "name": "Наварредонда-де-Гредос",
        "latitude": 40.36136,
        "longitude": -5.13268
    },
    {
        "name": "Наварредондилья",
        "latitude": 40.45416,
        "longitude": -4.82199
    },
    {
        "name": "Наварра",
        "latitude": 40.36417,
        "longitude": -4.89352
    },
    {
        "name": "Навас дель Маркес Лас",
        "latitude": 0.0,
        "longitude": 0.0
    },
    {
        "name": "Наватальгордо",
        "latitude": 40.4152,
        "longitude": -4.87155
    },
    {
        "name": "Наватехарес",
        "latitude": 40.33602,
        "longitude": -5.5322
    },
    {
        "name": "Нила из Сан-Мигеля",
        "latitude": 40.42372,
        "longitude": -5.6509
    },
    {
        "name": "Нихарра",
        "latitude": 40.58945,
        "longitude": -4.83895
    },
    {
        "name": "Белоглазые",
        "latitude": 40.70596,
        "longitude": -4.51633
    },
    {
        "name": "Орбита",
        "latitude": 40.99846,
        "longitude": -4.64833
    },
    {
        "name": "Медведь",
        "latitude": 0.0,
        "longitude": 0.0
    },
    {
        "name": "Падиернос",
        "latitude": 40.62168,
        "longitude": -4.84523
    },
    {
        "name": "Адая Хейстакс",
        "latitude": 40.92398,
        "longitude": -4.64048
    },
    {
        "name": "Дворцы Года",
        "latitude": 41.11798,
        "longitude": -4.78496
    },
    {
        "name": "патернализация",
        "latitude": 40.8679,
        "longitude": -4.83399
    },
    {
        "name": "Парраль",
        "latitude": 0.0,
        "longitude": 0.0
    },
    {
        "name": "Паскуалькобо",
        "latitude": 0.0,
        "longitude": 0.0
    },
    {
        "name": "Педро Бернардо",
        "latitude": 40.24214,
        "longitude": -4.90963
    },
    {
        "name": "Питер-Родригес",
        "latitude": 0.0,
        "longitude": 0.0
    },
    {
        "name": "Пегерино",
        "latitude": 40.6262,
        "longitude": -4.23154
    },
    {
        "name": "Пеньяльба-де-Авила",
        "latitude": 40.77266,
        "longitude": -4.74595
    },
    {
        "name": "Пьедраита",
        "latitude": 0.0,
        "longitude": 0.0
    },
    {
        "name": "Пьедралавес",
        "latitude": 40.31721,
        "longitude": -4.70025
    },
    {
        "name": "Поведа",
        "latitude": 40.56799,
        "longitude": -5.07909
    },
    {
        "name": "Пойалес-дель-Ойо",
        "latitude": 40.17254,
        "longitude": -5.16597
    },
    {
        "name": "Позанс",
        "latitude": 40.80095,
        "longitude": -4.66772
    },
    {
        "name": "Прадосегар",
        "latitude": 40.5502,
        "longitude": -5.07015
    },
    {
        "name": "Пуэрто-Кастилия",
        "latitude": 40.288,
        "longitude": -5.62366
    },
    {
        "name": "Расуэрос",
        "latitude": 41.02344,
        "longitude": -5.07377
    },
    {
        "name": "Риокабадо",
        "latitude": 0.0,
        "longitude": 0.0
    },
    {
        "name": "Холодная река",
        "latitude": 0.0,
        "longitude": 0.0
    },
    {
        "name": "Ривилла де Барахас",
        "latitude": 40.9021,
        "longitude": -4.98836
    },
    {
        "name": "Салобрал",
        "latitude": 40.61179,
        "longitude": -4.81013
    },
    {
        "name": "Бог хранитель",
        "latitude": 40.87836,
        "longitude": -5.09629
    },
    {
        "name": "Сан-Бартоломе-де-Бехар",
        "latitude": 40.40783,
        "longitude": -5.66261
    },
    {
        "name": "Сан-Бартоломе-де-Корнеха",
        "latitude": 40.49257,
        "longitude": -5.38519
    },
    {
        "name": "Сан-Бартоломе-де-Пинарес",
        "latitude": 0.0,
        "longitude": 0.0
    },
    {
        "name": "Святой Стефан Утиный",
        "latitude": 40.74705,
        "longitude": -4.62413
    },
    {
        "name": "Святой Стефан Сапардиэльский",
        "latitude": 0.0,
        "longitude": 0.0
    },
    {
        "name": "Сан-Эстебан-дель-Валле",
        "latitude": 40.2751,
        "longitude": -4.98215
    },
    {
        "name": "Сан-Гарсия-де-Ингельмос",
        "latitude": 40.76912,
        "longitude": -5.11523
    },
    {
        "name": "Сан-Хуан-де-Гредос",
        "latitude": 0.0,
        "longitude": 0.0
    },
    {
        "name": "Сан-Хуан-де-ла-Энсинилья",
        "latitude": 40.8302,
        "longitude": -4.83957
    },
    {
        "name": "Сан-Хуан-де-ла-Нава",
        "latitude": 40.4788,
        "longitude": -4.68238
    },
    {
        "name": "Сан-Хуан-дель-Молинильо",
        "latitude": 40.45909,
        "longitude": -4.81711
    },
    {
        "name": "Сан-Хуан-дель-Ольмо",
        "latitude": 0.0,
        "longitude": 0.0
    },
    {
        "name": "Сан-Лоренцо-де-Тормес",
        "latitude": 40.36984,
        "longitude": -5.48848
    },
    {
        "name": "Сан-Мартин-де-ла-Вега-дель-Альберче",
        "latitude": 40.43053,
        "longitude": -5.155
    },
    {
        "name": "Сан-Мартин-дель-Пимпольяр",
        "latitude": 40.3683,
        "longitude": -5.05443
    },
    {
        "name": "Сан-Мигель-де-Корнеха",
        "latitude": 40.48722,
        "longitude": -5.28654
    },
    {
        "name": "Сан-Мигель-де-Серресуэла",
        "latitude": 40.67064,
        "longitude": -5.28857
    },
    {
        "name": "Святой Паскаль",
        "latitude": 40.88141,
        "longitude": -4.75612
    },
    {
        "name": "Сан-Педро-дель-Арройо",
        "latitude": 40.80213,
        "longitude": -4.87075
    },
    {
        "name": "Сан-Висенте-де-Аревало",
        "latitude": 40.96773,
        "longitude": -4.80194
    },
    {
        "name": "Санчидриан",
        "latitude": 40.89347,
        "longitude": -4.58132
    },
    {
        "name": "Санчоррея",
        "latitude": 40.66475,
        "longitude": -4.91494
    },
    {
        "name": "Санта-Крус-де-Пинарес",
        "latitude": 40.54265,
        "longitude": -4.58036
    },
    {
        "name": "Санта-Крус-дель-Валле",
        "latitude": 40.2516,
        "longitude": -5.00133
    },
    {
        "name": "Святая Мария рыцарей",
        "latitude": 40.38925,
        "longitude": -5.45112
    },
    {
        "name": "Санта-Мария-дель-Арройо",
        "latitude": 0.0,
        "longitude": 0.0
    },
    {
        "name": "Санта-Мария-дель-Беррокаль",
        "latitude": 40.50845,
        "longitude": -5.40483
    },
    {
        "name": "Санта-Мария-дель-Кубильо",
        "latitude": 0.0,
        "longitude": 0.0
    },
    {
        "name": "Санта-Мария-дель-Тиетар",
        "latitude": 0.0,
        "longitude": 0.0
    },
    {
        "name": "Сантьяго-дель-Кольядо",
        "latitude": 40.43326,
        "longitude": -5.35631
    },
    {
        "name": "Сантьяго-дель-Тормес",
        "latitude": 0.0,
        "longitude": 0.0
    },
    {
        "name": "Санто-Доминго-де-лас-Посадас",
        "latitude": 40.812,
        "longitude": -4.63383
    },
    {
        "name": "Санто-Томе-де-Сабаркос",
        "latitude": 40.78726,
        "longitude": -4.91048
    },
    {
        "name": "Сьерра Ла",
        "latitude": 0.0,
        "longitude": 0.0
    },
    {
        "name": "Серранильос",
        "latitude": 40.33625,
        "longitude": -4.91165
    },
    {
        "name": "Говорят",
        "latitude": 40.79939,
        "longitude": -4.93361
    },
    {
        "name": "Синлабаяс",
        "latitude": 41.0765,
        "longitude": -4.83242
    },
    {
        "name": "Солана де Авила",
        "latitude": 0.0,
        "longitude": 0.0
    },
    {
        "name": "Солана де Риоальмар",
        "latitude": 0.0,
        "longitude": 0.0
    },
    {
        "name": "Солосанчо",
        "latitude": 40.55294,
        "longitude": -4.90479
    },
    {
        "name": "Сотальбо",
        "latitude": 40.5417,
        "longitude": -4.84548
    },
    {
        "name": "Сотильо де ла Адрада",
        "latitude": 40.2912,
        "longitude": -4.58385
    },
    {
        "name": "Он дрожит",
        "latitude": 0.0,
        "longitude": 0.0
    },
    {
        "name": "Тиньосильос",
        "latitude": 40.934,
        "longitude": -4.72767
    },
    {
        "name": "Толбаньос",
        "latitude": 40.75168,
        "longitude": -4.58191
    },
    {
        "name": "Тормеллас",
        "latitude": 40.30404,
        "longitude": -5.51185
    },
    {
        "name": "Торнадисос де Авила",
        "latitude": 40.62757,
        "longitude": -4.61426
    },
    {
        "name": "Башня",
        "latitude": 0.0,
        "longitude": 0.0
    },
    {
        "name": "Голуби",
        "latitude": 40.5612,
        "longitude": -5.2612
    },
    {
        "name": "Умбрия",
        "latitude": 40.3153,
        "longitude": -5.58037
    },
    {
        "name": "Вадилло-де-ла-Сьерра",
        "latitude": 40.60634,
        "longitude": -5.12506
    },
    {
        "name": "Вальдекаса",
        "latitude": 40.65931,
        "longitude": -5.01183
    },
    {
        "name": "Вега-де-Санта-Мария",
        "latitude": 40.83618,
        "longitude": -4.64287
    },
    {
        "name": "Велайос",
        "latitude": 40.84157,
        "longitude": -4.62324
    },
    {
        "name": "Виллафлор",
        "latitude": 40.75865,
        "longitude": -4.87379
    },
    {
        "name": "Виллафранка де ла Сьерра",
        "latitude": 40.49806,
        "longitude": -5.23005
    },
    {
        "name": "Вильянуэва-де-Авила",
        "latitude": 0.0,
        "longitude": 0.0
    },
    {
        "name": "Вильянуэва де Гомес",
        "latitude": 40.88269,
        "longitude": -4.7165
    },
    {
        "name": "Вильянуэва-дель-Асераль",
        "latitude": 41.04095,
        "longitude": -4.85419
    },
    {
        "name": "Вильянуэва-дель-Кампильо",
        "latitude": 40.57646,
        "longitude": -5.18002
    },
    {
        "name": "Вильяр де Корнеха",
        "latitude": 40.47462,
        "longitude": -5.43307
    },
    {
        "name": "Вильярехо дель Валье",
        "latitude": 40.28638,
        "longitude": -4.99674
    },
    {
        "name": "Виллаторо",
        "latitude": 40.55609,
        "longitude": -5.11262
    },
    {
        "name": "Ежевичный уксус",
        "latitude": 40.85074,
        "longitude": -4.92115
    },
    {
        "name": "Вита",
        "latitude": 40.81178,
        "longitude": -5.00583
    },
    {
        "name": "Сапардьель-де-ла-Каньяда",
        "latitude": 40.60648,
        "longitude": -5.33791
    },
    {
        "name": "Сапардиэль де ла Рибера",
        "latitude": 40.35554,
        "longitude": -5.32826
    },
    {
        "name": "Доступ",
        "latitude": 39.07678,
        "longitude": -5.57384
    },
    {
        "name": "Ацечал",
        "latitude": 38.64627,
        "longitude": -6.48636
    },
    {
        "name": "Ахиллоны",
        "latitude": 38.26667,
        "longitude": -5.85
    },
    {
        "name": "Наказывать",
        "latitude": 38.78495,
        "longitude": -6.24574
    },
    {
        "name": "Альбуэра",
        "latitude": 0.0,
        "longitude": 0.0
    },
    {
        "name": "Альбукерке",
        "latitude": 39.22076,
        "longitude": -7.00234
    },
    {
        "name": "Алькончель",
        "latitude": 38.51648,
        "longitude": -7.07161
    },
    {
        "name": "Альконера",
        "latitude": 38.4,
        "longitude": -6.46667
    },
    {
        "name": "Альюсен",
        "latitude": 39.04425,
        "longitude": -6.33109
    },
    {
        "name": "Альмендраль",
        "latitude": 38.61418,
        "longitude": -6.82097
    },
    {
        "name": "Альмендралехо",
        "latitude": 38.68316,
        "longitude": -6.40747
    },
    {
        "name": "Ручей Сан-Серван",
        "latitude": 38.85443,
        "longitude": -6.45402
    },
    {
        "name": "Сторожевая башня",
        "latitude": 38.33333,
        "longitude": -6.46667
    },
    {
        "name": "Асуага",
        "latitude": 38.26667,
        "longitude": -5.68333
    },
    {
        "name": "Бадахос",
        "latitude": 38.87789,
        "longitude": -6.97061
    },
    {
        "name": "Баркаррота",
        "latitude": 38.51473,
        "longitude": -6.84923
    },
    {
        "name": "Батерно",
        "latitude": 38.95578,
        "longitude": -4.91039
    },
    {
        "name": "Бенкеренсия де ла Серена",
        "latitude": 0.0,
        "longitude": 0.0
    },
    {
        "name": "Берланга",
        "latitude": 38.28333,
        "longitude": -5.81667
    },
    {
        "name": "Добро пожаловать",
        "latitude": 38.3,
        "longitude": -6.2
    },
    {
        "name": "Бодональ-де-ла-Сьерра",
        "latitude": 38.14751,
        "longitude": -6.5595
    },
    {
        "name": "Бургильос-дель-Серро",
        "latitude": 38.38008,
        "longitude": -6.59037
    },
    {
        "name": "Голова быка",
        "latitude": 38.72227,
        "longitude": -5.21946
    },
    {
        "name": "Возглавьте корову",
        "latitude": 38.08333,
        "longitude": -6.41667
    },
    {
        "name": "Каламонте",
        "latitude": 38.88861,
        "longitude": -6.38791
    },
    {
        "name": "Калера де Леон",
        "latitude": 38.1,
        "longitude": -6.33333
    },
    {
        "name": "Кальсадилья-де-лос-Баррос",
        "latitude": 0.0,
        "longitude": 0.0
    },
    {
        "name": "Колокольня",
        "latitude": 38.8644,
        "longitude": -5.61744
    },
    {
        "name": "Кампильо де Ллерена",
        "latitude": 38.50196,
        "longitude": -5.83139
    },
    {
        "name": "Часовня",
        "latitude": 38.82037,
        "longitude": -5.08417
    },
    {
        "name": "кармонит",
        "latitude": 39.15455,
        "longitude": -6.33864
    },
    {
        "name": "Карраскальхо",
        "latitude": 0.0,
        "longitude": 0.0
    },
    {
        "name": "Дома дона Педро",
        "latitude": 39.10822,
        "longitude": -5.33077
    },
    {
        "name": "Дома королевы",
        "latitude": 38.2,
        "longitude": -5.96667
    },
    {
        "name": "Кастильбланко",
        "latitude": 39.28487,
        "longitude": -5.09098
    },
    {
        "name": "Кастуэра",
        "latitude": 38.73204,
        "longitude": -5.5439
    },
    {
        "name": "Челес",
        "latitude": 38.51225,
        "longitude": -7.28177
    },
    {
        "name": "кодозера",
        "latitude": 0.0,
        "longitude": 0.0
    },
    {
        "name": "Кордобилья Лакара",
        "latitude": 39.14763,
        "longitude": -6.43619
    },
    {
        "name": "Коронованный",
        "latitude": 0.0,
        "longitude": 0.0
    },
    {
        "name": "Боевой суд",
        "latitude": 38.72631,
        "longitude": -6.67035
    },
    {
        "name": "Кристина",
        "latitude": 38.83745,
        "longitude": -6.09867
    },
    {
        "name": "Дон Альваро",
        "latitude": 38.84837,
        "longitude": -6.27475
    },
    {
        "name": "Дон Бенито",
        "latitude": 38.95627,
        "longitude": -5.86162
    },
    {
        "name": "Низкий Энтрин",
        "latitude": 38.71855,
        "longitude": -6.71349
    },
    {
        "name": "спаржа",
        "latitude": 38.9433,
        "longitude": -6.43549
    },
    {
        "name": "Серена Спаржа",
        "latitude": 38.651,
        "longitude": -5.60657
    },
    {
        "name": "Ларес спаржа",
        "latitude": 38.97517,
        "longitude": -5.26968
    },
    {
        "name": "Ферия",
        "latitude": 38.51151,
        "longitude": -6.56416
    },
    {
        "name": "Фрехеналь де ла Сьерра",
        "latitude": 38.16922,
        "longitude": -6.6537
    },
    {
        "name": "Фуэнлабрада-де-лос-Монтес",
        "latitude": 39.13288,
        "longitude": -4.93513
    },
    {
        "name": "Фонтан песен",
        "latitude": 38.25,
        "longitude": -6.3
    },
    {
        "name": "Арочный фонтан",
        "latitude": 0.0,
        "longitude": 0.0
    },
    {
        "name": "Фонтан Мастера",
        "latitude": 38.52656,
        "longitude": -6.44782
    },
    {
        "name": "Фонтаны Леона",
        "latitude": 38.06866,
        "longitude": -6.53884
    },
    {
        "name": "Гарбаюэла",
        "latitude": 39.04956,
        "longitude": -4.99856
    },
    {
        "name": "Гарлитос",
        "latitude": 38.88022,
        "longitude": -5.04759
    },
    {
        "name": "Гарровилья Ла",
        "latitude": 0.0,
        "longitude": 0.0
    },
    {
        "name": "Ферма Торреэрмоса",
        "latitude": 38.31667,
        "longitude": -5.58333
    },
    {
        "name": "Гуарена",
        "latitude": 38.85952,
        "longitude": -6.09987
    },
    {
        "name": "Хаба ла",
        "latitude": 0.0,
        "longitude": 0.0
    },
    {
        "name": "Горный папоротник",
        "latitude": 0.0,
        "longitude": 0.0
    },
    {
        "name": "Эррера дель Дуке",
        "latitude": 39.1684,
        "longitude": -5.05049
    },
    {
        "name": "Серена Фиговое дерево",
        "latitude": 38.64616,
        "longitude": -5.74129
    },
    {
        "name": "Ллерена Фиговое дерево",
        "latitude": 0.0,
        "longitude": 0.0
    },
    {
        "name": "Фиговое дерево Варгаса",
        "latitude": 38.447,
        "longitude": -6.97517
    },
    {
        "name": "Королевское фиговое дерево",
        "latitude": 38.14088,
        "longitude": -6.68922
    },
    {
        "name": "Инохоса-дель-Валле",
        "latitude": 38.48333,
        "longitude": -6.18333
    },
    {
        "name": "Хорначос",
        "latitude": 38.55428,
        "longitude": -6.06829
    },
    {
        "name": "Херес де лос Кабальерос",
        "latitude": 38.32063,
        "longitude": -6.7726
    },
    {
        "name": "Лопата",
        "latitude": 0.0,
        "longitude": 0.0
    },
    {
        "name": "Лерра",
        "latitude": 38.45,
        "longitude": -6.05
    },
    {
        "name": "Ллерена",
        "latitude": 38.23333,
        "longitude": -6.01667
    },
    {
        "name": "Волк",
        "latitude": 38.84876,
        "longitude": -6.62365
    },
    {
        "name": "Назови это",
        "latitude": 38.89648,
        "longitude": -5.73437
    },
    {
        "name": "Магилла",
        "latitude": 38.36667,
        "longitude": -5.83333
    },
    {
        "name": "Недоваренный",
        "latitude": 38.11667,
        "longitude": -5.68333
    },
    {
        "name": "Мальпартида де ла Серена",
        "latitude": 38.6747,
        "longitude": -5.64054
    },
    {
        "name": "Пятно",
        "latitude": 38.81404,
        "longitude": -6.02041
    },
    {
        "name": "Медельин",
        "latitude": 38.96265,
        "longitude": -5.95785
    },
    {
        "name": "Медина Торреса",
        "latitude": 38.33333,
        "longitude": -6.4
    },
    {
        "name": "Менгбриль",
        "latitude": 38.93554,
        "longitude": -5.93335
    },
    {
        "name": "Мерида",
        "latitude": 38.91611,
        "longitude": -6.34366
    },
    {
        "name": "Мирандилья",
        "latitude": 39.002,
        "longitude": -6.28893
    },
    {
        "name": "Монастырь",
        "latitude": 38.08333,
        "longitude": -6.26667
    },
    {
        "name": "Монтемолин",
        "latitude": 38.15,
        "longitude": -6.2
    },
    {
        "name": "Монтеррубио де ла Серена",
        "latitude": 38.58876,
        "longitude": -5.44569
    },
    {
        "name": "Монтихо",
        "latitude": 38.90839,
        "longitude": -6.61785
    },
    {
        "name": "Морера",
        "latitude": 0.0,
        "longitude": 0.0
    },
    {
        "name": "Нава де Сантьяго Ла",
        "latitude": 0.0,
        "longitude": 0.0
    },
    {
        "name": "Навальвильяр-де-Пела",
        "latitude": 39.09436,
        "longitude": -5.4681
    },
    {
        "name": "Ногалес",
        "latitude": 38.58629,
        "longitude": -6.74901
    },
    {
        "name": "Оливка границы",
        "latitude": 38.27595,
        "longitude": -6.91873
    },
    {
        "name": "Олива Мериды",
        "latitude": 38.79051,
        "longitude": -6.12402
    },
    {
        "name": "Оливенса",
        "latitude": 38.68269,
        "longitude": -7.10046
    },
    {
        "name": "Орельяна-де-ла-Сьерра",
        "latitude": 0.0,
        "longitude": 0.0
    },
    {
        "name": "Орельяна Старый",
        "latitude": 39.00617,
        "longitude": -5.53441
    },
    {
        "name": "Голуби",
        "latitude": 38.69277,
        "longitude": -6.1349
    },
    {
        "name": "Парра",
        "latitude": 0.0,
        "longitude": 0.0
    },
    {
        "name": "Пеньяльсордо",
        "latitude": 38.82019,
        "longitude": -5.11405
    },
    {
        "name": "Пераледа-дель-Саусехо",
        "latitude": 0.0,
        "longitude": 0.0
    },
    {
        "name": "Пуэбла-де-Алькосер",
        "latitude": 38.98648,
        "longitude": -5.25633
    },
    {
        "name": "Пуэбла-де-ла-Кальсада",
        "latitude": 38.89441,
        "longitude": -6.62592
    },
    {
        "name": "Пуэбла-де-ла-Рейна",
        "latitude": 38.66455,
        "longitude": -6.10216
    },
    {
        "name": "Пуэбла-де-Обандо",
        "latitude": 39.1763,
        "longitude": -6.62764
    },
    {
        "name": "Пуэбла де Санчо Перес",
        "latitude": 38.4,
        "longitude": -6.4
    },
    {
        "name": "Пуэбла-дель-Маэстре",
        "latitude": 38.08333,
        "longitude": -6.08333
    },
    {
        "name": "Пуэбла-дель-Приор",
        "latitude": 38.57032,
        "longitude": -6.19584
    },
    {
        "name": "Пуэблонуэво-дель-Гвадиана",
        "latitude": 0.0,
        "longitude": 0.0
    },
    {
        "name": "Кинтана де ла Серена",
        "latitude": 38.74595,
        "longitude": -5.67233
    },
    {
        "name": "Рейна",
        "latitude": 38.18333,
        "longitude": -5.95
    },
    {
        "name": "Рена",
        "latitude": 39.05252,
        "longitude": -5.80868
    },
    {
        "name": "Ретамаль из Ллерены",
        "latitude": 0.0,
        "longitude": 0.0
    },
    {
        "name": "Река Фресно",
        "latitude": 38.55177,
        "longitude": -6.23768
    },
    {
        "name": "Риск",
        "latitude": 0.0,
        "longitude": 0.0
    },
    {
        "name": "Сьерра Ла Рок",
        "latitude": 0.0,
        "longitude": 0.0
    },
    {
        "name": "Сальвалеон",
        "latitude": 38.5102,
        "longitude": -6.78627
    },
    {
        "name": "Сальватьерра де лос Баррос",
        "latitude": 38.49091,
        "longitude": -6.68423
    },
    {
        "name": "Сан-Педро-де-Мерида",
        "latitude": 38.95007,
        "longitude": -6.18645
    },
    {
        "name": "Сан-Висенте-де-Алькантара",
        "latitude": 39.36132,
        "longitude": -7.13766
    },
    {
        "name": "Святая Амалия",
        "latitude": 39.01118,
        "longitude": -6.01158
    },
    {
        "name": "Санта-Марта",
        "latitude": 38.61421,
        "longitude": -6.62799
    },
    {
        "name": "Святые Маймоны",
        "latitude": 0.0,
        "longitude": 0.0
    },
    {
        "name": "Сегура-де-Леон",
        "latitude": 38.11667,
        "longitude": -6.51667
    },
    {
        "name": "Сируэла",
        "latitude": 38.97718,
        "longitude": -5.04969
    },
    {
        "name": "Солана де лос Баррос",
        "latitude": 38.72527,
        "longitude": -6.53899
    },
    {
        "name": "Таларрубиас",
        "latitude": 39.03697,
        "longitude": -5.23423
    },
    {
        "name": "Талавера Ла Реал",
        "latitude": 38.87794,
        "longitude": -6.76856
    },
    {
        "name": "Талига",
        "latitude": 38.52861,
        "longitude": -7.01713
    },
    {
        "name": "Тамурехо",
        "latitude": 38.98333,
        "longitude": -4.93333
    },
    {
        "name": "Башня Мигеля Сесмеро",
        "latitude": 38.61913,
        "longitude": -6.7958
    },
    {
        "name": "Торремайор",
        "latitude": 38.9014,
        "longitude": -6.53858
    },
    {
        "name": "Торремехия",
        "latitude": 0.0,
        "longitude": 0.0
    },
    {
        "name": "Трасьерра",
        "latitude": 38.18333,
        "longitude": -6.0
    },
    {
        "name": "Трухильянос",
        "latitude": 38.95233,
        "longitude": -6.25759
    },
    {
        "name": "Усагре",
        "latitude": 38.35,
        "longitude": -6.16667
    },
    {
        "name": "Вальдекабальерос",
        "latitude": 39.24289,
        "longitude": -5.19
    },
    {
        "name": "Вальделакальсада",
        "latitude": 38.88943,
        "longitude": -6.70029
    },
    {
        "name": "Вальдеторрес",
        "latitude": 38.91542,
        "longitude": -6.06765
    },
    {
        "name": "Валенсия де лас Торрес",
        "latitude": 38.40518,
        "longitude": -6.00403
    },
    {
        "name": "Валенсия дель Момбуэй",
        "latitude": 38.24243,
        "longitude": -7.11965
    },
    {
        "name": "Ветреная Валенсия",
        "latitude": 38.26667,
        "longitude": -6.46667
    },
    {
        "name": "Серена Вэлли",
        "latitude": 38.7101,
        "longitude": -5.79847
    },
    {
        "name": "Долина Матаморос",
        "latitude": 38.37889,
        "longitude": -6.80371
    },
    {
        "name": "Долина Санта-Ана",
        "latitude": 38.36637,
        "longitude": -6.7886
    },
    {
        "name": "Вальверде Бургильос",
        "latitude": 38.3271,
        "longitude": -6.53648
    },
    {
        "name": "Вальверде из Леганеса",
        "latitude": 38.67059,
        "longitude": -6.98036
    },
    {
        "name": "Вальверде де Ллерена",
        "latitude": 38.21667,
        "longitude": -5.81667
    },
    {
        "name": "Вальверде из Мериды",
        "latitude": 38.91122,
        "longitude": -6.21999
    },
    {
        "name": "Виллафранка де лос Баррос",
        "latitude": 38.56144,
        "longitude": -6.3381
    },
    {
        "name": "Вильягарсия-де-ла-Торре",
        "latitude": 38.3,
        "longitude": -6.08333
    },
    {
        "name": "Виллагонсало",
        "latitude": 38.86329,
        "longitude": -6.19665
    },
    {
        "name": "Вильяльба де лос Баррос",
        "latitude": 38.61294,
        "longitude": -6.50914
    },
    {
        "name": "Вильянуэва де ла Серена",
        "latitude": 38.97655,
        "longitude": -5.7974
    },
    {
        "name": "Вильянуэва-дель-Фресно",
        "latitude": 38.376,
        "longitude": -7.16753
    },
    {
        "name": "Вильяр де Рена",
        "latitude": 39.07651,
        "longitude": -5.81074
    },
    {
        "name": "Вильяр дель Рей",
        "latitude": 39.1331,
        "longitude": -6.84762
    },
    {
        "name": "Вильярта-де-лос-Монтес",
        "latitude": 39.21386,
        "longitude": -4.79227
    },
    {
        "name": "Сафра",
        "latitude": 38.42539,
        "longitude": -6.41734
    },
    {
        "name": "в Зачине",
        "latitude": 38.33135,
        "longitude": -6.95533
    },
    {
        "name": "Саламеа-де-ла-Серена",
        "latitude": 38.65131,
        "longitude": -5.66063
    },
    {
        "name": "Брамбл",
        "latitude": 0.0,
        "longitude": 0.0
    },
    {
        "name": "Часовня Брамбл",
        "latitude": 0.0,
        "longitude": 0.0
    },
    {
        "name": "Открывалка",
        "latitude": 41.51682,
        "longitude": 1.901
    },
    {
        "name": "Агилар де Сегарра",
        "latitude": 41.74822,
        "longitude": 1.62919
    },
    {
        "name": "Холодная вода",
        "latitude": 41.76807,
        "longitude": 2.25051
    },
    {
        "name": "Алелла",
        "latitude": 41.49379,
        "longitude": 2.29451
    },
    {
        "name": "Альпы",
        "latitude": 42.1193,
        "longitude": 2.10135
    },
    {
        "name": "Амельтла дель Валлес L",
        "latitude": 0.0,
        "longitude": 0.0
    },
    {
        "name": "Морской песок",
        "latitude": 41.5819,
        "longitude": 2.54936
    },
    {
        "name": "Арени де Мунт",
        "latitude": 41.61424,
        "longitude": 2.53972
    },
    {
        "name": "Аржансола",
        "latitude": 0.0,
        "longitude": 0.0
    },
    {
        "name": "Арджентона",
        "latitude": 41.55336,
        "longitude": 2.40114
    },
    {
        "name": "искусство",
        "latitude": 41.798,
        "longitude": 1.95428
    },
    {
        "name": "Это было",
        "latitude": 0.0,
        "longitude": 0.0
    },
    {
        "name": "Авиньон",
        "latitude": 41.86367,
        "longitude": 1.97095
    },
    {
        "name": "Авиньонет-дель-Пенедес",
        "latitude": 0.0,
        "longitude": 0.0
    },
    {
        "name": "Бадалона",
        "latitude": 41.45004,
        "longitude": 2.24741
    },
    {
        "name": "Валлес Бэй",
        "latitude": 0.0,
        "longitude": 0.0
    },
    {
        "name": "Бага",
        "latitude": 42.25289,
        "longitude": 1.86098
    },
    {
        "name": "кит",
        "latitude": 0.0,
        "longitude": 0.0
    },
    {
        "name": "Бальсарень",
        "latitude": 41.86311,
        "longitude": 1.87356
    },
    {
        "name": "Барбера дель Валлес",
        "latitude": 41.5159,
        "longitude": 2.12457
    },
    {
        "name": "Барселона",
        "latitude": 41.38879,
        "longitude": 2.15899
    },
    {
        "name": "ты пьешь",
        "latitude": 41.33333,
        "longitude": 1.93333
    },
    {
        "name": "Беллпрат",
        "latitude": 41.51695,
        "longitude": 1.43333
    },
    {
        "name": "Берга",
        "latitude": 42.10429,
        "longitude": 1.84628
    },
    {
        "name": "Балки и рельсы",
        "latitude": 41.68333,
        "longitude": 2.23333
    },
    {
        "name": "Скучно",
        "latitude": 0.0,
        "longitude": 0.0
    },
    {
        "name": "Хит Эл",
        "latitude": 0.0,
        "longitude": 0.0
    },
    {
        "name": "Брюлль Эль",
        "latitude": 0.0,
        "longitude": 0.0
    },
    {
        "name": "Лесные домики",
        "latitude": 0.0,
        "longitude": 0.0
    },
    {
        "name": "Кабрера-д-Анойя",
        "latitude": 0.0,
        "longitude": 0.0
    },
    {
        "name": "Кабрера де Мар",
        "latitude": 41.51667,
        "longitude": 2.4
    },
    {
        "name": "Лошади",
        "latitude": 41.5276,
        "longitude": 2.36996
    },