[
    {
        "name": "Abegondo",
        "latitude": 43.21667,
        "longitude": -8.28333
    },
    {
        "name": "Am\u00e9s",
        "latitude": 42.90426,
        "longitude": -8.65551
    },
    {
        "name": "Aranga",
        "latitude": 43.23469,
        "longitude": -8.01705
    },
    {
        "name": "Ares",
        "latitude": 43.42995,
        "longitude": -8.24254
    },
    {
        "name": "Arteixo",
        "latitude": 43.30482,
        "longitude": -8.50749
    },
    {
        "name": "Arz\u00faa",
        "latitude": 42.93333,
        "longitude": -8.15
    },
    {
        "name": "As Pontes de Garc\u00eda Rodr\u00edguez",
        "latitude": 43.45266,
        "longitude": -7.85178
    },
    {
        "name": "Ba\u00f1a A",
        "latitude": 0.0,
        "longitude": 0.0
    },
    {
        "name": "Bergondo",
        "latitude": 43.31667,
        "longitude": -8.23333
    },
    {
        "name": "Betanzos",
        "latitude": 43.28042,
        "longitude": -8.21467
    },
    {
        "name": "Boimorto",
        "latitude": 43.0,
        "longitude": -8.13333
    },
    {
        "name": "Boiro",
        "latitude": 42.64725,
        "longitude": -8.88459
    },
    {
        "name": "Boqueix\u00f3n",
        "latitude": 0.0,
        "longitude": 0.0
    },
    {
        "name": "Bri\u00f3n",
        "latitude": 0.0,
        "longitude": 0.0
    },
    {
        "name": "Cabana de Berganti\u00f1os",
        "latitude": 0.0,
        "longitude": 0.0
    },
    {
        "name": "Cabanas",
        "latitude": 0.0,
        "longitude": 0.0
    },
    {
        "name": "Camari\u00f1as",
        "latitude": 43.13115,
        "longitude": -9.18172
    },
    {
        "name": "Cambre",
        "latitude": 43.29438,
        "longitude": -8.34736
    },
    {
        "name": "Capela A",
        "latitude": 0.0,
        "longitude": 0.0
    },
    {
        "name": "Carballo",
        "latitude": 43.213,
        "longitude": -8.69104
    },
    {
        "name": "Cari\u00f1o",
        "latitude": 43.74134,
        "longitude": -7.86715
    },
    {
        "name": "Carnota",
        "latitude": 42.8233,
        "longitude": -9.08913
    },
    {
        "name": "Carral",
        "latitude": 43.2286,
        "longitude": -8.35545
    },
    {
        "name": "Cedeira",
        "latitude": 43.66044,
        "longitude": -8.05719
    },
    {
        "name": "Cee",
        "latitude": 42.95466,
        "longitude": -9.188
    },
    {
        "name": "Cerceda",
        "latitude": 0.0,
        "longitude": 0.0
    },
    {
        "name": "Cerdido",
        "latitude": 43.62063,
        "longitude": -7.99959
    },
    {
        "name": "Cesuras",
        "latitude": 43.17282,
        "longitude": -8.20061
    },
    {
        "name": "Coir\u00f3s",
        "latitude": 43.25,
        "longitude": -8.16667
    },
    {
        "name": "Corcubi\u00f3n",
        "latitude": 42.94414,
        "longitude": -9.1926
    },
    {
        "name": "Coristanco",
        "latitude": 43.2,
        "longitude": -8.75
    },
    {
        "name": "Coru\u00f1a A",
        "latitude": 0.0,
        "longitude": 0.0
    },
    {
        "name": "Culleredo",
        "latitude": 43.28788,
        "longitude": -8.38858
    },
    {
        "name": "Curtis",
        "latitude": 43.12374,
        "longitude": -8.14818
    },
    {
        "name": "Dodro",
        "latitude": 0.0,
        "longitude": 0.0
    },
    {
        "name": "Dumbr\u00eda",
        "latitude": 43.00836,
        "longitude": -9.11328
    },
    {
        "name": "Fene",
        "latitude": 43.45,
        "longitude": -8.15
    },
    {
        "name": "Ferrol",
        "latitude": 43.48961,
        "longitude": -8.2194
    },
    {
        "name": "Fisterra",
        "latitude": 42.90492,
        "longitude": -9.26289
    },
    {
        "name": "Frades",
        "latitude": 0.0,
        "longitude": 0.0
    },
    {
        "name": "Irixoa",
        "latitude": 43.2847,
        "longitude": -8.05916
    },
    {
        "name": "Laracha A",
        "latitude": 0.0,
        "longitude": 0.0
    },
    {
        "name": "Laxe",
        "latitude": 0.0,
        "longitude": 0.0
    },
    {
        "name": "Lousame",
        "latitude": 42.76477,
        "longitude": -8.84926
    },
    {
        "name": "Malpica de Berganti\u00f1os",
        "latitude": 0.0,
        "longitude": 0.0
    },
    {
        "name": "Ma\u00f1\u00f3n",
        "latitude": 0.0,
        "longitude": 0.0
    },
    {
        "name": "Mazaricos",
        "latitude": 42.94033,
        "longitude": -8.97187
    },
    {
        "name": "Melide",
        "latitude": 0.0,
        "longitude": 0.0
    },
    {
        "name": "Mesia",
        "latitude": 43.1,
        "longitude": -8.26667
    },
    {
        "name": "Mi\u00f1o",
        "latitude": 43.35,
        "longitude": -8.2
    },
    {
        "name": "Moeche",
        "latitude": 43.55,
        "longitude": -8.01667
    },
    {
        "name": "Monfero",
        "latitude": 43.33333,
        "longitude": -8.01667
    },
    {
        "name": "Mugardos",
        "latitude": 43.4604,
        "longitude": -8.25507
    },
    {
        "name": "Mugia",
        "latitude": 43.10414,
        "longitude": -9.21791
    },
    {
        "name": "Muros",
        "latitude": 42.77617,
        "longitude": -9.06032
    },
    {
        "name": "Mux\u00eda",
        "latitude": 0.0,
        "longitude": 0.0
    },
    {
        "name": "Nar\u00f3n",
        "latitude": 43.50175,
        "longitude": -8.19082
    },
    {
        "name": "Neda",
        "latitude": 0.0,
        "longitude": 0.0
    },
    {
        "name": "Negreira",
        "latitude": 42.90402,
        "longitude": -8.74273
    },
    {
        "name": "Noia",
        "latitude": 0.0,
        "longitude": 0.0
    },
    {
        "name": "Oleiros",
        "latitude": 43.33333,
        "longitude": -8.31667
    },
    {
        "name": "Ordes",
        "latitude": 43.07654,
        "longitude": -8.409
    },
    {
        "name": "Oroso",
        "latitude": 42.98333,
        "longitude": -8.43333
    },
    {
        "name": "Ortigueira",
        "latitude": 0.0,
        "longitude": 0.0
    },
    {
        "name": "Outes",
        "latitude": 42.86189,
        "longitude": -8.90181
    },
    {
        "name": "Oza dos R\u00edos",
        "latitude": 0.0,
        "longitude": 0.0
    },
    {
        "name": "Paderne",
        "latitude": 0.0,
        "longitude": 0.0
    },
    {
        "name": "Padr\u00f3n",
        "latitude": 42.73875,
        "longitude": -8.66057
    },
    {
        "name": "Pino O",
        "latitude": 0.0,
        "longitude": 0.0
    },
    {
        "name": "Pobra do Carami\u00f1al A",
        "latitude": 0.0,
        "longitude": 0.0
    },
    {
        "name": "Ponteceso",
        "latitude": 0.0,
        "longitude": 0.0
    },
    {
        "name": "Pontedeume",
        "latitude": 0.0,
        "longitude": 0.0
    },
    {
        "name": "Pontes de Garc\u00eda Rodr\u00edguez As",
        "latitude": 0.0,
        "longitude": 0.0
    },
    {
        "name": "Porto do Son",
        "latitude": 42.72482,
        "longitude": -9.00527
    },
    {
        "name": "Rianxo",
        "latitude": 42.64977,
        "longitude": -8.81763
    },
    {
        "name": "Ribeira",
        "latitude": 42.74611,
        "longitude": -8.44392
    },
    {
        "name": "Rois",
        "latitude": 0.0,
        "longitude": 0.0
    },
    {
        "name": "Sada",
        "latitude": 43.35619,
        "longitude": -8.25796
    },
    {
        "name": "San Sadurni\u00f1o",
        "latitude": 0.0,
        "longitude": 0.0
    },
    {
        "name": "Santa Comba",
        "latitude": 43.03306,
        "longitude": -8.80925
    },
    {
        "name": "Santiago de Compostela",
        "latitude": 42.88052,
        "longitude": -8.54569
    },
    {
        "name": "Santiso",
        "latitude": 42.87388,
        "longitude": -8.05497
    },
    {
        "name": "Sobrado",
        "latitude": 43.03882,
        "longitude": -8.02784
    },
    {
        "name": "Somozas As",
        "latitude": 0.0,
        "longitude": 0.0
    },
    {
        "name": "Teo",
        "latitude": 42.75,
        "longitude": -8.5
    },
    {
        "name": "Toques",
        "latitude": 0.0,
        "longitude": 0.0
    },
    {
        "name": "Tordoia",
        "latitude": 0.0,
        "longitude": 0.0
    },
    {
        "name": "Touro",
        "latitude": 42.86812,
        "longitude": -8.30764
    },
    {
        "name": "Trazo",
        "latitude": 43.01667,
        "longitude": -8.53333
    },
    {
        "name": "Val do Dubra",
        "latitude": 0.0,
        "longitude": 0.0
    },
    {
        "name": "Valdovi\u00f1o",
        "latitude": 43.6,
        "longitude": -8.13333
    },
    {
        "name": "Vedra",
        "latitude": 42.77817,
        "longitude": -8.47636
    },
    {
        "name": "Vilarmaior",
        "latitude": 0.0,
        "longitude": 0.0
    },
    {
        "name": "Vilasantar",
        "latitude": 43.07106,
        "longitude": -8.12163
    },
    {
        "name": "Vimianzo",
        "latitude": 43.10988,
        "longitude": -9.03351
    },
    {
        "name": "Zas",
        "latitude": 43.09885,
        "longitude": -8.91558
    },
    {
        "name": "Abengibre",
        "latitude": 0.0,
        "longitude": 0.0
    },
    {
        "name": "Alatoz",
        "latitude": 0.0,
        "longitude": 0.0
    },
    {
        "name": "Albacete",
        "latitude": 0.0,
        "longitude": 0.0
    },
    {
        "name": "Albatana",
        "latitude": 0.0,
        "longitude": 0.0
    },
    {
        "name": "Alborea",
        "latitude": 0.0,
        "longitude": 0.0
    },
    {
        "name": "Alcadozo",
        "latitude": 0.0,
        "longitude": 0.0
    },
    {
        "name": "Alcal\u00e1 del J\u00facar",
        "latitude": 0.0,
        "longitude": 0.0
    },
    {
        "name": "Alcaraz",
        "latitude": 0.0,
        "longitude": 0.0
    },
    {
        "name": "Almansa",
        "latitude": 0.0,
        "longitude": 0.0
    },
    {
        "name": "Alpera",
        "latitude": 0.0,
        "longitude": 0.0
    },
    {
        "name": "Ayna",
        "latitude": 0.0,
        "longitude": 0.0
    },
    {
        "name": "Balazote",
        "latitude": 0.0,
        "longitude": 0.0
    },
    {
        "name": "Ballestero El",
        "latitude": 0.0,
        "longitude": 0.0
    },
    {
        "name": "Balsa de Ves",
        "latitude": 0.0,
        "longitude": 0.0
    },
    {
        "name": "Barrax",
        "latitude": 0.0,
        "longitude": 0.0
    },
    {
        "name": "Bienservida",
        "latitude": 0.0,
        "longitude": 0.0
    },
    {
        "name": "Bogarra",
        "latitude": 0.0,
        "longitude": 0.0
    },
    {
        "name": "Bonete",
        "latitude": 0.0,
        "longitude": 0.0
    },
    {
        "name": "Bonillo El",
        "latitude": 0.0,
        "longitude": 0.0
    },
    {
        "name": "Carcel\u00e9n",
        "latitude": 0.0,
        "longitude": 0.0
    },
    {
        "name": "Casas de Juan N\u00fa\u00f1ez",
        "latitude": 0.0,
        "longitude": 0.0
    },
    {
        "name": "Casas de L\u00e1zaro",
        "latitude": 0.0,
        "longitude": 0.0
    },
    {
        "name": "Casas de Ves",
        "latitude": 0.0,
        "longitude": 0.0
    },
    {
        "name": "Casas-Ib\u00e1\u00f1ez",
        "latitude": 0.0,
        "longitude": 0.0
    },
    {
        "name": "Caudete",
        "latitude": 0.0,
        "longitude": 0.0
    },
    {
        "name": "Cenizate",
        "latitude": 0.0,
        "longitude": 0.0
    },
    {
        "name": "Chinchilla de Monte-Arag\u00f3n",
        "latitude": 0.0,
        "longitude": 0.0
    },
    {
        "name": "Corral-Rubio",
        "latitude": 0.0,
        "longitude": 0.0
    },
    {
        "name": "Cotillas",
        "latitude": 0.0,
        "longitude": 0.0
    },
    {
        "name": "Elche de la Sierra",
        "latitude": 0.0,
        "longitude": 0.0
    },
    {
        "name": "F\u00e9rez",
        "latitude": 0.0,
        "longitude": 0.0
    },
    {
        "name": "Fuensanta",
        "latitude": 0.0,
        "longitude": 0.0
    },
    {
        "name": "Fuente-\u00c1lamo",
        "latitude": 0.0,
        "longitude": 0.0
    },
    {
        "name": "Fuentealbilla",
        "latitude": 0.0,
        "longitude": 0.0
    },
    {
        "name": "Gineta La",
        "latitude": 0.0,
        "longitude": 0.0
    },
    {
        "name": "Golosalvo",
        "latitude": 0.0,
        "longitude": 0.0
    },
    {
        "name": "Hell\u00edn",
        "latitude": 0.0,
        "longitude": 0.0
    },
    {
        "name": "Herrera La",
        "latitude": 0.0,
        "longitude": 0.0
    },
    {
        "name": "Higueruela",
        "latitude": 0.0,
        "longitude": 0.0
    },
    {
        "name": "Hoya-Gonzalo",
        "latitude": 0.0,
        "longitude": 0.0
    },
    {
        "name": "Jorquera",
        "latitude": 0.0,
        "longitude": 0.0
    },
    {
        "name": "Letur",
        "latitude": 0.0,
        "longitude": 0.0
    },
    {
        "name": "Lezuza",
        "latitude": 0.0,
        "longitude": 0.0
    },
    {
        "name": "Li\u00e9tor",
        "latitude": 0.0,
        "longitude": 0.0
    },
    {
        "name": "Madrigueras",
        "latitude": 0.0,
        "longitude": 0.0
    },
    {
        "name": "Mahora",
        "latitude": 0.0,
        "longitude": 0.0
    },
    {
        "name": "Masegoso",
        "latitude": 0.0,
        "longitude": 0.0
    },
    {
        "name": "Minaya",
        "latitude": 0.0,
        "longitude": 0.0
    },
    {
        "name": "Molinicos",
        "latitude": 0.0,
        "longitude": 0.0
    },
    {
        "name": "Montalvos",
        "latitude": 0.0,
        "longitude": 0.0
    },
    {
        "name": "Montealegre del Castillo",
        "latitude": 0.0,
        "longitude": 0.0
    },
    {
        "name": "Motilleja",
        "latitude": 0.0,
        "longitude": 0.0
    },
    {
        "name": "Munera",
        "latitude": 0.0,
        "longitude": 0.0
    },
    {
        "name": "Navas de Jorquera",
        "latitude": 0.0,
        "longitude": 0.0
    },
    {
        "name": "Nerpio",
        "latitude": 0.0,
        "longitude": 0.0
    },
    {
        "name": "Ontur",
        "latitude": 0.0,
        "longitude": 0.0
    },
    {
        "name": "Ossa de Montiel",
        "latitude": 0.0,
        "longitude": 0.0
    },
    {
        "name": "Paterna del Madera",
        "latitude": 0.0,
        "longitude": 0.0
    },
    {
        "name": "Pe\u00f1as de San Pedro",
        "latitude": 0.0,
        "longitude": 0.0
    },
    {
        "name": "Pe\u00f1ascosa",
        "latitude": 0.0,
        "longitude": 0.0
    },
    {
        "name": "P\u00e9trola",
        "latitude": 0.0,
        "longitude": 0.0
    },
    {
        "name": "Povedilla",
        "latitude": 0.0,
        "longitude": 0.0
    },
    {
        "name": "Pozo Ca\u00f1ada",
        "latitude": 0.0,
        "longitude": 0.0
    },
    {
        "name": "Pozo-Lorente",
        "latitude": 0.0,
        "longitude": 0.0
    },
    {
        "name": "Pozohondo",
        "latitude": 0.0,
        "longitude": 0.0
    },
    {
        "name": "Pozuelo",
        "latitude": 0.0,
        "longitude": 0.0
    },
    {
        "name": "Recueja La",
        "latitude": 0.0,
        "longitude": 0.0
    },
    {
        "name": "Ri\u00f3par",
        "latitude": 0.0,
        "longitude": 0.0
    },
    {
        "name": "Robledo",
        "latitude": 0.0,
        "longitude": 0.0
    },
    {
        "name": "Roda La",
        "latitude": 0.0,
        "longitude": 0.0
    },
    {
        "name": "Salobre",
        "latitude": 0.0,
        "longitude": 0.0
    },
    {
        "name": "San Pedro",
        "latitude": 0.0,
        "longitude": 0.0
    },
    {
        "name": "Socovos",
        "latitude": 0.0,
        "longitude": 0.0
    },
    {
        "name": "Tarazona de la Mancha",
        "latitude": 0.0,
        "longitude": 0.0
    },
    {
        "name": "Tobarra",
        "latitude": 0.0,
        "longitude": 0.0
    },
    {
        "name": "Valdeganga",
        "latitude": 0.0,
        "longitude": 0.0
    },
    {
        "name": "Vianos",
        "latitude": 0.0,
        "longitude": 0.0
    },
    {
        "name": "Villa de Ves",
        "latitude": 0.0,
        "longitude": 0.0
    },
    {
        "name": "Villalgordo del J\u00facar",
        "latitude": 0.0,
        "longitude": 0.0
    },
    {
        "name": "Villamalea",
        "latitude": 0.0,
        "longitude": 0.0
    },
    {
        "name": "Villapalacios",
        "latitude": 0.0,
        "longitude": 0.0
    },
    {
        "name": "Villarrobledo",
        "latitude": 0.0,
        "longitude": 0.0
    },
    {
        "name": "Villatoya",
        "latitude": 0.0,
        "longitude": 0.0
    },
    {
        "name": "Villavaliente",
        "latitude": 0.0,
        "longitude": 0.0
    },
    {
        "name": "Villaverde de Guadalimar",
        "latitude": 0.0,
        "longitude": 0.0
    },
    {
        "name": "Viveros",
        "latitude": 0.0,
        "longitude": 0.0
    },
    {
        "name": "Yeste",
        "latitude": 0.0,
        "longitude": 0.0
    },
    {
        "name": "Adsubia",
        "latitude": 38.84819,
        "longitude": -0.15324
    },
    {
        "name": "Agost",
        "latitude": 38.44003,
        "longitude": -0.63836
    },
    {
        "name": "Agres",
        "latitude": 38.78333,
        "longitude": -0.51667
    },
    {
        "name": "Aig\u00fces",
        "latitude": 0.0,
        "longitude": 0.0
    },
    {
        "name": "Albatera",
        "latitude": 38.17902,
        "longitude": -0.87059
    },
    {
        "name": "Alcalal\u00ed",
        "latitude": 38.75038,
        "longitude": -0.04013
    },
    {
        "name": "Alcocer de Planes",
        "latitude": 38.79501,
        "longitude": -0.40244
    },
    {
        "name": "Alcoleja",
        "latitude": 0.0,
        "longitude": 0.0
    },
    {
        "name": "Alcoy/Alcoi",
        "latitude": 0.0,
        "longitude": 0.0
    },
    {
        "name": "Alfafara",
        "latitude": 38.77339,
        "longitude": -0.55551
    },
    {
        "name": "Alf\u00e0s del Pi l",
        "latitude": 0.0,
        "longitude": 0.0
    },
    {
        "name": "Algorfa",
        "latitude": 38.08636,
        "longitude": -0.79646
    },
    {
        "name": "Algue\u00f1a",
        "latitude": 38.33905,
        "longitude": -1.00433
    },
    {
        "name": "Alicante/Alacant",
        "latitude": 0.0,
        "longitude": 0.0
    },
    {
        "name": "Almorad\u00ed",
        "latitude": 38.10879,
        "longitude": -0.79197
    },
    {
        "name": "Almudaina",
        "latitude": 38.75999,
        "longitude": -0.35149
    },
    {
        "name": "Alqueria dAsnar l",
        "latitude": 0.0,
        "longitude": 0.0
    },
    {
        "name": "Altea",
        "latitude": 38.59885,
        "longitude": -0.05139
    },
    {
        "name": "Aspe",
        "latitude": 38.34511,
        "longitude": -0.76721
    },
    {
        "name": "Balones",
        "latitude": 38.73726,
        "longitude": -0.34324
    },
    {
        "name": "Banyeres de Mariola",
        "latitude": 0.0,
        "longitude": 0.0
    },
    {
        "name": "Benasau",
        "latitude": 38.69047,
        "longitude": -0.34278
    },
    {
        "name": "Beneixama",
        "latitude": 38.7,
        "longitude": -0.76667
    },
    {
        "name": "Benej\u00fazar",
        "latitude": 38.07728,
        "longitude": -0.83942
    },
    {
        "name": "Benferri",
        "latitude": 38.14129,
        "longitude": -0.96212
    },
    {
        "name": "Beniarbeig",
        "latitude": 38.82232,
        "longitude": -0.0021
    },
    {
        "name": "Beniard\u00e1",
        "latitude": 38.68433,
        "longitude": -0.21629
    },
    {
        "name": "Beniarr\u00e9s",
        "latitude": 38.82019,
        "longitude": -0.37741
    },
    {
        "name": "Benidoleig",
        "latitude": 38.79278,
        "longitude": -0.02992
    },
    {
        "name": "Benidorm",
        "latitude": 38.53816,
        "longitude": -0.13098
    },
    {
        "name": "Benifallim",
        "latitude": 38.66259,
        "longitude": -0.39994
    },
    {
        "name": "Benifato",
        "latitude": 0.0,
        "longitude": 0.0
    },
    {
        "name": "Benigembla",
        "latitude": 0.0,
        "longitude": 0.0
    },
    {
        "name": "Benijofar",
        "latitude": 38.07785,
        "longitude": -0.7368
    },
    {
        "name": "Benilloba",
        "latitude": 38.70012,
        "longitude": -0.38998
    },
    {
        "name": "Benillup",
        "latitude": 38.75397,
        "longitude": -0.37991
    },
    {
        "name": "Benimantell",
        "latitude": 38.67709,
        "longitude": -0.21057
    },
    {
        "name": "Benimarfull",
        "latitude": 38.7759,
        "longitude": -0.39079
    },
    {
        "name": "Benimassot",
        "latitude": 38.75,
        "longitude": -0.28333
    },
    {
        "name": "Benimeli",
        "latitude": 38.82362,
        "longitude": -0.04221
    },
    {
        "name": "Benissa",
        "latitude": 38.71492,
        "longitude": 0.04849
    },
    {
        "name": "Benitachell/Poble Nou de Benitatxell el",
        "latitude": 0.0,
        "longitude": 0.0
    },
    {
        "name": "Biar",
        "latitude": 38.63117,
        "longitude": -0.76458
    },
    {
        "name": "Bigastro",
        "latitude": 38.06237,
        "longitude": -0.89841
    },
    {
        "name": "Bolulla",
        "latitude": 38.67529,
        "longitude": -0.11184
    },
    {
        "name": "Busot",
        "latitude": 38.48206,
        "longitude": -0.41918
    },
    {
        "name": "Callosa de Segura",
        "latitude": 38.12497,
        "longitude": -0.87822
    },
    {
        "name": "Callosa dEn Sarri\u00e0",
        "latitude": 0.0,
        "longitude": 0.0
    },
    {
        "name": "Calp",
        "latitude": 38.6447,
        "longitude": 0.0445
    },
    {
        "name": "Campello el",
        "latitude": 0.0,
        "longitude": 0.0
    },
    {
        "name": "Campo de Mirra/Camp de Mirra el",
        "latitude": 0.0,
        "longitude": 0.0
    },
    {
        "name": "Ca\u00f1ada",
        "latitude": 0.0,
        "longitude": 0.0
    },
    {
        "name": "Castalla",
        "latitude": 38.59694,
        "longitude": -0.67207
    },
    {
        "name": "Castell de Castells",
        "latitude": 38.72555,
        "longitude": -0.19242
    },
    {
        "name": "Castell de Guadalest el",
        "latitude": 0.0,
        "longitude": 0.0
    },
    {
        "name": "Catral",
        "latitude": 38.16061,
        "longitude": -0.80209
    },
    {
        "name": "Cocentaina",
        "latitude": 38.73975,
        "longitude": -0.43976
    },
    {
        "name": "Confrides",
        "latitude": 38.68451,
        "longitude": -0.2689
    },
    {
        "name": "Cox",
        "latitude": 38.14164,
        "longitude": -0.88736
    },
    {
        "name": "Crevillent",
        "latitude": 0.0,
        "longitude": 0.0
    },
    {
        "name": "Daya Nueva",
        "latitude": 38.11313,
        "longitude": -0.76028
    },
    {
        "name": "Daya Vieja",
        "latitude": 38.1048,
        "longitude": -0.73804
    },
    {
        "name": "Denia",
        "latitude": 38.84078,
        "longitude": 0.10574
    },
    {
        "name": "Dolores",
        "latitude": 38.14002,
        "longitude": -0.77088
    },
    {
        "name": "Elche/Elx",
        "latitude": 0.0,
        "longitude": 0.0
    },
    {
        "name": "Elda",
        "latitude": 38.47783,
        "longitude": -0.79157
    },
    {
        "name": "Facheca",
        "latitude": 38.73501,
        "longitude": -0.26766
    },
    {
        "name": "Famorca",
        "latitude": 38.73101,
        "longitude": -0.24726
    },
    {
        "name": "Finestrat",
        "latitude": 38.56737,
        "longitude": -0.21235
    },
    {
        "name": "Fond\u00f3 de les Neus el/Hond\u00f3n de las Nieves",
        "latitude": 0.0,
        "longitude": 0.0
    },
    {
        "name": "Formentera del Segura",
        "latitude": 0.0,
        "longitude": 0.0
    },
    {
        "name": "Gaianes",
        "latitude": 0.0,
        "longitude": 0.0
    },
    {
        "name": "Gata de Gorgos",
        "latitude": 38.77443,
        "longitude": 0.08538
    },
    {
        "name": "Gorga",
        "latitude": 38.71896,
        "longitude": -0.35589
    },
    {
        "name": "Granja de Rocamora",
        "latitude": 38.15157,
        "longitude": -0.8917
    },
    {
        "name": "Guardamar del Segura",
        "latitude": 38.09031,
        "longitude": -0.65556
    },
    {
        "name": "Hond\u00f3n de los Frailes",
        "latitude": 38.2739,
        "longitude": -0.92938
    },
    {
        "name": "Ibi",
        "latitude": 38.62533,
        "longitude": -0.57225
    },
    {
        "name": "Jacarilla",
        "latitude": 38.06247,
        "longitude": -0.86822
    },
    {
        "name": "J\u00e1vea/X\u00e0bia",
        "latitude": 0.0,
        "longitude": 0.0
    },
    {
        "name": "Jijona/Xixona",
        "latitude": 0.0,
        "longitude": 0.0
    },
    {
        "name": "Ll\u00edber",
        "latitude": 0.0,
        "longitude": 0.0
    },
    {
        "name": "Lorcha/Orxa l",
        "latitude": 0.0,
        "longitude": 0.0
    },
    {
        "name": "Millena",
        "latitude": 38.73082,
        "longitude": -0.36274
    },
    {
        "name": "Monforte del Cid",
        "latitude": 38.38027,
        "longitude": -0.7285
    },
    {
        "name": "Mon\u00f3var/Mon\u00f2ver",
        "latitude": 0.0,
        "longitude": 0.0
    },
    {
        "name": "Montesinos Los",
        "latitude": 0.0,
        "longitude": 0.0
    },
    {
        "name": "Murla",
        "latitude": 38.76037,
        "longitude": -0.08208
    },
    {
        "name": "Muro de Alcoy",
        "latitude": 0.0,
        "longitude": 0.0
    },
    {
        "name": "Mutxamel",
        "latitude": 38.4158,
        "longitude": -0.44529
    },
    {
        "name": "Novelda",
        "latitude": 38.38479,
        "longitude": -0.76773
    },
    {
        "name": "Nucia la",
        "latitude": 0.0,
        "longitude": 0.0
    },
    {
        "name": "Ondara",
        "latitude": 38.82817,
        "longitude": 0.0172
    },
    {
        "name": "Onil",
        "latitude": 38.62606,
        "longitude": -0.67313
    },
    {
        "name": "Orba",
        "latitude": 38.78041,
        "longitude": -0.06278
    },
    {
        "name": "Orihuela",
        "latitude": 38.08483,
        "longitude": -0.94401
    },
    {
        "name": "Orxeta",
        "latitude": 0.0,
        "longitude": 0.0
    },
    {
        "name": "Parcent",
        "latitude": 38.74502,
        "longitude": -0.06446
    },
    {
        "name": "Pedreguer",
        "latitude": 38.79312,
        "longitude": 0.03411
    },
    {
        "name": "Pego",
        "latitude": 38.84305,
        "longitude": -0.11707
    },
    {
        "name": "Pen\u00e0guila",
        "latitude": 0.0,
        "longitude": 0.0
    },
    {
        "name": "Petrer",
        "latitude": 0.0,
        "longitude": 0.0
    },
    {
        "name": "Pilar de la Horadada",
        "latitude": 37.86591,
        "longitude": -0.79256
    },
    {
        "name": "Pin\u00f3s el/Pinoso",
        "latitude": 0.0,
        "longitude": 0.0
    },
    {
        "name": "Planes",
        "latitude": 38.78524,
        "longitude": -0.34271
    },
    {
        "name": "Poblets els",
        "latitude": 0.0,
        "longitude": 0.0
    },
    {
        "name": "Polop",
        "latitude": 38.62258,
        "longitude": -0.1309
    },
    {
        "name": "Quatretondeta",
        "latitude": 0.0,
        "longitude": 0.0
    },
    {
        "name": "Rafal",
        "latitude": 38.10458,
        "longitude": -0.84904
    },
    {
        "name": "R\u00e0fol dAlm\u00fania El",
        "latitude": 0.0,
        "longitude": 0.0
    },
    {
        "name": "Redov\u00e1n",
        "latitude": 38.11619,
        "longitude": -0.90981
    },
    {
        "name": "Relleu",
        "latitude": 38.58725,
        "longitude": -0.31157
    },
    {
        "name": "Rojales",
        "latitude": 38.08799,
        "longitude": -0.72544
    },
    {
        "name": "Romana la",
        "latitude": 0.0,
        "longitude": 0.0
    },
    {
        "name": "Sagra",
        "latitude": 38.81102,
        "longitude": -0.06559
    },
    {
        "name": "Salinas",
        "latitude": 38.52025,
        "longitude": -0.91202
    },
    {
        "name": "San Fulgencio",
        "latitude": 0.0,
        "longitude": 0.0
    },
    {
        "name": "San Isidro",
        "latitude": 28.07617,
        "longitude": -16.558
    },
    {
        "name": "San Miguel de Salinas",
        "latitude": 37.97972,
        "longitude": -0.78904
    },
    {
        "name": "San Vicente del Raspeig/Sant Vicent del Raspeig",
        "latitude": 0.0,
        "longitude": 0.0
    },
    {
        "name": "Sanet y Negrals",
        "latitude": 38.81967,
        "longitude": -0.03406
    },
    {
        "name": "Sant Joan dAlacant",
        "latitude": 0.0,
        "longitude": 0.0
    },
    {
        "name": "Santa Pola",
        "latitude": 38.19165,
        "longitude": -0.5658
    },
    {
        "name": "Sax",
        "latitude": 38.53729,
        "longitude": -0.81779
    },
    {
        "name": "Sella",
        "latitude": 38.60926,
        "longitude": -0.27305
    },
    {
        "name": "Senija",
        "latitude": 38.72804,
        "longitude": 0.04176
    },
    {
        "name": "T\u00e0rbena",
        "latitude": 0.0,
        "longitude": 0.0
    },
    {
        "name": "Teulada",
        "latitude": 38.7294,
        "longitude": 0.10383
    },
    {
        "name": "Tibi",
        "latitude": 38.53072,
        "longitude": -0.57776
    },
    {
        "name": "Tollos",
        "latitude": 38.75629,
        "longitude": -0.27466
    },
    {
        "name": "Tormos",
        "latitude": 38.80143,
        "longitude": -0.0716
    },
    {
        "name": "Torremanzanas/Torre de les Ma\u00e7anes la",
        "latitude": 0.0,
        "longitude": 0.0
    },
    {
        "name": "Torrevieja",
        "latitude": 37.97872,
        "longitude": -0.68222
    },
    {
        "name": "Vall dAlcal\u00e0 la",
        "latitude": 0.0,
        "longitude": 0.0
    },
    {
        "name": "Vall de Gallinera",
        "latitude": 0.0,
        "longitude": 0.0
    },
    {
        "name": "Vall de Laguar la",
        "latitude": 0.0,
        "longitude": 0.0
    },
    {
        "name": "Vall dEbo la",
        "latitude": 0.0,
        "longitude": 0.0
    },
    {
        "name": "Verger el",
        "latitude": 0.0,
        "longitude": 0.0
    },
    {
        "name": "Villajoyosa/Vila Joiosa la",
        "latitude": 0.0,
        "longitude": 0.0
    },
    {
        "name": "Villena",
        "latitude": 38.6373,
        "longitude": -0.86568
    },
    {
        "name": "Xal\u00f3",
        "latitude": 0.0,
        "longitude": 0.0
    },
    {
        "name": "Abla",
        "latitude": 37.14245,
        "longitude": -2.77808
    },
    {
        "name": "Abrucena",
        "latitude": 37.13226,
        "longitude": -2.79711
    },
    {
        "name": "Adra",
        "latitude": 36.74961,
        "longitude": -3.02055
    },
    {
        "name": "Alb\u00e1nchez",
        "latitude": 37.28361,
        "longitude": -2.18229
    },
    {
        "name": "Alboloduy",
        "latitude": 0.0,
        "longitude": 0.0
    },
    {
        "name": "Albox",
        "latitude": 37.38856,
        "longitude": -2.14949
    },
    {
        "name": "Alcolea",
        "latitude": 36.97458,
        "longitude": -2.9615
    },
    {
        "name": "Alc\u00f3ntar",
        "latitude": 37.33647,
        "longitude": -2.59725
    },
    {
        "name": "Alcudia de Monteagud",
        "latitude": 37.23529,
        "longitude": -2.2665
    },
    {
        "name": "Alhabia",
        "latitude": 36.99003,
        "longitude": -2.58655
    },
    {
        "name": "Alhama de Almer\u00eda",
        "latitude": 36.95692,
        "longitude": -2.56861
    },
    {
        "name": "Alic\u00fan",
        "latitude": 36.9658,
        "longitude": -2.60212
    },
    {
        "name": "Almer\u00eda",
        "latitude": 37.16667,
        "longitude": -2.33333
    },
    {
        "name": "Alm\u00f3cita",
        "latitude": 37.00262,
        "longitude": -2.79051
    },
    {
        "name": "Alsodux",
        "latitude": 37.00247,
        "longitude": -2.59476
    },
    {
        "name": "Antas",
        "latitude": 37.24536,
        "longitude": -1.9176
    },
    {
        "name": "Arboleas",
        "latitude": 37.35024,
        "longitude": -2.07384
    },
    {
        "name": "Armu\u00f1a de Almanzora",
        "latitude": 37.3503,
        "longitude": -2.4115
    },
    {
        "name": "Bacares",
        "latitude": 0.0,
        "longitude": 0.0
    },
    {
        "name": "Bay\u00e1rcal",
        "latitude": 37.03073,
        "longitude": -2.99606
    },
    {
        "name": "Bayarque",
        "latitude": 37.33062,
        "longitude": -2.4361
    },
    {
        "name": "B\u00e9dar",
        "latitude": 37.19389,
        "longitude": -1.98166
    },
    {
        "name": "Beires",
        "latitude": 37.01237,
        "longitude": -2.79134
    },
    {
        "name": "Benahadux",
        "latitude": 36.92493,
        "longitude": -2.45941
    },
    {
        "name": "Benitagla",
        "latitude": 37.23138,
        "longitude": -2.23935
    },
    {
        "name": "Benizal\u00f3n",
        "latitude": 37.21213,
        "longitude": -2.2418
    },
    {
        "name": "Bentarique",
        "latitude": 36.98823,
        "longitude": -2.61991
    },
    {
        "name": "Berja",
        "latitude": 36.84693,
        "longitude": -2.94966
    },
    {
        "name": "Canj\u00e1yar",
        "latitude": 37.00959,
        "longitude": -2.73943
    },
    {
        "name": "Cantoria",
        "latitude": 37.35146,
        "longitude": -2.19209
    },
    {
        "name": "Carboneras",
        "latitude": 36.99666,
        "longitude": -1.89651
    },
    {
        "name": "Castro de Filabres",
        "latitude": 37.18484,
        "longitude": -2.44024
    },
    {
        "name": "Chercos",
        "latitude": 37.2545,
        "longitude": -2.26657
    },
    {
        "name": "Chirivel",
        "latitude": 37.59527,
        "longitude": -2.26844
    },
    {
        "name": "C\u00f3bdar",
        "latitude": 37.26166,
        "longitude": -2.21098
    },
    {
        "name": "Cuevas del Almanzora",
        "latitude": 37.29678,
        "longitude": -1.88218
    },
    {
        "name": "Dal\u00edas",
        "latitude": 36.82179,
        "longitude": -2.87138
    },
    {
        "name": "Ejido El",
        "latitude": 0.0,
        "longitude": 0.0
    },
    {
        "name": "Enix",
        "latitude": 36.87732,
        "longitude": -2.6018
    },
    {
        "name": "Felix",
        "latitude": 0.0,
        "longitude": 0.0
    },
    {
        "name": "Fi\u00f1ana",
        "latitude": 37.1715,
        "longitude": -2.84011
    },
    {
        "name": "Fines",
        "latitude": 37.36074,
        "longitude": -2.2581
    },
    {
        "name": "Fond\u00f3n",
        "latitude": 36.9802,
        "longitude": -2.85957
    },
    {
        "name": "G\u00e1dor",
        "latitude": 36.95322,
        "longitude": -2.49254
    },
    {
        "name": "Gallardos Los",
        "latitude": 0.0,
        "longitude": 0.0
    },
    {
        "name": "Garrucha",
        "latitude": 37.18141,
        "longitude": -1.82252
    },
    {
        "name": "G\u00e9rgal",
        "latitude": 37.11886,
        "longitude": -2.54012
    },
    {
        "name": "Hu\u00e9cija",
        "latitude": 36.96804,
        "longitude": -2.60941
    },
    {
        "name": "Hu\u00e9rcal de Almer\u00eda",
        "latitude": 36.88507,
        "longitude": -2.4376
    },
    {
        "name": "Hu\u00e9rcal-Overa",
        "latitude": 37.38918,
        "longitude": -1.943
    },
    {
        "name": "Illar",
        "latitude": 36.98562,
        "longitude": -2.63871
    },
    {
        "name": "Instinci\u00f3n",
        "latitude": 36.99344,
        "longitude": -2.66046
    },
    {
        "name": "Laroya",
        "latitude": 37.29771,
        "longitude": -2.33419
    },
    {
        "name": "Laujar de Andarax",
        "latitude": 36.99516,
        "longitude": -2.89033
    },
    {
        "name": "L\u00edjar",
        "latitude": 0.0,
        "longitude": 0.0
    },
    {
        "name": "Lubr\u00edn",
        "latitude": 37.21538,
        "longitude": -2.06677
    },
    {
        "name": "Lucainena de las Torres",
        "latitude": 37.04037,
        "longitude": -2.20095
    },
    {
        "name": "L\u00facar",
        "latitude": 37.40035,
        "longitude": -2.42496
    },
    {
        "name": "Macael",
        "latitude": 37.33318,
        "longitude": -2.30087
    },
    {
        "name": "Mar\u00eda",
        "latitude": 37.71023,
        "longitude": -2.16454
    },
    {
        "name": "Mojacar",
        "latitude": 37.1402,
        "longitude": -1.85102
    },
    {
        "name": "Mojonera La",
        "latitude": 0.0,
        "longitude": 0.0
    },
    {
        "name": "Nacimiento",
        "latitude": 0.0,
        "longitude": 0.0
    },
    {
        "name": "N\u00edjar",
        "latitude": 36.96655,
        "longitude": -2.20595
    },
    {
        "name": "Ohanes",
        "latitude": 37.03861,
        "longitude": -2.74524
    },
    {
        "name": "Olula de Castro",
        "latitude": 37.17475,
        "longitude": -2.4743
    },
    {
        "name": "Olula del R\u00edo",
        "latitude": 37.35445,
        "longitude": -2.29754
    },
    {
        "name": "Oria",
        "latitude": 37.4853,
        "longitude": -2.29292
    },
    {
        "name": "Padules",
        "latitude": 36.99813,
        "longitude": -2.77367
    },
    {
        "name": "Partaloa",
        "latitude": 37.40764,
        "longitude": -2.22526
    },
    {
        "name": "Paterna del R\u00edo",
        "latitude": 37.02222,
        "longitude": -2.95343
    },
    {
        "name": "Pechina",
        "latitude": 0.0,
        "longitude": 0.0
    },
    {
        "name": "Pulp\u00ed",
        "latitude": 37.41154,
        "longitude": -1.74496
    },
    {
        "name": "Purchena",
        "latitude": 37.34744,
        "longitude": -2.3608
    },
    {
        "name": "R\u00e1gol",
        "latitude": 36.99523,
        "longitude": -2.68178
    },
    {
        "name": "Rioja",
        "latitude": 36.94508,
        "longitude": -2.46302
    },
    {
        "name": "Roquetas de Mar",
        "latitude": 36.76419,
        "longitude": -2.61475
    },
    {
        "name": "Santa Cruz de Marchena",
        "latitude": 0.0,
        "longitude": 0.0
    },
    {
        "name": "Santa Fe de Mond\u00fajar",
        "latitude": 36.97479,
        "longitude": -2.53126
    },
    {
        "name": "Sen\u00e9s",
        "latitude": 0.0,
        "longitude": 0.0
    },
    {
        "name": "Ser\u00f3n",
        "latitude": 37.34485,
        "longitude": -2.50913
    },
    {
        "name": "Sierro",
        "latitude": 37.32237,
        "longitude": -2.39844
    },
    {
        "name": "Somont\u00edn",
        "latitude": 37.39176,
        "longitude": -2.38828
    },
    {
        "name": "Sorbas",
        "latitude": 37.09761,
        "longitude": -2.12349
    },
    {
        "name": "Sufl\u00ed",
        "latitude": 37.33866,
        "longitude": -2.38817
    },
    {
        "name": "Tabernas",
        "latitude": 37.04992,
        "longitude": -2.39084
    },
    {
        "name": "Taberno",
        "latitude": 0.0,
        "longitude": 0.0
    },
    {
        "name": "Tahal",
        "latitude": 37.22797,
        "longitude": -2.2847
    },
    {
        "name": "Terque",
        "latitude": 36.98393,
        "longitude": -2.59679
    },
    {
        "name": "T\u00edjola",
        "latitude": 37.34606,
        "longitude": -2.43326
    },
    {
        "name": "Tres Villas Las",
        "latitude": 0.0,
        "longitude": 0.0
    },
    {
        "name": "Turre",
        "latitude": 37.15224,
        "longitude": -1.89497
    },
    {
        "name": "Turrillas",
        "latitude": 37.02948,
        "longitude": -2.26607
    },
    {
        "name": "Uleila del Campo",
        "latitude": 37.1846,
        "longitude": -2.20491
    },
    {
        "name": "Urr\u00e1cal",
        "latitude": 37.3974,
        "longitude": -2.36485
    },
    {
        "name": "Velefique",
        "latitude": 37.19407,
        "longitude": -2.40155
    },
    {
        "name": "V\u00e9lez-Blanco",
        "latitude": 37.69178,
        "longitude": -2.09587
    },
    {
        "name": "V\u00e9lez-Rubio",
        "latitude": 0.0,
        "longitude": 0.0
    },
    {
        "name": "Vera",
        "latitude": 37.24345,
        "longitude": -1.85905
    },
    {
        "name": "Viator",
        "latitude": 36.89006,
        "longitude": -2.42695
    },
    {
        "name": "V\u00edcar",
        "latitude": 36.83155,
        "longitude": -2.64273
    },
    {
        "name": "Zurgena",
        "latitude": 37.34218,
        "longitude": -2.03985
    },
    {
        "name": "Alegr\u00eda-Dulantzi",
        "latitude": 0.0,
        "longitude": 0.0
    },
    {
        "name": "Amurrio",
        "latitude": 43.05,
        "longitude": -3.0
    },
    {
        "name": "A\u00f1ana",
        "latitude": 0.0,
        "longitude": 0.0
    },
    {
        "name": "Aramaio",
        "latitude": 0.0,
        "longitude": 0.0
    },
    {
        "name": "Armi\u00f1\u00f3n",
        "latitude": 42.72313,
        "longitude": -2.87172
    },
    {
        "name": "Arraia-Maeztu",
        "latitude": 0.0,
        "longitude": 0.0
    },
    {
        "name": "Arrazua-Ubarrundia",
        "latitude": 0.0,
        "longitude": 0.0
    },
    {
        "name": "Artziniega",
        "latitude": 0.0,
        "longitude": 0.0
    },
    {
        "name": "Asparrena",
        "latitude": 0.0,
        "longitude": 0.0
    },
    {
        "name": "Ayala/Aiara",
        "latitude": 0.0,
        "longitude": 0.0
    },
    {
        "name": "Ba\u00f1os de Ebro/Ma\u00f1ueta",
        "latitude": 0.0,
        "longitude": 0.0
    },
    {
        "name": "Barrundia",
        "latitude": 0.0,
        "longitude": 0.0
    },
    {
        "name": "Berantevilla",
        "latitude": 42.68254,
        "longitude": -2.85832
    },
    {
        "name": "Bernedo",
        "latitude": 0.0,
        "longitude": 0.0
    },
    {
        "name": "Campezo/Kanpezu",
        "latitude": 0.0,
        "longitude": 0.0
    },
    {
        "name": "Elburgo/Burgelu",
        "latitude": 0.0,
        "longitude": 0.0
    },
    {
        "name": "Elciego",
        "latitude": 42.51569,
        "longitude": -2.61897
    },
    {
        "name": "Elvillar/Bilar",
        "latitude": 0.0,
        "longitude": 0.0
    },
    {
        "name": "Erriberagoitia/Ribera Alta",
        "latitude": 0.0,
        "longitude": 0.0
    },
    {
        "name": "Harana/Valle de Arana",
        "latitude": 0.0,
        "longitude": 0.0
    },
    {
        "name": "Iru\u00f1a Oka/Iru\u00f1a de Oca",
        "latitude": 0.0,
        "longitude": 0.0
    },
    {
        "name": "Iruraiz-Gauna",
        "latitude": 0.0,
        "longitude": 0.0
    },
    {
        "name": "Kripan",
        "latitude": 0.0,
        "longitude": 0.0
    },
    {
        "name": "Kuartango",
        "latitude": 0.0,
        "longitude": 0.0
    },
    {
        "name": "Labastida/Bastida",
        "latitude": 0.0,
        "longitude": 0.0
    },
    {
        "name": "Lagr\u00e1n",
        "latitude": 42.62625,
        "longitude": -2.58385
    },
    {
        "name": "Laguardia",
        "latitude": 42.55461,
        "longitude": -2.58528
    },
    {
        "name": "Lanciego/Lantziego",
        "latitude": 0.0,
        "longitude": 0.0
    },
    {
        "name": "Lantar\u00f3n",
        "latitude": 0.0,
        "longitude": 0.0
    },
    {
        "name": "Lapuebla de Labarca",
        "latitude": 42.49455,
        "longitude": -2.57341
    },
    {
        "name": "Laudio/Llodio",
        "latitude": 0.0,
        "longitude": 0.0
    },
    {
        "name": "Legutio",
        "latitude": 0.0,
        "longitude": 0.0
    },
    {
        "name": "Leza",
        "latitude": 42.56552,
        "longitude": -2.63324
    },
    {
        "name": "Moreda de \u00c1lava/Moreda Araba",
        "latitude": 0.0,
        "longitude": 0.0
    },
    {
        "name": "Navaridas",
        "latitude": 42.54566,
        "longitude": -2.6265
    },
    {
        "name": "Okondo",
        "latitude": 0.0,
        "longitude": 0.0
    },
    {
        "name": "Oy\u00f3n-Oion",
        "latitude": 0.0,
        "longitude": 0.0
    },
    {
        "name": "Pe\u00f1acerrada-Urizaharra",
        "latitude": 0.0,
        "longitude": 0.0
    },
    {
        "name": "Ribera Baja/Erribera Beitia",
        "latitude": 0.0,
        "longitude": 0.0
    },
    {
        "name": "Salvatierra/Agurain",
        "latitude": 0.0,
        "longitude": 0.0
    },
    {
        "name": "Samaniego",
        "latitude": 42.56854,
        "longitude": -2.67974
    },
    {
        "name": "San Mill\u00e1n/Donemiliaga",
        "latitude": 0.0,
        "longitude": 0.0
    },
    {
        "name": "Urkabustaiz",
        "latitude": 0.0,
        "longitude": 0.0
    },
    {
        "name": "Valdegov\u00eda/Gaubea",
        "latitude": 0.0,
        "longitude": 0.0
    },
    {
        "name": "Villabuena de \u00c1lava/Eskuernaga",
        "latitude": 0.0,
        "longitude": 0.0
    },
    {
        "name": "Vitoria-Gasteiz",
        "latitude": 0.0,
        "longitude": 0.0
    },
    {
        "name": "Y\u00e9cora/Iekora",
        "latitude": 0.0,
        "longitude": 0.0
    },
    {
        "name": "Zalduondo",
        "latitude": 0.0,
        "longitude": 0.0
    },
    {
        "name": "Zambrana",
        "latitude": 42.66102,
        "longitude": -2.87909
    },
    {
        "name": "Zigoitia",
        "latitude": 0.0,
        "longitude": 0.0
    },
    {
        "name": "Zuia",
        "latitude": 0.0,
        "longitude": 0.0
    },
    {
        "name": "Allande",
        "latitude": 0.0,
        "longitude": 0.0
    },
    {
        "name": "Aller",
        "latitude": 0.0,
        "longitude": 0.0
    },
    {
        "name": "Amieva",
        "latitude": 0.0,
        "longitude": 0.0
    },
    {
        "name": "Avil\u00e9s",
        "latitude": 0.0,
        "longitude": 0.0
    },
    {
        "name": "Belmonte de Miranda",
        "latitude": 0.0,
        "longitude": 0.0
    },
    {
        "name": "Bimenes",
        "latitude": 0.0,
        "longitude": 0.0
    },
    {
        "name": "Boal",
        "latitude": 0.0,
        "longitude": 0.0
    },
    {
        "name": "Cabrales",
        "latitude": 0.0,
        "longitude": 0.0
    },
    {
        "name": "Cabranes",
        "latitude": 0.0,
        "longitude": 0.0
    },
    {
        "name": "Candamo",
        "latitude": 0.0,
        "longitude": 0.0
    },
    {
        "name": "Cangas de On\u00eds",
        "latitude": 0.0,
        "longitude": 0.0
    },
    {
        "name": "Cangas del Narcea",
        "latitude": 0.0,
        "longitude": 0.0
    },
    {
        "name": "Caravia",
        "latitude": 0.0,
        "longitude": 0.0
    },
    {
        "name": "Carre\u00f1o",
        "latitude": 0.0,
        "longitude": 0.0
    },
    {
        "name": "Caso",
        "latitude": 0.0,
        "longitude": 0.0
    },
    {
        "name": "Castrill\u00f3n",
        "latitude": 0.0,
        "longitude": 0.0
    },
    {
        "name": "Castropol",
        "latitude": 0.0,
        "longitude": 0.0
    },
    {
        "name": "Coa\u00f1a",
        "latitude": 0.0,
        "longitude": 0.0
    },
    {
        "name": "Colunga",
        "latitude": 0.0,
        "longitude": 0.0
    },
    {
        "name": "Corvera de Asturias",
        "latitude": 0.0,
        "longitude": 0.0
    },
    {
        "name": "Cudillero",
        "latitude": 0.0,
        "longitude": 0.0
    },
    {
        "name": "Dega\u00f1a",
        "latitude": 0.0,
        "longitude": 0.0
    },
    {
        "name": "Franco El",
        "latitude": 0.0,
        "longitude": 0.0
    },
    {
        "name": "Gij\u00f3n",
        "latitude": 0.0,
        "longitude": 0.0
    },
    {
        "name": "Goz\u00f3n",
        "latitude": 0.0,
        "longitude": 0.0
    },
    {
        "name": "Grado",
        "latitude": 0.0,
        "longitude": 0.0
    },
    {
        "name": "Grandas de Salime",
        "latitude": 0.0,
        "longitude": 0.0
    },
    {
        "name": "Ibias",
        "latitude": 0.0,
        "longitude": 0.0
    },
    {
        "name": "Illano",
        "latitude": 0.0,
        "longitude": 0.0
    },
    {
        "name": "Illas",
        "latitude": 0.0,
        "longitude": 0.0
    },
    {
        "name": "Langreo",
        "latitude": 0.0,
        "longitude": 0.0
    },
    {
        "name": "Laviana",
        "latitude": 0.0,
        "longitude": 0.0
    },
    {
        "name": "Lena",
        "latitude": 0.0,
        "longitude": 0.0
    },
    {
        "name": "Llanera",
        "latitude": 0.0,
        "longitude": 0.0
    },
    {
        "name": "Llanes",
        "latitude": 0.0,
        "longitude": 0.0
    },
    {
        "name": "Morc\u00edn",
        "latitude": 0.0,
        "longitude": 0.0
    },
    {
        "name": "Muros de Nal\u00f3n",
        "latitude": 0.0,
        "longitude": 0.0
    },
    {
        "name": "Nava",
        "latitude": 0.0,
        "longitude": 0.0
    },
    {
        "name": "Navia",
        "latitude": 0.0,
        "longitude": 0.0
    },
    {
        "name": "Nore\u00f1a",
        "latitude": 0.0,
        "longitude": 0.0
    },
    {
        "name": "On\u00eds",
        "latitude": 0.0,
        "longitude": 0.0
    },
    {
        "name": "Oviedo",
        "latitude": 0.0,
        "longitude": 0.0
    },
    {
        "name": "Parres",
        "latitude": 0.0,
        "longitude": 0.0
    },
    {
        "name": "Pe\u00f1amellera Alta",
        "latitude": 0.0,
        "longitude": 0.0
    },
    {
        "name": "Pe\u00f1amellera Baja",
        "latitude": 0.0,
        "longitude": 0.0
    },
    {
        "name": "Pesoz",
        "latitude": 0.0,
        "longitude": 0.0
    },
    {
        "name": "Pilo\u00f1a",
        "latitude": 0.0,
        "longitude": 0.0
    },
    {
        "name": "Ponga",
        "latitude": 0.0,
        "longitude": 0.0
    },
    {
        "name": "Pravia",
        "latitude": 0.0,
        "longitude": 0.0
    },
    {
        "name": "Proaza",
        "latitude": 0.0,
        "longitude": 0.0
    },
    {
        "name": "Quir\u00f3s",
        "latitude": 0.0,
        "longitude": 0.0
    },
    {
        "name": "Regueras Las",
        "latitude": 0.0,
        "longitude": 0.0
    },
    {
        "name": "Ribadedeva",
        "latitude": 0.0,
        "longitude": 0.0
    },
    {
        "name": "Ribadesella",
        "latitude": 0.0,
        "longitude": 0.0
    },
    {
        "name": "Ribera de Arriba",
        "latitude": 0.0,
        "longitude": 0.0
    },
    {
        "name": "Riosa",
        "latitude": 0.0,
        "longitude": 0.0
    },
    {
        "name": "Salas",
        "latitude": 0.0,
        "longitude": 0.0
    },
    {
        "name": "San Mart\u00edn de Oscos",
        "latitude": 0.0,
        "longitude": 0.0
    },
    {
        "name": "San Mart\u00edn del Rey Aurelio",
        "latitude": 0.0,
        "longitude": 0.0
    },
    {
        "name": "San Tirso de Abres",
        "latitude": 0.0,
        "longitude": 0.0
    },
    {
        "name": "Santa Eulalia de Oscos",
        "latitude": 0.0,
        "longitude": 0.0
    },
    {
        "name": "Santo Adriano",
        "latitude": 0.0,
        "longitude": 0.0
    },
    {
        "name": "Sariego",
        "latitude": 0.0,
        "longitude": 0.0
    },
    {
        "name": "Siero",
        "latitude": 0.0,
        "longitude": 0.0
    },
    {
        "name": "Sobrescobio",
        "latitude": 0.0,
        "longitude": 0.0
    },
    {
        "name": "Somiedo",
        "latitude": 0.0,
        "longitude": 0.0
    },
    {
        "name": "Soto del Barco",
        "latitude": 0.0,
        "longitude": 0.0
    },
    {
        "name": "Tapia de Casariego",
        "latitude": 0.0,
        "longitude": 0.0
    },
    {
        "name": "Taramundi",
        "latitude": 0.0,
        "longitude": 0.0
    },
    {
        "name": "Teverga",
        "latitude": 0.0,
        "longitude": 0.0
    },
    {
        "name": "Tineo",
        "latitude": 0.0,
        "longitude": 0.0
    },
    {
        "name": "Vald\u00e9s",
        "latitude": 0.0,
        "longitude": 0.0
    },
    {
        "name": "Vegadeo",
        "latitude": 0.0,
        "longitude": 0.0
    },
    {
        "name": "Villanueva de Oscos",
        "latitude": 0.0,
        "longitude": 0.0
    },
    {
        "name": "Villaviciosa",
        "latitude": 0.0,
        "longitude": 0.0
    },
    {
        "name": "Villay\u00f3n",
        "latitude": 0.0,
        "longitude": 0.0
    },
    {
        "name": "Yernes y Tameza",
        "latitude": 0.0,
        "longitude": 0.0
    },
    {
        "name": "Adanero",
        "latitude": 40.94487,
        "longitude": -4.60561
    },
    {
        "name": "Adrada La",
        "latitude": 0.0,
        "longitude": 0.0
    },
    {
        "name": "Albornos",
        "latitude": 40.83795,
        "longitude": -4.88129
    },
    {
        "name": "Aldeanueva de Santa Cruz",
        "latitude": 40.38189,
        "longitude": -5.42142
    },
    {
        "name": "Aldeaseca",
        "latitude": 41.04912,
        "longitude": -4.81707
    },
    {
        "name": "Aldehuela La",
        "latitude": 0.0,
        "longitude": 0.0
    },
    {
        "name": "Amavida",
        "latitude": 40.57371,
        "longitude": -5.06541
    },
    {
        "name": "Arenal El",
        "latitude": 0.0,
        "longitude": 0.0
    },
    {
        "name": "Arenas de San Pedro",
        "latitude": 40.21041,
        "longitude": -5.08694
    },
    {
        "name": "Arevalillo",
        "latitude": 0.0,
        "longitude": 0.0
    },
    {
        "name": "Ar\u00e9valo",
        "latitude": 41.06255,
        "longitude": -4.72042
    },
    {
        "name": "Aveinte",
        "latitude": 40.78227,
        "longitude": -4.83649
    },
    {
        "name": "Avellaneda",
        "latitude": 40.38909,
        "longitude": -5.38811
    },
    {
        "name": "\u00c1vila",
        "latitude": 40.65724,
        "longitude": -4.69951
    },
    {
        "name": "Barco de \u00c1vila El",
        "latitude": 0.0,
        "longitude": 0.0
    },
    {
        "name": "Barraco El",
        "latitude": 0.0,
        "longitude": 0.0
    },
    {
        "name": "Barrom\u00e1n",
        "latitude": 41.06536,
        "longitude": -4.93066
    },
    {
        "name": "Becedas",
        "latitude": 40.40369,
        "longitude": -5.63577
    },
    {
        "name": "Becedillas",
        "latitude": 40.53821,
        "longitude": -5.32561
    },
    {
        "name": "Bercial de Zapardiel",
        "latitude": 41.04675,
        "longitude": -4.9691
    },
    {
        "name": "Berlanas Las",
        "latitude": 0.0,
        "longitude": 0.0
    },
    {
        "name": "Bernuy-Zapardiel",
        "latitude": 0.0,
        "longitude": 0.0
    },
    {
        "name": "Berrocalejo de Aragona",
        "latitude": 40.69436,
        "longitude": -4.59474
    },
    {
        "name": "Blascomill\u00e1n",
        "latitude": 40.80146,
        "longitude": -5.08703
    },
    {
        "name": "Blasconu\u00f1o de Matacabras",
        "latitude": 0.0,
        "longitude": 0.0
    },
    {
        "name": "Blascosancho",
        "latitude": 40.87744,
        "longitude": -4.63743
    },
    {
        "name": "Bohod\u00f3n El",
        "latitude": 0.0,
        "longitude": 0.0
    },
    {
        "name": "Bohoyo",
        "latitude": 40.31584,
        "longitude": -5.44294
    },
    {
        "name": "Bonilla de la Sierra",
        "latitude": 40.53063,
        "longitude": -5.26452
    },
    {
        "name": "Brabos",
        "latitude": 40.77846,
        "longitude": -4.93934
    },
    {
        "name": "Bularros",
        "latitude": 0.0,
        "longitude": 0.0
    },
    {
        "name": "Burgohondo",
        "latitude": 40.41416,
        "longitude": -4.78509
    },
    {
        "name": "Cabezas de Alambre",
        "latitude": 40.94218,
        "longitude": -4.84184
    },
    {
        "name": "Cabezas del Pozo",
        "latitude": 41.00139,
        "longitude": -4.95453
    },
    {
        "name": "Cabezas del Villar",
        "latitude": 40.71557,
        "longitude": -5.20956
    },
    {
        "name": "Cabizuela",
        "latitude": 40.9009,
        "longitude": -4.80212
    },
    {
        "name": "Canales",
        "latitude": 41.00331,
        "longitude": -4.90163
    },
    {
        "name": "Candeleda",
        "latitude": 40.15521,
        "longitude": -5.24045
    },
    {
        "name": "Cantiveros",
        "latitude": 40.95215,
        "longitude": -4.95455
    },
    {
        "name": "Carde\u00f1osa",
        "latitude": 40.7424,
        "longitude": -4.74579
    },
    {
        "name": "Carrera La",
        "latitude": 0.0,
        "longitude": 0.0
    },
    {
        "name": "Casas del Puerto",
        "latitude": 0.0,
        "longitude": 0.0
    },
    {
        "name": "Casasola",
        "latitude": 0.0,
        "longitude": 0.0
    },
    {
        "name": "Casavieja",
        "latitude": 40.28325,
        "longitude": -4.7667
    },
    {
        "name": "Casillas",
        "latitude": 40.3261,
        "longitude": -4.57182
    },
    {
        "name": "Castellanos de Zapardiel",
        "latitude": 41.0845,
        "longitude": -4.90984
    },
    {
        "name": "Cebreros",
        "latitude": 40.45835,
        "longitude": -4.46433
    },
    {
        "name": "Cepeda la Mora",
        "latitude": 40.4578,
        "longitude": -5.04833
    },
    {
        "name": "Chamart\u00edn",
        "latitude": 40.70267,
        "longitude": -4.95769
    },
    {
        "name": "Chamart\u00edn",
        "latitude": 40.46206,
        "longitude": -3.6766
    },
    {
        "name": "Cill\u00e1n",
        "latitude": 40.70675,
        "longitude": -4.98135
    },
    {
        "name": "Cisla",
        "latitude": 40.96662,
        "longitude": -5.01405
    },
    {
        "name": "Colilla La",
        "latitude": 0.0,
        "longitude": 0.0
    },
    {
        "name": "Collado de Contreras",
        "latitude": 40.88743,
        "longitude": -4.9314
    },
    {
        "name": "Collado del Mir\u00f3n",
        "latitude": 40.55307,
        "longitude": -5.35398
    },
    {
        "name": "Constanzana",
        "latitude": 40.93821,
        "longitude": -4.87515
    },
    {
        "name": "Crespos",
        "latitude": 40.87128,
        "longitude": -4.97094
    },
    {
        "name": "Cuevas del Valle",
        "latitude": 40.29418,
        "longitude": -5.00938
    },
    {
        "name": "Diego del Carpio",
        "latitude": 0.0,
        "longitude": 0.0
    },
    {
        "name": "Donjimeno",
        "latitude": 40.95978,
        "longitude": -4.84627
    },
    {
        "name": "Donvidas",
        "latitude": 41.08954,
        "longitude": -4.80634
    },
    {
        "name": "Espinosa de los Caballeros",
        "latitude": 0.0,
        "longitude": 0.0
    },
    {
        "name": "Flores de \u00c1vila",
        "latitude": 40.93358,
        "longitude": -5.07914
    },
    {
        "name": "Fontiveros",
        "latitude": 40.92997,
        "longitude": -4.96445
    },
    {
        "name": "Fresnedilla",
        "latitude": 40.23233,
        "longitude": -4.62201
    },
    {
        "name": "Fresno El",
        "latitude": 0.0,
        "longitude": 0.0
    },
    {
        "name": "Fuente el Sa\u00faz",
        "latitude": 0.0,
        "longitude": 0.0
    },
    {
        "name": "Fuentes de A\u00f1o",
        "latitude": 41.01769,
        "longitude": -4.89907
    },
    {
        "name": "Gallegos de Altamiros",
        "latitude": 0.0,
        "longitude": 0.0
    },
    {
        "name": "Gallegos de Sobrinos",
        "latitude": 40.71693,
        "longitude": -5.11224
    },
    {
        "name": "Garganta del Villar",
        "latitude": 40.44965,
        "longitude": -5.1042
    },
    {
        "name": "Gavilanes",
        "latitude": 40.27791,
        "longitude": -4.85321
    },
    {
        "name": "Gemu\u00f1o",
        "latitude": 40.59159,
        "longitude": -4.78178
    },
    {
        "name": "Gil Garc\u00eda",
        "latitude": 0.0,
        "longitude": 0.0
    },
    {
        "name": "Gilbuena",
        "latitude": 0.0,
        "longitude": 0.0
    },
    {
        "name": "Gimialc\u00f3n",
        "latitude": 40.87705,
        "longitude": -5.12308
    },
    {
        "name": "Gotarrendura",
        "latitude": 40.82652,
        "longitude": -4.7409
    },
    {
        "name": "Grandes y San Mart\u00edn",
        "latitude": 0.0,
        "longitude": 0.0
    },
    {
        "name": "Guisando",
        "latitude": 40.22225,
        "longitude": -5.1395
    },
    {
        "name": "Gutierre-Mu\u00f1oz",
        "latitude": 40.98295,
        "longitude": -4.63839
    },
    {
        "name": "Hernansancho",
        "latitude": 40.85753,
        "longitude": -4.73045
    },
    {
        "name": "Herrad\u00f3n de Pinares",
        "latitude": 0.0,
        "longitude": 0.0
    },
    {
        "name": "Herreros de Suso",
        "latitude": 40.80361,
        "longitude": -5.03892
    },
    {
        "name": "Higuera de las Due\u00f1as",
        "latitude": 40.23903,
        "longitude": -4.60361
    },
    {
        "name": "Hija de Dios La",
        "latitude": 0.0,
        "longitude": 0.0
    },
    {
        "name": "Horcajada La",
        "latitude": 0.0,
        "longitude": 0.0
    },
    {
        "name": "Horcajo de las Torres",
        "latitude": 41.06497,
        "longitude": -5.09092
    },
    {
        "name": "Hornillo El",
        "latitude": 0.0,
        "longitude": 0.0
    },
    {
        "name": "Hoyo de Pinares El",
        "latitude": 0.0,
        "longitude": 0.0
    },
    {
        "name": "Hoyocasero",
        "latitude": 40.3989,
        "longitude": -4.97455
    },
    {
        "name": "Hoyorredondo",
        "latitude": 40.4627,
        "longitude": -5.41097
    },
    {
        "name": "Hoyos de Miguel Mu\u00f1oz",
        "latitude": 40.39237,
        "longitude": -5.06713
    },
    {
        "name": "Hoyos del Collado",
        "latitude": 40.35945,
        "longitude": -5.20027
    },
    {
        "name": "Hoyos del Espino",
        "latitude": 40.35623,
        "longitude": -5.17505
    },
    {
        "name": "Hurtumpascual",
        "latitude": 40.692,
        "longitude": -5.11379
    },
    {
        "name": "Junciana",
        "latitude": 40.41076,
        "longitude": -5.55698
    },
    {
        "name": "Langa",
        "latitude": 41.0055,
        "longitude": -4.85946
    },
    {
        "name": "Lanzah\u00edta",
        "latitude": 0.0,
        "longitude": 0.0
    },
    {
        "name": "Llanos de Tormes Los",
        "latitude": 0.0,
        "longitude": 0.0
    },
    {
        "name": "Losar del Barco El",
        "latitude": 0.0,
        "longitude": 0.0
    },
    {
        "name": "Madrigal de las Altas Torres",
        "latitude": 41.08968,
        "longitude": -4.99863
    },
    {
        "name": "Maello",
        "latitude": 40.80929,
        "longitude": -4.51186
    },
    {
        "name": "Malpartida de Corneja",
        "latitude": 40.52208,
        "longitude": -5.35026
    },
    {
        "name": "Mamblas",
        "latitude": 41.01925,
        "longitude": -5.00873
    },
    {
        "name": "Mancera de Arriba",
        "latitude": 40.79139,
        "longitude": -5.14772
    },
    {
        "name": "Manjab\u00e1lago",
        "latitude": 40.66441,
        "longitude": -5.07719
    },
    {
        "name": "Marl\u00edn",
        "latitude": 0.0,
        "longitude": 0.0
    },
    {
        "name": "Martiherrero",
        "latitude": 40.67392,
        "longitude": -4.78156
    },
    {
        "name": "Mart\u00ednez",
        "latitude": 40.63046,
        "longitude": -5.34801
    },
    {
        "name": "Mediana de Voltoya",
        "latitude": 40.70104,
        "longitude": -4.56341
    },
    {
        "name": "Medinilla",
        "latitude": 40.43967,
        "longitude": -5.61772
    },
    {
        "name": "Mengamu\u00f1oz",
        "latitude": 40.50006,
        "longitude": -4.99983
    },
    {
        "name": "Mesegar de Corneja",
        "latitude": 40.50209,
        "longitude": -5.30131
    },
    {
        "name": "Mijares",
        "latitude": 40.29655,
        "longitude": -4.83651
    },
    {
        "name": "Mingorr\u00eda",
        "latitude": 40.75192,
        "longitude": -4.66583
    },
    {
        "name": "Mir\u00f3n El",
        "latitude": 0.0,
        "longitude": 0.0
    },
    {
        "name": "Mironcillo",
        "latitude": 40.55435,
        "longitude": -4.82449
    },
    {
        "name": "Mirue\u00f1a de los Infanzones",
        "latitude": 0.0,
        "longitude": 0.0
    },
    {
        "name": "Mombeltr\u00e1n",
        "latitude": 40.25987,
        "longitude": -5.01749
    },
    {
        "name": "Monsalupe",
        "latitude": 40.76953,
        "longitude": -4.78131
    },
    {
        "name": "Moraleja de Matacabras",
        "latitude": 41.10732,
        "longitude": -4.95717
    },
    {
        "name": "Mu\u00f1ana",
        "latitude": 40.59042,
        "longitude": -5.01447
    },
    {
        "name": "Mu\u00f1ico",
        "latitude": 40.70678,
        "longitude": -5.02717
    },
    {
        "name": "Mu\u00f1ogalindo",
        "latitude": 40.60324,
        "longitude": -4.89895
    },
    {
        "name": "Mu\u00f1ogrande",
        "latitude": 40.82181,
        "longitude": -4.92223
    },
    {
        "name": "Mu\u00f1omer del Peco",
        "latitude": 40.85878,
        "longitude": -4.87992
    },
    {
        "name": "Mu\u00f1opepe",
        "latitude": 40.63408,
        "longitude": -4.81876
    },
    {
        "name": "Mu\u00f1osancho",
        "latitude": 40.92097,
        "longitude": -5.03559
    },
    {
        "name": "Mu\u00f1otello",
        "latitude": 40.54236,
        "longitude": -5.04187
    },
    {
        "name": "Narrillos del \u00c1lamo",
        "latitude": 40.56673,
        "longitude": -5.46584
    },
    {
        "name": "Narrillos del Rebollar",
        "latitude": 40.66488,
        "longitude": -4.96577
    },
    {
        "name": "Narros de Saldue\u00f1a",
        "latitude": 40.87268,
        "longitude": -4.86909
    },
    {
        "name": "Narros del Castillo",
        "latitude": 40.85869,
        "longitude": -5.0601
    },
    {
        "name": "Narros del Puerto",
        "latitude": 40.54131,
        "longitude": -4.99291
    },
    {
        "name": "Nava de Ar\u00e9valo",
        "latitude": 40.97803,
        "longitude": -4.77573
    },
    {
        "name": "Nava del Barco",
        "latitude": 40.29321,
        "longitude": -5.54022
    },
    {
        "name": "Navacepedilla de Corneja",
        "latitude": 40.48602,
        "longitude": -5.1838
    },
    {
        "name": "Navadijos",
        "latitude": 40.42524,
        "longitude": -5.08285
    },
    {
        "name": "Navaescurial",
        "latitude": 40.47163,
        "longitude": -5.27756
    },
    {
        "name": "Navahondilla",
        "latitude": 40.3251,
        "longitude": -4.49661
    },
    {
        "name": "Navalacruz",
        "latitude": 40.43993,
        "longitude": -4.93122
    },
    {
        "name": "Navalmoral",
        "latitude": 40.46028,
        "longitude": -4.76859
    },
    {
        "name": "Navalonguilla",
        "latitude": 0.0,
        "longitude": 0.0
    },
    {
        "name": "Navalosa",
        "latitude": 40.40212,
        "longitude": -4.92999
    },
    {
        "name": "Navalperal de Pinares",
        "latitude": 40.59398,
        "longitude": -4.41149
    },
    {
        "name": "Navalperal de Tormes",
        "latitude": 40.3528,
        "longitude": -5.30084
    },
    {
        "name": "Navaluenga",
        "latitude": 40.41123,
        "longitude": -4.70897
    },
    {
        "name": "Navaquesera",
        "latitude": 40.42558,
        "longitude": -4.91108
    },
    {
        "name": "Navarredonda de Gredos",
        "latitude": 40.36136,
        "longitude": -5.13268
    },
    {
        "name": "Navarredondilla",
        "latitude": 40.45416,
        "longitude": -4.82199
    },
    {
        "name": "Navarrevisca",
        "latitude": 40.36417,
        "longitude": -4.89352
    },
    {
        "name": "Navas del Marqu\u00e9s Las",
        "latitude": 0.0,
        "longitude": 0.0
    },
    {
        "name": "Navatalgordo",
        "latitude": 40.4152,
        "longitude": -4.87155
    },
    {
        "name": "Navatejares",
        "latitude": 40.33602,
        "longitude": -5.5322
    },
    {
        "name": "Neila de San Miguel",
        "latitude": 40.42372,
        "longitude": -5.6509
    },
    {
        "name": "Niharra",
        "latitude": 40.58945,
        "longitude": -4.83895
    },
    {
        "name": "Ojos-Albos",
        "latitude": 40.70596,
        "longitude": -4.51633
    },
    {
        "name": "Orbita",
        "latitude": 40.99846,
        "longitude": -4.64833
    },
    {
        "name": "Oso El",
        "latitude": 0.0,
        "longitude": 0.0
    },
    {
        "name": "Padiernos",
        "latitude": 40.62168,
        "longitude": -4.84523
    },
    {
        "name": "Pajares de Adaja",
        "latitude": 40.92398,
        "longitude": -4.64048
    },
    {
        "name": "Palacios de Goda",
        "latitude": 41.11798,
        "longitude": -4.78496
    },
    {
        "name": "Papatrigo",
        "latitude": 40.8679,
        "longitude": -4.83399
    },
    {
        "name": "Parral El",
        "latitude": 0.0,
        "longitude": 0.0
    },
    {
        "name": "Pascualcobo",
        "latitude": 0.0,
        "longitude": 0.0
    },
    {
        "name": "Pedro Bernardo",
        "latitude": 40.24214,
        "longitude": -4.90963
    },
    {
        "name": "Pedro-Rodr\u00edguez",
        "latitude": 0.0,
        "longitude": 0.0
    },
    {
        "name": "Peguerinos",
        "latitude": 40.6262,
        "longitude": -4.23154
    },
    {
        "name": "Pe\u00f1alba de \u00c1vila",
        "latitude": 40.77266,
        "longitude": -4.74595
    },
    {
        "name": "Piedrah\u00edta",
        "latitude": 0.0,
        "longitude": 0.0
    },
    {
        "name": "Piedralaves",
        "latitude": 40.31721,
        "longitude": -4.70025
    },
    {
        "name": "Poveda",
        "latitude": 40.56799,
        "longitude": -5.07909
    },
    {
        "name": "Poyales del Hoyo",
        "latitude": 40.17254,
        "longitude": -5.16597
    },
    {
        "name": "Pozanco",
        "latitude": 40.80095,
        "longitude": -4.66772
    },
    {
        "name": "Pradosegar",
        "latitude": 40.5502,
        "longitude": -5.07015
    },
    {
        "name": "Puerto Castilla",
        "latitude": 40.288,
        "longitude": -5.62366
    },
    {
        "name": "Rasueros",
        "latitude": 41.02344,
        "longitude": -5.07377
    },
    {
        "name": "Riocabado",
        "latitude": 0.0,
        "longitude": 0.0
    },
    {
        "name": "Riofr\u00edo",
        "latitude": 0.0,
        "longitude": 0.0
    },
    {
        "name": "Rivilla de Barajas",
        "latitude": 40.9021,
        "longitude": -4.98836
    },
    {
        "name": "Salobral",
        "latitude": 40.61179,
        "longitude": -4.81013
    },
    {
        "name": "Salvadi\u00f3s",
        "latitude": 40.87836,
        "longitude": -5.09629
    },
    {
        "name": "San Bartolom\u00e9 de B\u00e9jar",
        "latitude": 40.40783,
        "longitude": -5.66261
    },
    {
        "name": "San Bartolom\u00e9 de Corneja",
        "latitude": 40.49257,
        "longitude": -5.38519
    },
    {
        "name": "San Bartolom\u00e9 de Pinares",
        "latitude": 0.0,
        "longitude": 0.0
    },
    {
        "name": "San Esteban de los Patos",
        "latitude": 40.74705,
        "longitude": -4.62413
    },
    {
        "name": "San Esteban de Zapardiel",
        "latitude": 0.0,
        "longitude": 0.0
    },
    {
        "name": "San Esteban del Valle",
        "latitude": 40.2751,
        "longitude": -4.98215
    },
    {
        "name": "San Garc\u00eda de Ingelmos",
        "latitude": 40.76912,
        "longitude": -5.11523
    },
    {
        "name": "San Juan de Gredos",
        "latitude": 0.0,
        "longitude": 0.0
    },
    {
        "name": "San Juan de la Encinilla",
        "latitude": 40.8302,
        "longitude": -4.83957
    },
    {
        "name": "San Juan de la Nava",
        "latitude": 40.4788,
        "longitude": -4.68238
    },
    {
        "name": "San Juan del Molinillo",
        "latitude": 40.45909,
        "longitude": -4.81711
    },
    {
        "name": "San Juan del Olmo",
        "latitude": 0.0,
        "longitude": 0.0
    },
    {
        "name": "San Lorenzo de Tormes",
        "latitude": 40.36984,
        "longitude": -5.48848
    },
    {
        "name": "San Mart\u00edn de la Vega del Alberche",
        "latitude": 40.43053,
        "longitude": -5.155
    },
    {
        "name": "San Mart\u00edn del Pimpollar",
        "latitude": 40.3683,
        "longitude": -5.05443
    },
    {
        "name": "San Miguel de Corneja",
        "latitude": 40.48722,
        "longitude": -5.28654
    },
    {
        "name": "San Miguel de Serrezuela",
        "latitude": 40.67064,
        "longitude": -5.28857
    },
    {
        "name": "San Pascual",
        "latitude": 40.88141,
        "longitude": -4.75612
    },
    {
        "name": "San Pedro del Arroyo",
        "latitude": 40.80213,
        "longitude": -4.87075
    },
    {
        "name": "San Vicente de Ar\u00e9valo",
        "latitude": 40.96773,
        "longitude": -4.80194
    },
    {
        "name": "Sanchidri\u00e1n",
        "latitude": 40.89347,
        "longitude": -4.58132
    },
    {
        "name": "Sanchorreja",
        "latitude": 40.66475,
        "longitude": -4.91494
    },
    {
        "name": "Santa Cruz de Pinares",
        "latitude": 40.54265,
        "longitude": -4.58036
    },
    {
        "name": "Santa Cruz del Valle",
        "latitude": 40.2516,
        "longitude": -5.00133
    },
    {
        "name": "Santa Mar\u00eda de los Caballeros",
        "latitude": 40.38925,
        "longitude": -5.45112
    },
    {
        "name": "Santa Mar\u00eda del Arroyo",
        "latitude": 0.0,
        "longitude": 0.0
    },
    {
        "name": "Santa Mar\u00eda del Berrocal",
        "latitude": 40.50845,
        "longitude": -5.40483
    },
    {
        "name": "Santa Mar\u00eda del Cubillo",
        "latitude": 0.0,
        "longitude": 0.0
    },
    {
        "name": "Santa Mar\u00eda del Ti\u00e9tar",
        "latitude": 0.0,
        "longitude": 0.0
    },
    {
        "name": "Santiago del Collado",
        "latitude": 40.43326,
        "longitude": -5.35631
    },
    {
        "name": "Santiago del Tormes",
        "latitude": 0.0,
        "longitude": 0.0
    },
    {
        "name": "Santo Domingo de las Posadas",
        "latitude": 40.812,
        "longitude": -4.63383
    },
    {
        "name": "Santo Tom\u00e9 de Zabarcos",
        "latitude": 40.78726,
        "longitude": -4.91048
    },
    {
        "name": "Serrada La",
        "latitude": 0.0,
        "longitude": 0.0
    },
    {
        "name": "Serranillos",
        "latitude": 40.33625,
        "longitude": -4.91165
    },
    {
        "name": "Sigeres",
        "latitude": 40.79939,
        "longitude": -4.93361
    },
    {
        "name": "Sinlabajos",
        "latitude": 41.0765,
        "longitude": -4.83242
    },
    {
        "name": "Solana de \u00c1vila",
        "latitude": 0.0,
        "longitude": 0.0
    },
    {
        "name": "Solana de Rioalmar",
        "latitude": 0.0,
        "longitude": 0.0
    },
    {
        "name": "Solosancho",
        "latitude": 40.55294,
        "longitude": -4.90479
    },
    {
        "name": "Sotalbo",
        "latitude": 40.5417,
        "longitude": -4.84548
    },
    {
        "name": "Sotillo de la Adrada",
        "latitude": 40.2912,
        "longitude": -4.58385
    },
    {
        "name": "Tiemblo El",
        "latitude": 0.0,
        "longitude": 0.0
    },
    {
        "name": "Ti\u00f1osillos",
        "latitude": 40.934,
        "longitude": -4.72767
    },
    {
        "name": "Tolba\u00f1os",
        "latitude": 40.75168,
        "longitude": -4.58191
    },
    {
        "name": "Tormellas",
        "latitude": 40.30404,
        "longitude": -5.51185
    },
    {
        "name": "Tornadizos de \u00c1vila",
        "latitude": 40.62757,
        "longitude": -4.61426
    },
    {
        "name": "Torre La",
        "latitude": 0.0,
        "longitude": 0.0
    },
    {
        "name": "T\u00f3rtoles",
        "latitude": 40.5612,
        "longitude": -5.2612
    },
    {
        "name": "Umbr\u00edas",
        "latitude": 40.3153,
        "longitude": -5.58037
    },
    {
        "name": "Vadillo de la Sierra",
        "latitude": 40.60634,
        "longitude": -5.12506
    },
    {
        "name": "Valdecasa",
        "latitude": 40.65931,
        "longitude": -5.01183
    },
    {
        "name": "Vega de Santa Mar\u00eda",
        "latitude": 40.83618,
        "longitude": -4.64287
    },
    {
        "name": "Velayos",
        "latitude": 40.84157,
        "longitude": -4.62324
    },
    {
        "name": "Villaflor",
        "latitude": 40.75865,
        "longitude": -4.87379
    },
    {
        "name": "Villafranca de la Sierra",
        "latitude": 40.49806,
        "longitude": -5.23005
    },
    {
        "name": "Villanueva de \u00c1vila",
        "latitude": 0.0,
        "longitude": 0.0
    },
    {
        "name": "Villanueva de G\u00f3mez",
        "latitude": 40.88269,
        "longitude": -4.7165
    },
    {
        "name": "Villanueva del Aceral",
        "latitude": 41.04095,
        "longitude": -4.85419
    },
    {
        "name": "Villanueva del Campillo",
        "latitude": 40.57646,
        "longitude": -5.18002
    },
    {
        "name": "Villar de Corneja",
        "latitude": 40.47462,
        "longitude": -5.43307
    },
    {
        "name": "Villarejo del Valle",
        "latitude": 40.28638,
        "longitude": -4.99674
    },
    {
        "name": "Villatoro",
        "latitude": 40.55609,
        "longitude": -5.11262
    },
    {
        "name": "Vi\u00f1egra de Mora\u00f1a",
        "latitude": 40.85074,
        "longitude": -4.92115
    },
    {
        "name": "Vita",
        "latitude": 40.81178,
        "longitude": -5.00583
    },
    {
        "name": "Zapardiel de la Ca\u00f1ada",
        "latitude": 40.60648,
        "longitude": -5.33791
    },
    {
        "name": "Zapardiel de la Ribera",
        "latitude": 40.35554,
        "longitude": -5.32826
    },
    {
        "name": "Acedera",
        "latitude": 39.07678,
        "longitude": -5.57384
    },
    {
        "name": "Aceuchal",
        "latitude": 38.64627,
        "longitude": -6.48636
    },
    {
        "name": "Ahillones",
        "latitude": 38.26667,
        "longitude": -5.85
    },
    {
        "name": "Alange",
        "latitude": 38.78495,
        "longitude": -6.24574
    },
    {
        "name": "Albuera La",
        "latitude": 0.0,
        "longitude": 0.0
    },
    {
        "name": "Alburquerque",
        "latitude": 39.22076,
        "longitude": -7.00234
    },
    {
        "name": "Alconchel",
        "latitude": 38.51648,
        "longitude": -7.07161
    },
    {
        "name": "Alconera",
        "latitude": 38.4,
        "longitude": -6.46667
    },
    {
        "name": "Aljuc\u00e9n",
        "latitude": 39.04425,
        "longitude": -6.33109
    },
    {
        "name": "Almendral",
        "latitude": 38.61418,
        "longitude": -6.82097
    },
    {
        "name": "Almendralejo",
        "latitude": 38.68316,
        "longitude": -6.40747
    },
    {
        "name": "Arroyo de San Serv\u00e1n",
        "latitude": 38.85443,
        "longitude": -6.45402
    },
    {
        "name": "Atalaya",
        "latitude": 38.33333,
        "longitude": -6.46667
    },
    {
        "name": "Azuaga",
        "latitude": 38.26667,
        "longitude": -5.68333
    },
    {
        "name": "Badajoz",
        "latitude": 38.87789,
        "longitude": -6.97061
    },
    {
        "name": "Barcarrota",
        "latitude": 38.51473,
        "longitude": -6.84923
    },
    {
        "name": "Baterno",
        "latitude": 38.95578,
        "longitude": -4.91039
    },
    {
        "name": "Benquerencia de la Serena",
        "latitude": 0.0,
        "longitude": 0.0
    },
    {
        "name": "Berlanga",
        "latitude": 38.28333,
        "longitude": -5.81667
    },
    {
        "name": "Bienvenida",
        "latitude": 38.3,
        "longitude": -6.2
    },
    {
        "name": "Bodonal de la Sierra",
        "latitude": 38.14751,
        "longitude": -6.5595
    },
    {
        "name": "Burguillos del Cerro",
        "latitude": 38.38008,
        "longitude": -6.59037
    },
    {
        "name": "Cabeza del Buey",
        "latitude": 38.72227,
        "longitude": -5.21946
    },
    {
        "name": "Cabeza la Vaca",
        "latitude": 38.08333,
        "longitude": -6.41667
    },
    {
        "name": "Calamonte",
        "latitude": 38.88861,
        "longitude": -6.38791
    },
    {
        "name": "Calera de Le\u00f3n",
        "latitude": 38.1,
        "longitude": -6.33333
    },
    {
        "name": "Calzadilla de los Barros",
        "latitude": 0.0,
        "longitude": 0.0
    },
    {
        "name": "Campanario",
        "latitude": 38.8644,
        "longitude": -5.61744
    },
    {
        "name": "Campillo de Llerena",
        "latitude": 38.50196,
        "longitude": -5.83139
    },
    {
        "name": "Capilla",
        "latitude": 38.82037,
        "longitude": -5.08417
    },
    {
        "name": "Carmonita",
        "latitude": 39.15455,
        "longitude": -6.33864
    },
    {
        "name": "Carrascalejo El",
        "latitude": 0.0,
        "longitude": 0.0
    },
    {
        "name": "Casas de Don Pedro",
        "latitude": 39.10822,
        "longitude": -5.33077
    },
    {
        "name": "Casas de Reina",
        "latitude": 38.2,
        "longitude": -5.96667
    },
    {
        "name": "Castilblanco",
        "latitude": 39.28487,
        "longitude": -5.09098
    },
    {
        "name": "Castuera",
        "latitude": 38.73204,
        "longitude": -5.5439
    },
    {
        "name": "Cheles",
        "latitude": 38.51225,
        "longitude": -7.28177
    },
    {
        "name": "Codosera La",
        "latitude": 0.0,
        "longitude": 0.0
    },
    {
        "name": "Cordobilla de L\u00e1cara",
        "latitude": 39.14763,
        "longitude": -6.43619
    },
    {
        "name": "Coronada La",
        "latitude": 0.0,
        "longitude": 0.0
    },
    {
        "name": "Corte de Peleas",
        "latitude": 38.72631,
        "longitude": -6.67035
    },
    {
        "name": "Cristina",
        "latitude": 38.83745,
        "longitude": -6.09867
    },
    {
        "name": "Don \u00c1lvaro",
        "latitude": 38.84837,
        "longitude": -6.27475
    },
    {
        "name": "Don Benito",
        "latitude": 38.95627,
        "longitude": -5.86162
    },
    {
        "name": "Entr\u00edn Bajo",
        "latitude": 38.71855,
        "longitude": -6.71349
    },
    {
        "name": "Esparragalejo",
        "latitude": 38.9433,
        "longitude": -6.43549
    },
    {
        "name": "Esparragosa de la Serena",
        "latitude": 38.651,
        "longitude": -5.60657
    },
    {
        "name": "Esparragosa de Lares",
        "latitude": 38.97517,
        "longitude": -5.26968
    },
    {
        "name": "Feria",
        "latitude": 38.51151,
        "longitude": -6.56416
    },
    {
        "name": "Fregenal de la Sierra",
        "latitude": 38.16922,
        "longitude": -6.6537
    },
    {
        "name": "Fuenlabrada de los Montes",
        "latitude": 39.13288,
        "longitude": -4.93513
    },
    {
        "name": "Fuente de Cantos",
        "latitude": 38.25,
        "longitude": -6.3
    },
    {
        "name": "Fuente del Arco",
        "latitude": 0.0,
        "longitude": 0.0
    },
    {
        "name": "Fuente del Maestre",
        "latitude": 38.52656,
        "longitude": -6.44782
    },
    {
        "name": "Fuentes de Le\u00f3n",
        "latitude": 38.06866,
        "longitude": -6.53884
    },
    {
        "name": "Garbayuela",
        "latitude": 39.04956,
        "longitude": -4.99856
    },
    {
        "name": "Garlitos",
        "latitude": 38.88022,
        "longitude": -5.04759
    },
    {
        "name": "Garrovilla La",
        "latitude": 0.0,
        "longitude": 0.0
    },
    {
        "name": "Granja de Torrehermosa",
        "latitude": 38.31667,
        "longitude": -5.58333
    },
    {
        "name": "Guare\u00f1a",
        "latitude": 38.85952,
        "longitude": -6.09987
    },
    {
        "name": "Haba La",
        "latitude": 0.0,
        "longitude": 0.0
    },
    {
        "name": "Helechosa de los Montes",
        "latitude": 0.0,
        "longitude": 0.0
    },
    {
        "name": "Herrera del Duque",
        "latitude": 39.1684,
        "longitude": -5.05049
    },
    {
        "name": "Higuera de la Serena",
        "latitude": 38.64616,
        "longitude": -5.74129
    },
    {
        "name": "Higuera de Llerena",
        "latitude": 0.0,
        "longitude": 0.0
    },
    {
        "name": "Higuera de Vargas",
        "latitude": 38.447,
        "longitude": -6.97517
    },
    {
        "name": "Higuera la Real",
        "latitude": 38.14088,
        "longitude": -6.68922
    },
    {
        "name": "Hinojosa del Valle",
        "latitude": 38.48333,
        "longitude": -6.18333
    },
    {
        "name": "Hornachos",
        "latitude": 38.55428,
        "longitude": -6.06829
    },
    {
        "name": "Jerez de los Caballeros",
        "latitude": 38.32063,
        "longitude": -6.7726
    },
    {
        "name": "Lapa La",
        "latitude": 0.0,
        "longitude": 0.0
    },
    {
        "name": "Llera",
        "latitude": 38.45,
        "longitude": -6.05
    },
    {
        "name": "Llerena",
        "latitude": 38.23333,
        "longitude": -6.01667
    },
    {
        "name": "Lob\u00f3n",
        "latitude": 38.84876,
        "longitude": -6.62365
    },
    {
        "name": "Magacela",
        "latitude": 38.89648,
        "longitude": -5.73437
    },
    {
        "name": "Maguilla",
        "latitude": 38.36667,
        "longitude": -5.83333
    },
    {
        "name": "Malcocinado",
        "latitude": 38.11667,
        "longitude": -5.68333
    },
    {
        "name": "Malpartida de la Serena",
        "latitude": 38.6747,
        "longitude": -5.64054
    },
    {
        "name": "Manchita",
        "latitude": 38.81404,
        "longitude": -6.02041
    },
    {
        "name": "Medell\u00edn",
        "latitude": 38.96265,
        "longitude": -5.95785
    },
    {
        "name": "Medina de las Torres",
        "latitude": 38.33333,
        "longitude": -6.4
    },
    {
        "name": "Mengabril",
        "latitude": 38.93554,
        "longitude": -5.93335
    },
    {
        "name": "M\u00e9rida",
        "latitude": 38.91611,
        "longitude": -6.34366
    },
    {
        "name": "Mirandilla",
        "latitude": 39.002,
        "longitude": -6.28893
    },
    {
        "name": "Monesterio",
        "latitude": 38.08333,
        "longitude": -6.26667
    },
    {
        "name": "Montemol\u00edn",
        "latitude": 38.15,
        "longitude": -6.2
    },
    {
        "name": "Monterrubio de la Serena",
        "latitude": 38.58876,
        "longitude": -5.44569
    },
    {
        "name": "Montijo",
        "latitude": 38.90839,
        "longitude": -6.61785
    },
    {
        "name": "Morera La",
        "latitude": 0.0,
        "longitude": 0.0
    },
    {
        "name": "Nava de Santiago La",
        "latitude": 0.0,
        "longitude": 0.0
    },
    {
        "name": "Navalvillar de Pela",
        "latitude": 39.09436,
        "longitude": -5.4681
    },
    {
        "name": "Nogales",
        "latitude": 38.58629,
        "longitude": -6.74901
    },
    {
        "name": "Oliva de la Frontera",
        "latitude": 38.27595,
        "longitude": -6.91873
    },
    {
        "name": "Oliva de M\u00e9rida",
        "latitude": 38.79051,
        "longitude": -6.12402
    },
    {
        "name": "Olivenza",
        "latitude": 38.68269,
        "longitude": -7.10046
    },
    {
        "name": "Orellana de la Sierra",
        "latitude": 0.0,
        "longitude": 0.0
    },
    {
        "name": "Orellana la Vieja",
        "latitude": 39.00617,
        "longitude": -5.53441
    },
    {
        "name": "Palomas",
        "latitude": 38.69277,
        "longitude": -6.1349
    },
    {
        "name": "Parra La",
        "latitude": 0.0,
        "longitude": 0.0
    },
    {
        "name": "Pe\u00f1alsordo",
        "latitude": 38.82019,
        "longitude": -5.11405
    },
    {
        "name": "Peraleda del Zaucejo",
        "latitude": 0.0,
        "longitude": 0.0
    },
    {
        "name": "Puebla de Alcocer",
        "latitude": 38.98648,
        "longitude": -5.25633
    },
    {
        "name": "Puebla de la Calzada",
        "latitude": 38.89441,
        "longitude": -6.62592
    },
    {
        "name": "Puebla de la Reina",
        "latitude": 38.66455,
        "longitude": -6.10216
    },
    {
        "name": "Puebla de Obando",
        "latitude": 39.1763,
        "longitude": -6.62764
    },
    {
        "name": "Puebla de Sancho P\u00e9rez",
        "latitude": 38.4,
        "longitude": -6.4
    },
    {
        "name": "Puebla del Maestre",
        "latitude": 38.08333,
        "longitude": -6.08333
    },
    {
        "name": "Puebla del Prior",
        "latitude": 38.57032,
        "longitude": -6.19584
    },
    {
        "name": "Pueblonuevo del Guadiana",
        "latitude": 0.0,
        "longitude": 0.0
    },
    {
        "name": "Quintana de la Serena",
        "latitude": 38.74595,
        "longitude": -5.67233
    },
    {
        "name": "Reina",
        "latitude": 38.18333,
        "longitude": -5.95
    },
    {
        "name": "Rena",
        "latitude": 39.05252,
        "longitude": -5.80868
    },
    {
        "name": "Retamal de Llerena",
        "latitude": 0.0,
        "longitude": 0.0
    },
    {
        "name": "Ribera del Fresno",
        "latitude": 38.55177,
        "longitude": -6.23768
    },
    {
        "name": "Risco",
        "latitude": 0.0,
        "longitude": 0.0
    },
    {
        "name": "Roca de la Sierra La",
        "latitude": 0.0,
        "longitude": 0.0
    },
    {
        "name": "Salvale\u00f3n",
        "latitude": 38.5102,
        "longitude": -6.78627
    },
    {
        "name": "Salvatierra de los Barros",
        "latitude": 38.49091,
        "longitude": -6.68423
    },
    {
        "name": "San Pedro de M\u00e9rida",
        "latitude": 38.95007,
        "longitude": -6.18645
    },
    {
        "name": "San Vicente de Alc\u00e1ntara",
        "latitude": 39.36132,
        "longitude": -7.13766
    },
    {
        "name": "Santa Amalia",
        "latitude": 39.01118,
        "longitude": -6.01158
    },
    {
        "name": "Santa Marta",
        "latitude": 38.61421,
        "longitude": -6.62799
    },
    {
        "name": "Santos de Maimona Los",
        "latitude": 0.0,
        "longitude": 0.0
    },
    {
        "name": "Segura de Le\u00f3n",
        "latitude": 38.11667,
        "longitude": -6.51667
    },
    {
        "name": "Siruela",
        "latitude": 38.97718,
        "longitude": -5.04969
    },
    {
        "name": "Solana de los Barros",
        "latitude": 38.72527,
        "longitude": -6.53899
    },
    {
        "name": "Talarrubias",
        "latitude": 39.03697,
        "longitude": -5.23423
    },
    {
        "name": "Talavera La Real",
        "latitude": 38.87794,
        "longitude": -6.76856
    },
    {
        "name": "T\u00e1liga",
        "latitude": 38.52861,
        "longitude": -7.01713
    },
    {
        "name": "Tamurejo",
        "latitude": 38.98333,
        "longitude": -4.93333
    },
    {
        "name": "Torre de Miguel Sesmero",
        "latitude": 38.61913,
        "longitude": -6.7958
    },
    {
        "name": "Torremayor",
        "latitude": 38.9014,
        "longitude": -6.53858
    },
    {
        "name": "Torremej\u00eda",
        "latitude": 0.0,
        "longitude": 0.0
    },
    {
        "name": "Trasierra",
        "latitude": 38.18333,
        "longitude": -6.0
    },
    {
        "name": "Trujillanos",
        "latitude": 38.95233,
        "longitude": -6.25759
    },
    {
        "name": "Usagre",
        "latitude": 38.35,
        "longitude": -6.16667
    },
    {
        "name": "Valdecaballeros",
        "latitude": 39.24289,
        "longitude": -5.19
    },
    {
        "name": "Valdelacalzada",
        "latitude": 38.88943,
        "longitude": -6.70029
    },
    {
        "name": "Valdetorres",
        "latitude": 38.91542,
        "longitude": -6.06765
    },
    {
        "name": "Valencia de las Torres",
        "latitude": 38.40518,
        "longitude": -6.00403
    },
    {
        "name": "Valencia del Mombuey",
        "latitude": 38.24243,
        "longitude": -7.11965
    },
    {
        "name": "Valencia del Ventoso",
        "latitude": 38.26667,
        "longitude": -6.46667
    },
    {
        "name": "Valle de la Serena",
        "latitude": 38.7101,
        "longitude": -5.79847
    },
    {
        "name": "Valle de Matamoros",
        "latitude": 38.37889,
        "longitude": -6.80371
    },
    {
        "name": "Valle de Santa Ana",
        "latitude": 38.36637,
        "longitude": -6.7886
    },
    {
        "name": "Valverde de Burguillos",
        "latitude": 38.3271,
        "longitude": -6.53648
    },
    {
        "name": "Valverde de Legan\u00e9s",
        "latitude": 38.67059,
        "longitude": -6.98036
    },
    {
        "name": "Valverde de Llerena",
        "latitude": 38.21667,
        "longitude": -5.81667
    },
    {
        "name": "Valverde de M\u00e9rida",
        "latitude": 38.91122,
        "longitude": -6.21999
    },
    {
        "name": "Villafranca de los Barros",
        "latitude": 38.56144,
        "longitude": -6.3381
    },
    {
        "name": "Villagarc\u00eda de la Torre",
        "latitude": 38.3,
        "longitude": -6.08333
    },
    {
        "name": "Villagonzalo",
        "latitude": 38.86329,
        "longitude": -6.19665
    },
    {
        "name": "Villalba de los Barros",
        "latitude": 38.61294,
        "longitude": -6.50914
    },
    {
        "name": "Villanueva de la Serena",
        "latitude": 38.97655,
        "longitude": -5.7974
    },
    {
        "name": "Villanueva del Fresno",
        "latitude": 38.376,
        "longitude": -7.16753
    },
    {
        "name": "Villar de Rena",
        "latitude": 39.07651,
        "longitude": -5.81074
    },
    {
        "name": "Villar del Rey",
        "latitude": 39.1331,
        "longitude": -6.84762
    },
    {
        "name": "Villarta de los Montes",
        "latitude": 39.21386,
        "longitude": -4.79227
    },
    {
        "name": "Zafra",
        "latitude": 38.42539,
        "longitude": -6.41734
    },
    {
        "name": "Zahinos",
        "latitude": 38.33135,
        "longitude": -6.95533
    },
    {
        "name": "Zalamea de la Serena",
        "latitude": 38.65131,
        "longitude": -5.66063
    },
    {
        "name": "Zarza La",
        "latitude": 0.0,
        "longitude": 0.0
    },
    {
        "name": "Zarza-Capilla",
        "latitude": 0.0,
        "longitude": 0.0
    },
    {
        "name": "Abrera",
        "latitude": 41.51682,
        "longitude": 1.901
    },
    {
        "name": "Aguilar de Segarra",
        "latitude": 41.74822,
        "longitude": 1.62919
    },
    {
        "name": "Aiguafreda",
        "latitude": 41.76807,
        "longitude": 2.25051
    },
    {
        "name": "Alella",
        "latitude": 41.49379,
        "longitude": 2.29451
    },
    {
        "name": "Alpens",
        "latitude": 42.1193,
        "longitude": 2.10135
    },
    {
        "name": "Ametlla del Vall\u00e8s L",
        "latitude": 0.0,
        "longitude": 0.0
    },
    {
        "name": "Arenys de Mar",
        "latitude": 41.5819,
        "longitude": 2.54936
    },
    {
        "name": "Arenys de Munt",
        "latitude": 41.61424,
        "longitude": 2.53972
    },
    {
        "name": "Argen\u00e7ola",
        "latitude": 0.0,
        "longitude": 0.0
    },
    {
        "name": "Argentona",
        "latitude": 41.55336,
        "longitude": 2.40114
    },
    {
        "name": "Art\u00e9s",
        "latitude": 41.798,
        "longitude": 1.95428
    },
    {
        "name": "Avi\u00e0",
        "latitude": 0.0,
        "longitude": 0.0
    },
    {
        "name": "Aviny\u00f3",
        "latitude": 41.86367,
        "longitude": 1.97095
    },
    {
        "name": "Avinyonet del Pened\u00e8s",
        "latitude": 0.0,
        "longitude": 0.0
    },
    {
        "name": "Badalona",
        "latitude": 41.45004,
        "longitude": 2.24741
    },
    {
        "name": "Badia del Vall\u00e8s",
        "latitude": 0.0,
        "longitude": 0.0
    },
    {
        "name": "Bag\u00e0",
        "latitude": 42.25289,
        "longitude": 1.86098
    },
    {
        "name": "Baleny\u00e0",
        "latitude": 0.0,
        "longitude": 0.0
    },