[
    {
        "name": "Anse Rouge",
        "latitude": 19.63382,
        "longitude": -73.0553
    },
    {
        "name": "Arrondissement de Saint-Marc",
        "latitude": 19.0,
        "longitude": -72.5
    },
    {
        "name": "D\u00e9sarmes",
        "latitude": 18.99345,
        "longitude": -72.39058
    },
    {
        "name": "Dessalines",
        "latitude": 19.26177,
        "longitude": -72.51611
    },
    {
        "name": "Ennery",
        "latitude": 19.48342,
        "longitude": -72.48537
    },
    {
        "name": "Gona\u00efves",
        "latitude": 19.44755,
        "longitude": -72.68928
    },
    {
        "name": "Grande Saline",
        "latitude": 19.26513,
        "longitude": -72.76897
    },
    {
        "name": "Gros Morne",
        "latitude": 19.6708,
        "longitude": -72.67808
    },
    {
        "name": "Marmelade",
        "latitude": 19.51736,
        "longitude": -72.36133
    },
    {
        "name": "Saint-Marc",
        "latitude": 19.10819,
        "longitude": -72.69379
    },
    {
        "name": "Verrettes",
        "latitude": 19.0505,
        "longitude": -72.46585
    },
    {
        "name": "Arrondissement de Cerca La Source",
        "latitude": 19.11667,
        "longitude": -71.75
    },
    {
        "name": "Cerca la Source",
        "latitude": 19.16696,
        "longitude": -71.79015
    },
    {
        "name": "Hinche",
        "latitude": 19.15,
        "longitude": -72.01667
    },
    {
        "name": "Lascahobas",
        "latitude": 18.83047,
        "longitude": -71.93563
    },
    {
        "name": "Mayisad",
        "latitude": 19.17607,
        "longitude": -72.13958
    },
    {
        "name": "Mirebalais",
        "latitude": 18.83455,
        "longitude": -72.1048
    },
    {
        "name": "Thomassique",
        "latitude": 19.08209,
        "longitude": -71.83855
    },
    {
        "name": "Thomonde",
        "latitude": 19.0173,
        "longitude": -71.96235
    },
    {
        "name": "Anse-\u00e0-Veau",
        "latitude": 18.5011,
        "longitude": -73.3449
    },
    {
        "name": "Chambellan",
        "latitude": 18.55037,
        "longitude": -74.31317
    },
    {
        "name": "Corail",
        "latitude": 18.56766,
        "longitude": -73.88942
    },
    {
        "name": "Dame-Marie",
        "latitude": 18.56107,
        "longitude": -74.42167
    },
    {
        "name": "Jeremi",
        "latitude": 18.58333,
        "longitude": -74.2
    },
    {
        "name": "J\u00e9r\u00e9mie",
        "latitude": 18.65,
        "longitude": -74.11667
    },
    {
        "name": "Les Abricots",
        "latitude": 18.64901,
        "longitude": -74.30786
    },
    {
        "name": "Les Irois",
        "latitude": 18.4049,
        "longitude": -74.4528
    },
    {
        "name": "Moron",
        "latitude": 18.56039,
        "longitude": -74.25777
    },
    {
        "name": "Petite Rivi\u00e8re de Nippes",
        "latitude": 18.47611,
        "longitude": -73.23495
    },
    {
        "name": "Ansavo",
        "latitude": 18.41667,
        "longitude": -73.5
    },
    {
        "name": "Barad\u00e8res",
        "latitude": 18.48255,
        "longitude": -73.63884
    },
    {
        "name": "Mirago\u00e2ne",
        "latitude": 18.44599,
        "longitude": -73.08957
    },
    {
        "name": "Petit Trou de Nippes",
        "latitude": 18.52535,
        "longitude": -73.50815
    },
    {
        "name": "Acul du Nord",
        "latitude": 19.66667,
        "longitude": -72.28333
    },
    {
        "name": "Arrondissement de la Grande Rivi\u00e8re du Nord",
        "latitude": 19.51667,
        "longitude": -72.16667
    },
    {
        "name": "Arrondissement de Plaisance",
        "latitude": 19.66756,
        "longitude": -72.54908
    },
    {
        "name": "Arrondissement du Borgne",
        "latitude": 19.75,
        "longitude": -72.5
    },
    {
        "name": "Bahon",
        "latitude": 19.46959,
        "longitude": -72.11466
    },
    {
        "name": "Borgne",
        "latitude": 19.84507,
        "longitude": -72.52349
    },
    {
        "name": "Dondon",
        "latitude": 19.52734,
        "longitude": -72.24337
    },
    {
        "name": "Grande Rivi\u00e8re du Nord",
        "latitude": 19.57744,
        "longitude": -72.16872
    },
    {
        "name": "Lenbe",
        "latitude": 19.70603,
        "longitude": -72.40336
    },
    {
        "name": "Limonade",
        "latitude": 19.67014,
        "longitude": -72.1243
    },
    {
        "name": "Milot",
        "latitude": 19.60837,
        "longitude": -72.21319
    },
    {
        "name": "Okap",
        "latitude": 19.75938,
        "longitude": -72.19815
    },
    {
        "name": "Pignon",
        "latitude": 19.33594,
        "longitude": -72.11662
    },
    {
        "name": "Pilate",
        "latitude": 19.66745,
        "longitude": -72.55229
    },
    {
        "name": "Plaine du Nord",
        "latitude": 19.67707,
        "longitude": -72.26969
    },
    {
        "name": "Plaisance",
        "latitude": 19.59795,
        "longitude": -72.46994
    },
    {
        "name": "Port-Margot",
        "latitude": 19.7518,
        "longitude": -72.43006
    },
    {
        "name": "Quartier Morin",
        "latitude": 19.69696,
        "longitude": -72.15712
    },
    {
        "name": "Ranquitte",
        "latitude": 19.41327,
        "longitude": -72.08077
    },
    {
        "name": "Saint-Rapha\u00ebl",
        "latitude": 19.43877,
        "longitude": -72.1991
    },
    {
        "name": "Arrondissement de Fort Libert\u00e9",
        "latitude": 19.56667,
        "longitude": -71.83333
    },
    {
        "name": "Arrondissement du Trou du Nord",
        "latitude": 19.55,
        "longitude": -71.98333
    },
    {
        "name": "Caracol",
        "latitude": 19.69274,
        "longitude": -72.01733
    },
    {
        "name": "Carice",
        "latitude": 19.37795,
        "longitude": -71.8303
    },
    {
        "name": "D\u00e9rac",
        "latitude": 19.65476,
        "longitude": -71.81451
    },
    {
        "name": "Ferrier",
        "latitude": 19.61549,
        "longitude": -71.77792
    },
    {
        "name": "Fort Libert\u00e9",
        "latitude": 19.66273,
        "longitude": -71.83798
    },
    {
        "name": "Mont\u00f2rganize",
        "latitude": 19.40815,
        "longitude": -71.78132
    },
    {
        "name": "Ouanaminthe",
        "latitude": 19.54934,
        "longitude": -71.72475
    },
    {
        "name": "Perches",
        "latitude": 19.52201,
        "longitude": -71.92323
    },
    {
        "name": "Pha\u00ebton",
        "latitude": 19.67525,
        "longitude": -71.89691
    },
    {
        "name": "Trou du Nord",
        "latitude": 19.61668,
        "longitude": -72.02442
    },
    {
        "name": "Wanament",
        "latitude": 19.48333,
        "longitude": -71.76667
    },
    {
        "name": "Arcahaie",
        "latitude": 19.81667,
        "longitude": -72.91667
    },
    {
        "name": "Arrondissement de Port-de-Paix",
        "latitude": 19.83333,
        "longitude": -72.88333
    },
    {
        "name": "Arrondissement de Saint-Louis du Nord",
        "latitude": 19.85,
        "longitude": -72.66667
    },
    {
        "name": "Arrondissement du M\u00f4le Saint-Nicolas",
        "latitude": 19.75,
        "longitude": -73.25
    },
    {
        "name": "Baie de Henne",
        "latitude": 19.66307,
        "longitude": -73.20943
    },
    {
        "name": "Bombardopolis",
        "latitude": 19.69142,
        "longitude": -73.33769
    },
    {
        "name": "Fond Bassin Bleu",
        "latitude": 19.79445,
        "longitude": -72.79949
    },
    {
        "name": "Jean-Rabel",
        "latitude": 19.85379,
        "longitude": -73.19131
    },
    {
        "name": "M\u00f4le Saint-Nicolas",
        "latitude": 19.807,
        "longitude": -73.37605
    },
    {
        "name": "Petite Anse",
        "latitude": 19.63011,
        "longitude": -73.15499
    },
    {
        "name": "Port-de-Paix",
        "latitude": 19.93984,
        "longitude": -72.83037
    },
    {
        "name": "Saint-Louis du Nord",
        "latitude": 19.93397,
        "longitude": -72.72138
    },
    {
        "name": "Ti Port-de-Paix",
        "latitude": 19.93333,
        "longitude": -72.83333
    },
    {
        "name": "Anse \u00e0 Galets",
        "latitude": 18.83449,
        "longitude": -72.86644
    },
    {
        "name": "Arcahaie",
        "latitude": 18.83333,
        "longitude": -72.41667
    },
    {
        "name": "Arrondissement de Croix des Bouquets",
        "latitude": 18.48333,
        "longitude": -72.01667
    },
    {
        "name": "Arrondissement de L\u00e9og\u00e2ne",
        "latitude": 18.41667,
        "longitude": -72.75
    },
    {
        "name": "Arrondissement de Port-au-Prince",
        "latitude": 18.5,
        "longitude": -72.36667
    },
    {
        "name": "Cabaret",
        "latitude": 18.73582,
        "longitude": -72.41929
    },
    {
        "name": "Carrefour",
        "latitude": 18.54114,
        "longitude": -72.39922
    },
    {
        "name": "Cornillon",
        "latitude": 18.67546,
        "longitude": -71.95271
    },
    {
        "name": "Croix-des-Bouquets",
        "latitude": 18.57677,
        "longitude": -72.22625
    },
    {
        "name": "Delmas 73",
        "latitude": 18.54472,
        "longitude": -72.30278
    },
    {
        "name": "Fond Parisien",
        "latitude": 18.50547,
        "longitude": -71.98122
    },
    {
        "name": "Fonds Verrettes",
        "latitude": 18.39566,
        "longitude": -71.85634
    },
    {
        "name": "Grangwav",
        "latitude": 18.4259,
        "longitude": -72.76995
    },
    {
        "name": "Gressier",
        "latitude": 18.54091,
        "longitude": -72.52679
    },
    {
        "name": "Kenscoff",
        "latitude": 18.44773,
        "longitude": -72.28398
    },
    {
        "name": "Lagonav",
        "latitude": 18.85,
        "longitude": -73.05
    },
    {
        "name": "L\u00e9og\u00e2ne",
        "latitude": 18.5111,
        "longitude": -72.63343
    },
    {
        "name": "P\u00e9tionville",
        "latitude": 18.5125,
        "longitude": -72.28528
    },
    {
        "name": "Port-au-Prince",
        "latitude": 18.54349,
        "longitude": -72.33881
    },
    {
        "name": "Thomazeau",
        "latitude": 18.65297,
        "longitude": -72.09391
    },
    {
        "name": "Tigwav",
        "latitude": 18.43117,
        "longitude": -72.86521
    },
    {
        "name": "Aquin",
        "latitude": 18.27974,
        "longitude": -73.39433
    },
    {
        "name": "Arrondissement de Port-Salut",
        "latitude": 18.13333,
        "longitude": -73.9
    },
    {
        "name": "Arrondissement des Cayes",
        "latitude": 18.3,
        "longitude": -73.83333
    },
    {
        "name": "Cavaillon",
        "latitude": 18.29987,
        "longitude": -73.65455
    },
    {
        "name": "Chantal",
        "latitude": 18.20169,
        "longitude": -73.88957
    },
    {
        "name": "Chardonni\u00e8re",
        "latitude": 18.27484,
        "longitude": -74.16613
    },
    {
        "name": "Fond des Blancs",
        "latitude": 18.27782,
        "longitude": -73.12733
    },
    {
        "name": "Koto",
        "latitude": 18.20601,
        "longitude": -74.04013
    },
    {
        "name": "Les Anglais",
        "latitude": 18.3054,
        "longitude": -74.21968
    },
    {
        "name": "Les Cayes",
        "latitude": 18.19331,
        "longitude": -73.74601
    },
    {
        "name": "Port-\u00e0-Piment",
        "latitude": 18.24963,
        "longitude": -74.0971
    },
    {
        "name": "Roche-\u00e0-Bateau",
        "latitude": 18.18182,
        "longitude": -74.00345
    },
    {
        "name": "Saint-Louis du Sud",
        "latitude": 18.26241,
        "longitude": -73.54603
    },
    {
        "name": "Tiburon",
        "latitude": 18.32589,
        "longitude": -74.39598
    },
    {
        "name": "Torbeck",
        "latitude": 18.16338,
        "longitude": -73.80949
    },
    {
        "name": "Anse-\u00e0-Pitre",
        "latitude": 18.05,
        "longitude": -71.75
    },
    {
        "name": "Arrondissement de Bainet",
        "latitude": 18.25,
        "longitude": -72.85
    },
    {
        "name": "Arrondissement de Jacmel",
        "latitude": 18.33333,
        "longitude": -72.5
    },
    {
        "name": "Belle-Anse",
        "latitude": 18.23768,
        "longitude": -72.06638
    },
    {
        "name": "Cayes-Jacmel",
        "latitude": 18.2311,
        "longitude": -72.39545
    },
    {
        "name": "Jacmel",
        "latitude": 18.23427,
        "longitude": -72.53539
    },
    {
        "name": "Kotdef\u00e8",
        "latitude": 18.18872,
        "longitude": -73.00287
    },
    {
        "name": "Marigot",
        "latitude": 18.23167,
        "longitude": -72.32289
    },
    {
        "name": "Thiotte",
        "latitude": 18.24384,
        "longitude": -71.84157
    }
]