[
    {
        "name": "\u2018Anah",
        "latitude": 34.36857,
        "longitude": 41.98194
    },
    {
        "name": "\u2018Anat al Qad\u012bmah",
        "latitude": 34.46934,
        "longitude": 41.94223
    },
    {
        "name": "Al Fall\u016bjah",
        "latitude": 33.34913,
        "longitude": 43.78599
    },
    {
        "name": "Ar Ru\u0163bah",
        "latitude": 33.03718,
        "longitude": 40.28586
    },
    {
        "name": "\u1e28ad\u012bthah",
        "latitude": 34.13661,
        "longitude": 42.37727
    },
    {
        "name": "H\u012bt",
        "latitude": 33.63664,
        "longitude": 42.82768
    },
    {
        "name": "H\u012bt District",
        "latitude": 33.73482,
        "longitude": 42.68228
    },
    {
        "name": "Ramadi",
        "latitude": 33.42056,
        "longitude": 43.30778
    },
    {
        "name": "R\u0101wah",
        "latitude": 34.48229,
        "longitude": 41.91898
    },
    {
        "name": "Ar Rumaythah",
        "latitude": 31.52845,
        "longitude": 45.20377
    },
    {
        "name": "As Samawah",
        "latitude": 31.33198,
        "longitude": 45.2944
    },
    {
        "name": "\u2018Afak",
        "latitude": 32.0643,
        "longitude": 45.24743
    },
    {
        "name": "Ad D\u012bw\u0101n\u012byah",
        "latitude": 31.99289,
        "longitude": 44.92552
    },
    {
        "name": "Ash Sh\u0101m\u012byah",
        "latitude": 31.96257,
        "longitude": 44.60075
    },
    {
        "name": "N\u0101\u1e29iyat ash Shin\u0101f\u012byah",
        "latitude": 31.58376,
        "longitude": 44.64675
    },
    {
        "name": "Nahiyat Ghammas",
        "latitude": 31.74311,
        "longitude": 44.6196
    },
    {
        "name": "Al \u1e28illah",
        "latitude": 32.46367,
        "longitude": 44.41963
    },
    {
        "name": "Al Musayyib",
        "latitude": 32.77872,
        "longitude": 44.29005
    },
    {
        "name": "Imam Qasim",
        "latitude": 32.29799,
        "longitude": 44.68282
    },
    {
        "name": "N\u0101\u1e29\u012byat Saddat al Hind\u012byah",
        "latitude": 32.71557,
        "longitude": 44.27857
    },
    {
        "name": "Abu Ghraib District",
        "latitude": 33.29194,
        "longitude": 44.06919
    },
    {
        "name": "Ab\u016b Ghurayb",
        "latitude": 33.30563,
        "longitude": 44.18477
    },
    {
        "name": "Adamiyah",
        "latitude": 33.369178,
        "longitude": 44.3395594
    },
    {
        "name": "Al Adel",
        "latitude": 33.3591283,
        "longitude": 44.2813868
    },
    {
        "name": "Al Baladiyat",
        "latitude": 33.3493161,
        "longitude": 44.4107153
    },
    {
        "name": "Al Jamaa",
        "latitude": 33.3411447,
        "longitude": 44.3406269
    },
    {
        "name": "Al Saadoon Park",
        "latitude": 33.3248036,
        "longitude": 44.4147098
    },
    {
        "name": "Al Salhiah",
        "latitude": 33.3225401,
        "longitude": 44.3842505
    },
    {
        "name": "Al Za'franiya",
        "latitude": 33.3185775,
        "longitude": 44.4868639
    },
    {
        "name": "Al-Ubaidi",
        "latitude": 33.3203603,
        "longitude": 44.4595591
    },
    {
        "name": "Al-Wahda",
        "latitude": 33.3111582,
        "longitude": 44.4335228
    },
    {
        "name": "Ameria",
        "latitude": 33.2967102,
        "longitude": 44.2707679
    },
    {
        "name": "Amil District",
        "latitude": 33.2760609,
        "longitude": 44.3103717
    },
    {
        "name": "Amin",
        "latitude": 33.3124874,
        "longitude": 44.4863415
    },
    {
        "name": "Arasat AlHindiya",
        "latitude": 33.2933579,
        "longitude": 44.4230245
    },
    {
        "name": "At Taifiya",
        "latitude": 33.3564394,
        "longitude": 44.357911
    },
    {
        "name": "Bab Al Moatham",
        "latitude": 33.3601417,
        "longitude": 44.365077
    },
    {
        "name": "Bab Al Sharqi",
        "latitude": 33.3324906,
        "longitude": 44.4140791
    },
    {
        "name": "Baghdad",
        "latitude": 33.34058,
        "longitude": 44.40088
    },
    {
        "name": "Baghdad Al Jadeeda",
        "latitude": 33.3133544,
        "longitude": 44.4715792
    },
    {
        "name": "Baijai",
        "latitude": 33.33254,
        "longitude": 44.3450955
    },
    {
        "name": "Bataween",
        "latitude": 33.3211235,
        "longitude": 44.4085568
    },
    {
        "name": "Bayaa",
        "latitude": 33.2825544,
        "longitude": 44.3752803
    },
    {
        "name": "Binouk",
        "latitude": 33.3927812,
        "longitude": 44.4111448
    },
    {
        "name": "Bo'aitha",
        "latitude": 33.2419463,
        "longitude": 44.4269509
    },
    {
        "name": "Camp Sarah",
        "latitude": 33.3011293,
        "longitude": 44.444696
    },
    {
        "name": "Daoudi",
        "latitude": 33.3121403,
        "longitude": 44.3258482
    },
    {
        "name": "Dora",
        "latitude": 33.2312686,
        "longitude": 44.3619812
    },
    {
        "name": "Ghadeer",
        "latitude": 33.3374974,
        "longitude": 44.4628184
    },
    {
        "name": "Ghazaliya",
        "latitude": 33.3414353,
        "longitude": 44.2235442
    },
    {
        "name": "Gherai'at",
        "latitude": 33.3920837,
        "longitude": 44.3044314
    },
    {
        "name": "Green Zone",
        "latitude": 33.313761,
        "longitude": 44.3590056
    },
    {
        "name": "Habibiya",
        "latitude": 33.3392027,
        "longitude": 44.4684612
    },
    {
        "name": "Harthiya",
        "latitude": 33.2262612,
        "longitude": 44.3982675
    },
    {
        "name": "Hurriya",
        "latitude": 33.3424187,
        "longitude": 44.306563
    },
    {
        "name": "Iskan",
        "latitude": 33.3340593,
        "longitude": 44.323031
    },
    {
        "name": "Jadriyah",
        "latitude": 33.2607636,
        "longitude": 44.411172
    },
    {
        "name": "Jamila",
        "latitude": 33.3510884,
        "longitude": 44.414956
    },
    {
        "name": "Jihad",
        "latitude": 33.252892,
        "longitude": 44.2923118
    },
    {
        "name": "Kadhimiya",
        "latitude": 33.3812961,
        "longitude": 44.3513918
    },
    {
        "name": "Kamaliyah",
        "latitude": 33.3500848,
        "longitude": 44.5089411
    },
    {
        "name": "Karada",
        "latitude": 33.2933661,
        "longitude": 44.3964153
    },
    {
        "name": "Khadra",
        "latitude": 33.3197247,
        "longitude": 44.287647
    },
    {
        "name": "Mansour",
        "latitude": 33.3142296,
        "longitude": 44.3363123
    },
    {
        "name": "Mashtal",
        "latitude": 33.3244321,
        "longitude": 44.4931483
    },
    {
        "name": "Mustansiriya",
        "latitude": 33.3629892,
        "longitude": 44.3869543
    },
    {
        "name": "Qadisiyah",
        "latitude": 33.3271963,
        "longitude": 44.3162384
    },
    {
        "name": "Sadr City",
        "latitude": 33.3769233,
        "longitude": 44.4044638
    },
    {
        "name": "Saidiya",
        "latitude": 33.2650093,
        "longitude": 44.3315934
    },
    {
        "name": "Sha'ab",
        "latitude": 33.413091,
        "longitude": 44.3861103
    },
    {
        "name": "Sheik Maaruf",
        "latitude": 33.3389601,
        "longitude": 44.3478958
    },
    {
        "name": "Shorjah",
        "latitude": 33.3461394,
        "longitude": 44.3950442
    },
    {
        "name": "Suleikh",
        "latitude": 33.3934332,
        "longitude": 44.361445
    },
    {
        "name": "Ur District",
        "latitude": 33.41694,
        "longitude": 44.3906079
    },
    {
        "name": "Wazireya",
        "latitude": 33.3636617,
        "longitude": 44.3819655
    },
    {
        "name": "Yarmouk",
        "latitude": 33.3393836,
        "longitude": 44.3221252
    },
    {
        "name": "Ziyouna",
        "latitude": 33.3248434,
        "longitude": 44.454546
    },
    {
        "name": "Al Ba\u015frah al Qad\u012bmah",
        "latitude": 30.50316,
        "longitude": 47.81507
    },
    {
        "name": "Al F\u0101w",
        "latitude": 29.97421,
        "longitude": 48.47309
    },
    {
        "name": "Al H\u0101rithah",
        "latitude": 30.58481,
        "longitude": 47.76114
    },
    {
        "name": "Az Zubayr",
        "latitude": 30.39213,
        "longitude": 47.70175
    },
    {
        "name": "Basrah",
        "latitude": 30.50852,
        "longitude": 47.7804
    },
    {
        "name": "Umm Qa\u015fr",
        "latitude": 30.0362,
        "longitude": 47.91951
    },
    {
        "name": "Ash Sha\u0163rah",
        "latitude": 31.40906,
        "longitude": 46.1727
    },
    {
        "name": "N\u0101\u1e29iyat al Fuh\u016bd",
        "latitude": 30.96972,
        "longitude": 46.72278
    },
    {
        "name": "Nasiriyah",
        "latitude": 31.05799,
        "longitude": 46.25726
    },
    {
        "name": "Al Miqd\u0101d\u012byah",
        "latitude": 33.97861,
        "longitude": 44.93694
    },
    {
        "name": "Baladr\u016bz",
        "latitude": 33.69631,
        "longitude": 45.07782
    },
    {
        "name": "Baqubah",
        "latitude": 33.75403,
        "longitude": 44.60518
    },
    {
        "name": "Kh\u0101li\u015f",
        "latitude": 33.80809,
        "longitude": 44.53343
    },
    {
        "name": "Kifr\u012b",
        "latitude": 34.68963,
        "longitude": 44.96057
    },
    {
        "name": "Mandal\u012b",
        "latitude": 33.7481,
        "longitude": 45.55503
    },
    {
        "name": "Qa\u1e11\u0101\u2019 Kifr\u012b",
        "latitude": 34.52289,
        "longitude": 44.85821
    },
    {
        "name": "Al \u2018Am\u0101d\u012byah",
        "latitude": 37.09214,
        "longitude": 43.48769
    },
    {
        "name": "Batifa",
        "latitude": 37.17454,
        "longitude": 43.01233
    },
    {
        "name": "Dihok",
        "latitude": 36.86709,
        "longitude": 42.98845
    },
    {
        "name": "S\u012bnah",
        "latitude": 36.80851,
        "longitude": 43.03935
    },
    {
        "name": "Zaxo",
        "latitude": 37.14871,
        "longitude": 42.68591
    },
    {
        "name": "Arbil",
        "latitude": 36.1907,
        "longitude": 44.00947
    },
    {
        "name": "Erbil",
        "latitude": 36.18333,
        "longitude": 44.01193
    },
    {
        "name": "Koysinceq",
        "latitude": 36.08289,
        "longitude": 44.62873
    },
    {
        "name": "Ruw\u0101ndiz",
        "latitude": 36.61207,
        "longitude": 44.52372
    },
    {
        "name": "Shaql\u0101wah",
        "latitude": 36.40422,
        "longitude": 44.32563
    },
    {
        "name": "Soran",
        "latitude": 36.6532,
        "longitude": 44.54407
    },
    {
        "name": "Al Hind\u012byah",
        "latitude": 32.54671,
        "longitude": 44.22765
    },
    {
        "name": "Karbala",
        "latitude": 32.61603,
        "longitude": 44.02488
    },
    {
        "name": "Kirkuk",
        "latitude": 35.46806,
        "longitude": 44.39222
    },
    {
        "name": "\u2018Al\u012b al Gharb\u012b",
        "latitude": 32.46186,
        "longitude": 46.68794
    },
    {
        "name": "Al \u2018Am\u0101rah",
        "latitude": 31.83561,
        "longitude": 47.14483
    },
    {
        "name": "Al-Mejar Al-Kabi District",
        "latitude": 31.4294,
        "longitude": 47.20355
    },
    {
        "name": "Al Mishkh\u0101b",
        "latitude": 31.80437,
        "longitude": 44.4893
    },
    {
        "name": "Kufa",
        "latitude": 32.05114,
        "longitude": 44.44017
    },
    {
        "name": "Najaf",
        "latitude": 32.02594,
        "longitude": 44.34625
    },
    {
        "name": "\u2018Aqrah",
        "latitude": 36.76038,
        "longitude": 43.89428
    },
    {
        "name": "Al Maw\u015fil al Jad\u012bdah",
        "latitude": 36.33271,
        "longitude": 43.10555
    },
    {
        "name": "Al-Hamdaniya",
        "latitude": 36.27093,
        "longitude": 43.37758
    },
    {
        "name": "Ash Shaykh\u0101n",
        "latitude": 36.69595,
        "longitude": 43.35202
    },
    {
        "name": "Mosul",
        "latitude": 36.335,
        "longitude": 43.11889
    },
    {
        "name": "Sinjar",
        "latitude": 36.29548,
        "longitude": 41.89315
    },
    {
        "name": "Tall \u2018Afar",
        "latitude": 36.37913,
        "longitude": 42.44806
    },
    {
        "name": "Tallkayf",
        "latitude": 36.49118,
        "longitude": 43.12114
    },
    {
        "name": "Ad Dujayl",
        "latitude": 33.84667,
        "longitude": 44.23444
    },
    {
        "name": "Balad",
        "latitude": 34.01485,
        "longitude": 44.14574
    },
    {
        "name": "Bayj\u012b",
        "latitude": 34.92915,
        "longitude": 43.48878
    },
    {
        "name": "S\u0101marr\u0101\u2019",
        "latitude": 34.1959,
        "longitude": 43.88568
    },
    {
        "name": "Tikr\u012bt",
        "latitude": 34.61581,
        "longitude": 43.67861
    },
    {
        "name": "Tozkhurmato",
        "latitude": 34.88808,
        "longitude": 44.63256
    },
    {
        "name": "As Sulaym\u0101n\u012byah",
        "latitude": 35.56496,
        "longitude": 45.4329
    },
    {
        "name": "Baynjiwayn",
        "latitude": 35.62054,
        "longitude": 45.94908
    },
    {
        "name": "\u1e28alabjah",
        "latitude": 35.17778,
        "longitude": 45.98611
    },
    {
        "name": "Jamjam\u0101l",
        "latitude": 35.53356,
        "longitude": 44.8343
    },
    {
        "name": "Al \u2018Az\u012bz\u012byah",
        "latitude": 32.90941,
        "longitude": 45.06359
    },
    {
        "name": "Al \u1e28ayy",
        "latitude": 32.17419,
        "longitude": 46.04345
    },
    {
        "name": "Al K\u016bt",
        "latitude": 32.5128,
        "longitude": 45.81817
    },
    {
        "name": "A\u015f \u015euwayrah",
        "latitude": 32.92556,
        "longitude": 44.77583
    }
]