[
    {
        "name": "Аббатеджио",
        "latitude": 42.22421,
        "longitude": 14.01001
    },
    {
        "name": "Ачиано",
        "latitude": 42.17677,
        "longitude": 13.71783
    },
    {
        "name": "Яйца",
        "latitude": 42.08146,
        "longitude": 13.59113
    },
    {
        "name": "Алан",
        "latitude": 42.29552,
        "longitude": 13.97084
    },
    {
        "name": "Адриатический рассвет",
        "latitude": 42.83176,
        "longitude": 13.9259
    },
    {
        "name": "Альфедена",
        "latitude": 41.73545,
        "longitude": 14.035
    },
    {
        "name": "Альтино",
        "latitude": 42.09954,
        "longitude": 14.33267
    },
    {
        "name": "Анкара",
        "latitude": 42.83767,
        "longitude": 13.74662
    },
    {
        "name": "Антверпен Абруцци",
        "latitude": 41.99478,
        "longitude": 13.80379
    },
    {
        "name": "Арчи",
        "latitude": 42.09135,
        "longitude": 14.3827
    },
    {
        "name": "Ари",
        "latitude": 42.28967,
        "longitude": 14.25856
    },
    {
        "name": "Ариэль",
        "latitude": 42.26003,
        "longitude": 14.31004
    },
    {
        "name": "Арсита",
        "latitude": 42.50266,
        "longitude": 13.78516
    },
    {
        "name": "легкая атлетика",
        "latitude": 41.85435,
        "longitude": 14.19806
    },
    {
        "name": "Атесса",
        "latitude": 42.07018,
        "longitude": 14.45049
    },
    {
        "name": "Атри",
        "latitude": 42.57642,
        "longitude": 13.98899
    },
    {
        "name": "Авеццано",
        "latitude": 42.02896,
        "longitude": 13.42641
    },
    {
        "name": "Бальсорано",
        "latitude": 41.80982,
        "longitude": 13.5598
    },
    {
        "name": "Бальсорано Нуово",
        "latitude": 41.80881,
        "longitude": 13.56069
    },
    {
        "name": "Барбери",
        "latitude": 42.44072,
        "longitude": 14.04268
    },
    {
        "name": "Купальник",
        "latitude": 42.45009,
        "longitude": 13.28061
    },
    {
        "name": "Баришано",
        "latitude": 42.32465,
        "longitude": 13.59036
    },
    {
        "name": "Смех",
        "latitude": 41.75543,
        "longitude": 13.99095
    },
    {
        "name": "Башиано",
        "latitude": 42.59639,
        "longitude": 13.73561
    },
    {
        "name": "Борясь",
        "latitude": 42.74421,
        "longitude": 13.80234
    },
    {
        "name": "Станция Белланте",
        "latitude": 42.7065,
        "longitude": 13.83953
    },
    {
        "name": "Бисенья",
        "latitude": 41.92113,
        "longitude": 13.7576
    },
    {
        "name": "Бисенти",
        "latitude": 42.52883,
        "longitude": 13.7995
    },
    {
        "name": "Болоньяно",
        "latitude": 42.21814,
        "longitude": 13.96011
    },
    {
        "name": "Бомба",
        "latitude": 42.03343,
        "longitude": 14.36656
    },
    {
        "name": "Борго Санта-Мария-Иммаколата",
        "latitude": 42.61172,
        "longitude": 14.04553
    },
    {
        "name": "Боррелло",
        "latitude": 41.9173,
        "longitude": 14.30535
    },
    {
        "name": "Бриттоли",
        "latitude": 42.31518,
        "longitude": 13.86026
    },
    {
        "name": "Буккьянико",
        "latitude": 42.30368,
        "longitude": 14.18377
    },
    {
        "name": "БУГНАР",
        "latitude": 42.02383,
        "longitude": 13.86141
    },
    {
        "name": "Бусси-суль-Тирино",
        "latitude": 42.21321,
        "longitude": 13.82511
    },
    {
        "name": "Каньяно Амитерно",
        "latitude": 42.45744,
        "longitude": 13.22789
    },
    {
        "name": "Каласио",
        "latitude": 42.32595,
        "longitude": 13.69699
    },
    {
        "name": "Кампли",
        "latitude": 42.72679,
        "longitude": 13.68692
    },
    {
        "name": "Лагерь Юпитера",
        "latitude": 42.01013,
        "longitude": 14.03941
    },
    {
        "name": "Кампотосто",
        "latitude": 42.55884,
        "longitude": 13.36799
    },
    {
        "name": "Нижняя корзина",
        "latitude": 41.94101,
        "longitude": 13.41194
    },
    {
        "name": "Каноса Саннита",
        "latitude": 42.29629,
        "longitude": 14.30514
    },
    {
        "name": "Усталый",
        "latitude": 42.0035,
        "longitude": 14.01341
    },
    {
        "name": "Канзано",
        "latitude": 42.64564,
        "longitude": 13.8041
    },
    {
        "name": "Капестрано",
        "latitude": 42.26807,
        "longitude": 13.76779
    },
    {
        "name": "Капистрелло",
        "latitude": 41.97223,
        "longitude": 13.39616
    },
    {
        "name": "Капитиньяно",
        "latitude": 42.52041,
        "longitude": 13.30122
    },
    {
        "name": "Капорчано",
        "latitude": 42.25001,
        "longitude": 13.67455
    },
    {
        "name": "Каппадокия",
        "latitude": 42.00755,
        "longitude": 13.27806
    },
    {
        "name": "Часовни на Таво",
        "latitude": 42.47709,
        "longitude": 14.10735
    },
    {
        "name": "Караманико-Терме",
        "latitude": 42.15593,
        "longitude": 14.0048
    },
    {
        "name": "Карапелье Кальвизио",
        "latitude": 42.29908,
        "longitude": 13.68643
    },
    {
        "name": "Карпинето делла Нора",
        "latitude": 42.33365,
        "longitude": 13.86062
    },
    {
        "name": "Карпинето Синелло",
        "latitude": 42.01044,
        "longitude": 14.50418
    },
    {
        "name": "Карсоли",
        "latitude": 42.09882,
        "longitude": 13.08856
    },
    {
        "name": "Карунчио",
        "latitude": 41.91761,
        "longitude": 14.52683
    },
    {
        "name": "Касакандителла",
        "latitude": 42.24643,
        "longitude": 14.2004
    },
    {
        "name": "Касалангида",
        "latitude": 42.03752,
        "longitude": 14.49613
    },
    {
        "name": "Казальбордино-Чудеса",
        "latitude": 42.15354,
        "longitude": 14.59912
    },
    {
        "name": "Казалинконтрада",
        "latitude": 42.29744,
        "longitude": 14.13511
    },
    {
        "name": "Казоли",
        "latitude": 42.61723,
        "longitude": 13.9791
    },
    {
        "name": "Кастель Кастанья",
        "latitude": 42.54294,
        "longitude": 13.7164
    },
    {
        "name": "Кастель-дель-Монте",
        "latitude": 42.36544,
        "longitude": 13.72592
    },
    {
        "name": "Замок вчерашнего дня",
        "latitude": 42.11353,
        "longitude": 13.742
    },
    {
        "name": "Кастель ди Сангро",
        "latitude": 41.78392,
        "longitude": 14.10653
    },
    {
        "name": "Кастель Френтано",
        "latitude": 42.19875,
        "longitude": 14.35643
    },
    {
        "name": "Кастельгидон",
        "latitude": 41.82258,
        "longitude": 14.52286
    },
    {
        "name": "Кастеллафиуме",
        "latitude": 41.98913,
        "longitude": 13.3344
    },
    {
        "name": "Кастельальто",
        "latitude": 42.67705,
        "longitude": 13.82101
    },
    {
        "name": "Кастелли",
        "latitude": 42.48476,
        "longitude": 13.71201
    },
    {
        "name": "Кастельнуово Вомано",
        "latitude": 42.62933,
        "longitude": 13.85003
    },
    {
        "name": "Кастельвеккьо Кальвизио",
        "latitude": 42.31134,
        "longitude": 13.6872
    },
    {
        "name": "Кастельвеккьо Субеко",
        "latitude": 42.12881,
        "longitude": 13.72868
    },
    {
        "name": "Кастильоне в Казаурии",
        "latitude": 42.23601,
        "longitude": 13.89832
    },
    {
        "name": "Кастильоне Мессер Марино",
        "latitude": 41.86833,
        "longitude": 14.44996
    },
    {
        "name": "Кастильоне Мессер Раймондо",
        "latitude": 42.53194,
        "longitude": 13.87953
    },
    {
        "name": "кастильский",
        "latitude": 42.53334,
        "longitude": 13.9171
    },
    {
        "name": "Катиньяно",
        "latitude": 42.34697,
        "longitude": 13.9519
    },
    {
        "name": "Челано",
        "latitude": 42.08077,
        "longitude": 13.517
    },
    {
        "name": "Челенца-суль-Триньо",
        "latitude": 41.87198,
        "longitude": 14.57893
    },
    {
        "name": "Челлино Аттаназио",
        "latitude": 42.58574,
        "longitude": 13.8605
    },
    {
        "name": "Чепагатти",
        "latitude": 42.36506,
        "longitude": 14.07424
    },
    {
        "name": "Круг",
        "latitude": 42.06357,
        "longitude": 13.60006
    },
    {
        "name": "Черминьяно",
        "latitude": 42.59131,
        "longitude": 13.7954
    },
    {
        "name": "Серратин",
        "latitude": 42.39007,
        "longitude": 14.10338
    },
    {
        "name": "Кьети",
        "latitude": 42.34827,
        "longitude": 14.16494
    },
    {
        "name": "Город Сант-Анджело",
        "latitude": 42.51254,
        "longitude": 14.06203
    },
    {
        "name": "Чивита д'Антино",
        "latitude": 41.88629,
        "longitude": 13.47215
    },
    {
        "name": "Чивиталупарелла",
        "latitude": 41.9449,
        "longitude": 14.30135
    },
    {
        "name": "Город",
        "latitude": 42.32578,
        "longitude": 13.90012
    },
    {
        "name": "Чивителла Альфедена",
        "latitude": 41.76533,
        "longitude": 13.94271
    },
    {
        "name": "Чивителла Казанова",
        "latitude": 42.36391,
        "longitude": 13.88514
    },
    {
        "name": "Чивителла дель Тронто",
        "latitude": 42.77298,
        "longitude": 13.67626
    },
    {
        "name": "Чивителла Мессер Раймондо",
        "latitude": 42.08893,
        "longitude": 14.21701
    },
    {
        "name": "Чивителла Ровето",
        "latitude": 41.91329,
        "longitude": 13.42396
    },
    {
        "name": "рогоносец",
        "latitude": 42.03283,
        "longitude": 13.775
    },
    {
        "name": "Коллармеле",
        "latitude": 42.06031,
        "longitude": 13.6267
    },
    {
        "name": "Коллекорвино",
        "latitude": 42.46024,
        "longitude": 14.01564
    },
    {
        "name": "Колледара",
        "latitude": 42.53918,
        "longitude": 13.67556
    },
    {
        "name": "Колледимацин",
        "latitude": 42.0037,
        "longitude": 14.20079
    },
    {
        "name": "Колледимеццо",
        "latitude": 41.98606,
        "longitude": 14.3869
    },
    {
        "name": "Коллелонго",
        "latitude": 41.88659,
        "longitude": 13.5838
    },
    {
        "name": "Коллепьетро",
        "latitude": 42.22089,
        "longitude": 13.78101
    },
    {
        "name": "Коллеранеско",
        "latitude": 42.72112,
        "longitude": 13.93732
    },
    {
        "name": "Пляж Колоньи",
        "latitude": 42.72152,
        "longitude": 13.98311
    },
    {
        "name": "Полковник",
        "latitude": 42.8723,
        "longitude": 13.86987
    },
    {
        "name": "Я думаю",
        "latitude": 42.31248,
        "longitude": 13.4325
    },
    {
        "name": "Контрогерра",
        "latitude": 42.85398,
        "longitude": 13.81775
    },
    {
        "name": "Коппито",
        "latitude": 42.3673,
        "longitude": 13.34358
    },
    {
        "name": "Корфиниум",
        "latitude": 42.12149,
        "longitude": 13.8394
    },
    {
        "name": "Коррополи",
        "latitude": 42.8272,
        "longitude": 13.83471
    },
    {
        "name": "Кортино",
        "latitude": 42.62186,
        "longitude": 13.50774
    },
    {
        "name": "Корвара",
        "latitude": 42.27511,
        "longitude": 13.87363
    },
    {
        "name": "Креккьо",
        "latitude": 42.29778,
        "longitude": 14.32656
    },
    {
        "name": "Крогналето",
        "latitude": 42.58771,
        "longitude": 13.4889
    },
    {
        "name": "кузены",
        "latitude": 42.30692,
        "longitude": 13.9349
    },
    {
        "name": "Купелло",
        "latitude": 42.06936,
        "longitude": 14.67054
    },
    {
        "name": "Доглиола",
        "latitude": 41.94238,
        "longitude": 14.63507
    },
    {
        "name": "Пропеллер",
        "latitude": 42.52279,
        "longitude": 13.97071
    },
    {
        "name": "Неуспешный",
        "latitude": 41.93833,
        "longitude": 14.32362
    },
    {
        "name": "Фано Адриано",
        "latitude": 42.5523,
        "longitude": 13.53764
    },
    {
        "name": "Фара из сыновей Петра",
        "latitude": 42.24152,
        "longitude": 14.18026
    },
    {
        "name": "Фара Сан Мартино",
        "latitude": 42.09248,
        "longitude": 14.20896
    },
    {
        "name": "Фариндола",
        "latitude": 42.44292,
        "longitude": 13.82137
    },
    {
        "name": "филе",
        "latitude": 42.22931,
        "longitude": 14.24501
    },
    {
        "name": "Фонте Умано-Сан-Мартино-Альта",
        "latitude": 42.52084,
        "longitude": 14.1076
    },
    {
        "name": "Фонтеккьо",
        "latitude": 42.23027,
        "longitude": 13.60613
    },
    {
        "name": "Фосса",
        "latitude": 42.29273,
        "longitude": 13.48779
    },
    {
        "name": "Фоссацезия",
        "latitude": 42.24198,
        "longitude": 14.48339
    },
    {
        "name": "Фрейн",
        "latitude": 41.90624,
        "longitude": 14.48788
    },
    {
        "name": "Франкавилла-аль-Маре",
        "latitude": 42.42158,
        "longitude": 14.28217
    },
    {
        "name": "Фресаграндинария",
        "latitude": 41.979,
        "longitude": 14.66211
    },
    {
        "name": "Подчеркивать",
        "latitude": 42.26572,
        "longitude": 14.37625
    },
    {
        "name": "Признание",
        "latitude": 42.00746,
        "longitude": 14.58802
    },
    {
        "name": "Гальяно Атерно",
        "latitude": 42.12598,
        "longitude": 13.70023
    },
    {
        "name": "Креветка",
        "latitude": 41.90529,
        "longitude": 14.20845
    },
    {
        "name": "Гессопалена",
        "latitude": 42.05521,
        "longitude": 14.27367
    },
    {
        "name": "Радость Марси",
        "latitude": 41.95697,
        "longitude": 13.69057
    },
    {
        "name": "Гисси",
        "latitude": 42.01803,
        "longitude": 14.54484
    },
    {
        "name": "Джулиано Театино",
        "latitude": 42.3122,
        "longitude": 14.28082
    },
    {
        "name": "Джулианова",
        "latitude": 42.75381,
        "longitude": 13.9665
    },
    {
        "name": "Гориано Сиколи",
        "latitude": 42.08011,
        "longitude": 13.77459
    },
    {
        "name": "Гуардиагреле",
        "latitude": 42.19406,
        "longitude": 14.21939
    },
    {
        "name": "Гильми",
        "latitude": 41.99653,
        "longitude": 14.47882
    },
    {
        "name": "Налоги",
        "latitude": 42.68634,
        "longitude": 13.52829
    },
    {
        "name": "Интродаква",
        "latitude": 42.00968,
        "longitude": 13.89779
    },
    {
        "name": "Остров Гран-Сассо в Италии.",
        "latitude": 42.50324,
        "longitude": 13.65721
    },
    {
        "name": "Орел",
        "latitude": 42.35055,
        "longitude": 13.39954
    },
    {
        "name": "Клинок Пелини",
        "latitude": 42.04214,
        "longitude": 14.18678
    },
    {
        "name": "Они бросают",
        "latitude": 42.22718,
        "longitude": 14.39024
    },
    {
        "name": "Лечче Ней Марси",
        "latitude": 41.93436,
        "longitude": 13.6843
    },
    {
        "name": "Лентелла",
        "latitude": 41.99576,
        "longitude": 14.67692
    },
    {
        "name": "Ручка кровати",
        "latitude": 42.24336,
        "longitude": 14.03843
    },
    {
        "name": "Кровать Палена",
        "latitude": 42.00251,
        "longitude": 14.15652
    },
    {
        "name": "Гладкий",
        "latitude": 41.95524,
        "longitude": 14.55532
    },
    {
        "name": "Лорето Апрутино",
        "latitude": 42.43104,
        "longitude": 13.98057
    },
    {
        "name": "Луко деи Марси",
        "latitude": 41.95925,
        "longitude": 13.47349
    },
    {
        "name": "Луколи",
        "latitude": 42.29093,
        "longitude": 13.33799
    },
    {
        "name": "Мальяно Де'Марси",
        "latitude": 42.09153,
        "longitude": 13.36379
    },
    {
        "name": "Манопелло",
        "latitude": 42.25918,
        "longitude": 14.06024
    },
    {
        "name": "Манопелло Скало",
        "latitude": 42.30762,
        "longitude": 14.05363
    },
    {
        "name": "Марина Сан Вито",
        "latitude": 42.30514,
        "longitude": 14.44844
    },
    {
        "name": "Марина ди Васто",
        "latitude": 42.09373,
        "longitude": 14.72683
    },
    {
        "name": "Мартинсикуро",
        "latitude": 42.88031,
        "longitude": 13.91326
    },
    {
        "name": "Масса Альбе-Короны",
        "latitude": 42.10723,
        "longitude": 13.39429
    },
    {
        "name": "Мильянико",
        "latitude": 42.35773,
        "longitude": 14.29179
    },
    {
        "name": "Молина Атерно",
        "latitude": 42.14903,
        "longitude": 13.7354
    },
    {
        "name": "Монтаццоли",
        "latitude": 41.94887,
        "longitude": 14.43069
    },
    {
        "name": "Монтебелло ди Бертона",
        "latitude": 42.41686,
        "longitude": 13.87119
    },
    {
        "name": "Монтебелло-суль-Сангро",
        "latitude": 41.98663,
        "longitude": 14.32402
    },
    {
        "name": "Монтеферранте",
        "latitude": 41.95396,
        "longitude": 14.38856
    },
    {
        "name": "Монтефино",
        "latitude": 42.54551,
        "longitude": 13.88479
    },
    {
        "name": "Монтелапиано",
        "latitude": 41.96267,
        "longitude": 14.34212
    },
    {
        "name": "Монтенеродомо",
        "latitude": 41.97682,
        "longitude": 14.25177
    },
    {
        "name": "Монтеодоризио",
        "latitude": 42.08485,
        "longitude": 14.65386
    },
    {
        "name": "Монтреале",
        "latitude": 42.52332,
        "longitude": 13.24585
    },
    {
        "name": "Монтесильвано Марина",
        "latitude": 42.5114,
        "longitude": 14.14507
    },
    {
        "name": "Монтиккьо",
        "latitude": 42.32035,
        "longitude": 13.46382
    },
    {
        "name": "Монторио аль Вомано",
        "latitude": 42.58123,
        "longitude": 13.63715
    },
    {
        "name": "Морино",
        "latitude": 41.86442,
        "longitude": 13.457
    },
    {
        "name": "Морро д'Оро",
        "latitude": 42.66291,
        "longitude": 13.92129
    },
    {
        "name": "Мошано Сант-Анджело",
        "latitude": 42.747,
        "longitude": 13.88891
    },
    {
        "name": "Москуфо",
        "latitude": 42.42713,
        "longitude": 14.05434
    },
    {
        "name": "Моццагронья",
        "latitude": 42.21267,
        "longitude": 14.44258
    },
    {
        "name": "Навелли",
        "latitude": 42.23721,
        "longitude": 13.72961
    },
    {
        "name": "Непеццано",
        "latitude": 42.68994,
        "longitude": 13.7565
    },
    {
        "name": "Сеть",
        "latitude": 42.81548,
        "longitude": 13.81989
    },
    {
        "name": "Нерито",
        "latitude": 42.54763,
        "longitude": 13.47759
    },
    {
        "name": "Ноччано",
        "latitude": 42.33366,
        "longitude": 13.98571
    },
    {
        "name": "Нотариальный",
        "latitude": 42.65742,
        "longitude": 13.89491
    },
    {
        "name": "Промышленный центр Баццано",
        "latitude": 42.33623,
        "longitude": 13.46755
    },
    {
        "name": "Офена",
        "latitude": 42.32536,
        "longitude": 13.75864
    },
    {
        "name": "Опи",
        "latitude": 41.77838,
        "longitude": 13.82932
    },
    {
        "name": "Орикола",
        "latitude": 42.04922,
        "longitude": 13.03939
    },
    {
        "name": "Орсонья",
        "latitude": 42.22344,
        "longitude": 14.28085
    },
    {
        "name": "Ортона",
        "latitude": 42.35087,
        "longitude": 14.40342
    },
    {
        "name": "Ортона дей Марси",
        "latitude": 41.9982,
        "longitude": 13.72909
    },
    {
        "name": "Ортуччио",
        "latitude": 41.95525,
        "longitude": 13.64651
    },
    {
        "name": "Овиндоли",
        "latitude": 42.13765,
        "longitude": 13.51603
    },
    {
        "name": "Пацентро",
        "latitude": 42.05043,
        "longitude": 13.99151
    },
    {
        "name": "Паганика-Темпера",
        "latitude": 42.35715,
        "longitude": 13.47138
    },
    {
        "name": "Солома",
        "latitude": 42.64372,
        "longitude": 13.95171
    },
    {
        "name": "Паглиета",
        "latitude": 42.16139,
        "longitude": 14.50306
    },
    {
        "name": "Ограничение",
        "latitude": 41.98353,
        "longitude": 14.13696
    },
    {
        "name": "Палмоли",
        "latitude": 41.93944,
        "longitude": 14.58142
    },
    {
        "name": "дайвер",
        "latitude": 42.12323,
        "longitude": 14.22989
    },
    {
        "name": "Пенна Сант'Андреа",
        "latitude": 42.59403,
        "longitude": 13.77215
    },
    {
        "name": "Пеннадомо",
        "latitude": 42.00394,
        "longitude": 14.32338
    },
    {
        "name": "Пеннапьедимонте",
        "latitude": 42.15563,
        "longitude": 14.19432
    },
    {
        "name": "Пенне",
        "latitude": 42.45474,
        "longitude": 13.92754
    },
    {
        "name": "Перано",
        "latitude": 42.1046,
        "longitude": 14.39581
    },
    {
        "name": "Перет",
        "latitude": 42.05821,
        "longitude": 13.10231
    },
    {
        "name": "Пескара",
        "latitude": 42.4584,
        "longitude": 14.20283
    },
    {
        "name": "Рыбачите их",
        "latitude": 41.80343,
        "longitude": 13.78707
    },
    {
        "name": "Рыбы",
        "latitude": 42.02351,
        "longitude": 13.65116
    },
    {
        "name": "Пескокостанцо",
        "latitude": 41.88722,
        "longitude": 14.06614
    },
    {
        "name": "Нью-Пескосансонеско",
        "latitude": 42.25524,
        "longitude": 13.8848
    },
    {
        "name": "Петторано-суль-Джицио",
        "latitude": 41.97326,
        "longitude": 13.96001
    },
    {
        "name": "Тапочки",
        "latitude": 42.39918,
        "longitude": 14.04781
    },
    {
        "name": "фортепиано",
        "latitude": 42.32341,
        "longitude": 13.40394
    },
    {
        "name": "Равнина Вомано",
        "latitude": 42.63028,
        "longitude": 13.91548
    },
    {
        "name": "Пикчано",
        "latitude": 42.47525,
        "longitude": 13.9899
    },
    {
        "name": "Пьетракамела",
        "latitude": 42.52344,
        "longitude": 13.55431
    },
    {
        "name": "Пьетраферраццана",
        "latitude": 41.96943,
        "longitude": 14.37451
    },
    {
        "name": "Пьетранико",
        "latitude": 42.27565,
        "longitude": 13.91077
    },
    {
        "name": "Пинето",
        "latitude": 42.60879,
        "longitude": 14.06639
    },
    {
        "name": "Пиццоферрато",
        "latitude": 41.92244,
        "longitude": 14.23632
    },
    {
        "name": "Пиццоли",
        "latitude": 42.43603,
        "longitude": 13.29886
    },
    {
        "name": "Поджо Пиченце",
        "latitude": 42.32061,
        "longitude": 13.54036
    },
    {
        "name": "Поджофиорито",
        "latitude": 42.25414,
        "longitude": 14.32082
    },
    {
        "name": "Загрязнители",
        "latitude": 42.13784,
        "longitude": 14.59172
    },
    {
        "name": "Народы",
        "latitude": 42.16866,
        "longitude": 13.82997
    },
    {
        "name": "Прата д'Ансидония",
        "latitude": 42.27793,
        "longitude": 13.6083
    },
    {
        "name": "Пратола Пелинья",
        "latitude": 42.09701,
        "longitude": 13.87467
    },
    {
        "name": "претор",
        "latitude": 42.21923,
        "longitude": 14.14248
    },
    {
        "name": "Претуро",
        "latitude": 42.37808,
        "longitude": 13.29633
    },
    {
        "name": "Цена",
        "latitude": 42.05789,
        "longitude": 13.83592
    },
    {
        "name": "Проект домов Баццано",
        "latitude": 42.33643,
        "longitude": 13.4441
    },
    {
        "name": "Проект 3 домов Коппито",
        "latitude": 42.36981,
        "longitude": 13.31973
    },
    {
        "name": "Проект домов Сасса Нси",
        "latitude": 42.3656,
        "longitude": 13.31509
    },
    {
        "name": "Провинция Л'Акуила",
        "latitude": 42.08333,
        "longitude": 13.66667
    },
    {
        "name": "Провинция Кьети",
        "latitude": 42.11667,
        "longitude": 14.35
    },
    {
        "name": "Провинция Пескара",
        "latitude": 42.33333,
        "longitude": 13.95
    },
    {
        "name": "Провинция Терамо",
        "latitude": 42.65,
        "longitude": 13.68333
    },
    {
        "name": "Картины",
        "latitude": 41.92402,
        "longitude": 14.28768
    },
    {
        "name": "Райано",
        "latitude": 42.10158,
        "longitude": 13.81386
    },
    {
        "name": "Рапино",
        "latitude": 42.20931,
        "longitude": 14.18493
    },
    {
        "name": "Рипа Театина",
        "latitude": 42.36603,
        "longitude": 14.24441
    },
    {
        "name": "Пересматриваю их еще раз",
        "latitude": 41.87023,
        "longitude": 14.06671
    },
    {
        "name": "Рокка ди Ботте",
        "latitude": 42.03102,
        "longitude": 13.07185
    },
    {
        "name": "Рокка ди Камбио",
        "latitude": 42.23755,
        "longitude": 13.48906
    },
    {
        "name": "Мидл-Рок",
        "latitude": 42.20441,
        "longitude": 13.5184
    },
    {
        "name": "Рокка Пиа",
        "latitude": 41.93429,
        "longitude": 13.97726
    },
    {
        "name": "Рокка Сан Джованни",
        "latitude": 42.24604,
        "longitude": 14.46162
    },
    {
        "name": "Роккакасале",
        "latitude": 42.12249,
        "longitude": 13.88758
    },
    {
        "name": "Роккаморис",
        "latitude": 42.21274,
        "longitude": 14.02531
    },
    {
        "name": "Роккаразо",
        "latitude": 41.84872,
        "longitude": 14.07846
    },
    {
        "name": "Роккаскальенья",
        "latitude": 42.06212,
        "longitude": 14.30802
    },
    {
        "name": "Роккаспинальвети-Санта-Джуста",
        "latitude": 41.94233,
        "longitude": 14.47092
    },
    {
        "name": "Роккавиви",
        "latitude": 41.81214,
        "longitude": 13.53662
    },
    {
        "name": "Ройо-дель-Сангро",
        "latitude": 41.91153,
        "longitude": 14.37382
    },
    {
        "name": "Рошано",
        "latitude": 42.32227,
        "longitude": 14.04555
    },
    {
        "name": "Розелло",
        "latitude": 41.90116,
        "longitude": 14.34919
    },
    {
        "name": "Розарий Абруцци",
        "latitude": 42.67164,
        "longitude": 14.01481
    },
    {
        "name": "солевой раствор",
        "latitude": 42.78571,
        "longitude": 13.914
    },
    {
        "name": "Салле",
        "latitude": 42.17756,
        "longitude": 13.96091
    },
    {
        "name": "Кроме Марины",
        "latitude": 42.07037,
        "longitude": 14.76597
    },
    {
        "name": "Самбучето",
        "latitude": 42.42168,
        "longitude": 14.18747
    },
    {
        "name": "Сан-Бенедетто-деи-Марси",
        "latitude": 42.0076,
        "longitude": 13.62381
    },
    {
        "name": "Сан-Бенедетто-ин-Периллис",
        "latitude": 42.18377,
        "longitude": 13.76996
    },
    {
        "name": "Сан-Буоно",
        "latitude": 41.9814,
        "longitude": 14.56818
    },
    {
        "name": "Сан Деметрио Не Вестини",
        "latitude": 42.28963,
        "longitude": 13.55519
    },
    {
        "name": "Святой Иоанн Липиони",
        "latitude": 41.84383,
        "longitude": 14.56271
    },
    {
        "name": "Сан Мартино Басса",
        "latitude": 42.51827,
        "longitude": 14.13045
    },
    {
        "name": "Сан-Мартино-сулла-Марручина",
        "latitude": 42.22419,
        "longitude": 14.21577
    },
    {
        "name": "Сан-Николо-ин-Тордино",
        "latitude": 42.69648,
        "longitude": 13.79708
    },
    {
        "name": "Святой Панфило д'Окр",
        "latitude": 42.28616,
        "longitude": 13.47518
    },
    {
        "name": "Святой Пио Палатный",
        "latitude": 42.28423,
        "longitude": 13.6557
    },
    {
        "name": "Сан-Рокко",
        "latitude": 42.24294,
        "longitude": 14.12891
    },
    {
        "name": "Сен-Сальво",
        "latitude": 42.04413,
        "longitude": 14.73335
    },
    {
        "name": "Сан-Валентино-ин-Абруццо-Ситериор",
        "latitude": 42.23304,
        "longitude": 13.98561
    },
    {
        "name": "Сан-Винченцо Валле Ровето",
        "latitude": 41.84452,
        "longitude": 13.53566
    },
    {
        "name": "Сан-Вито-Кьетино",
        "latitude": 42.29014,
        "longitude": 14.4427
    },
    {
        "name": "Сант-Эджидио алла Вибрата",
        "latitude": 42.81705,
        "longitude": 13.72164
    },
    {
        "name": "Сант-Эуфемия-а-Майелла",
        "latitude": 42.12613,
        "longitude": 14.02651
    },
    {
        "name": "Сант-Эусанио-дель-Сангро",
        "latitude": 42.16908,
        "longitude": 14.32776
    },
    {
        "name": "Святой Эусанио Форконезе",
        "latitude": 42.28951,
        "longitude": 13.52425
    },
    {
        "name": "Святой Гомер",
        "latitude": 42.79011,
        "longitude": 13.78906
    },
    {
        "name": "Санта-Мария-Имбаро",
        "latitude": 42.21999,
        "longitude": 14.45027
    },
    {
        "name": "Санта-Тереза",
        "latitude": 42.42753,
        "longitude": 14.15816
    },
    {
        "name": "Санте Мари",
        "latitude": 42.10369,
        "longitude": 13.20163
    },
    {
        "name": "Санто-Стефано-ди-Сессанио",
        "latitude": 42.34339,
        "longitude": 13.64477
    },
    {
        "name": "Сасса",
        "latitude": 42.35204,
        "longitude": 13.29924
    },
    {
        "name": "Халл",
        "latitude": 42.26575,
        "longitude": 13.99665
    },
    {
        "name": "Сканно",
        "latitude": 41.90442,
        "longitude": 13.87961
    },
    {
        "name": "Скерн",
        "latitude": 42.64754,
        "longitude": 14.03791
    },
    {
        "name": "Презираемый",
        "latitude": 42.10418,
        "longitude": 14.57428
    },
    {
        "name": "Рабы Абруццо",
        "latitude": 41.81311,
        "longitude": 14.48655
    },
    {
        "name": "Столкновение",
        "latitude": 41.74681,
        "longitude": 14.0388
    },
    {
        "name": "лопнул",
        "latitude": 42.36948,
        "longitude": 13.25936
    },
    {
        "name": "Скуркола Марсикана",
        "latitude": 42.06313,
        "longitude": 13.33919
    },
    {
        "name": "Сечинаро",
        "latitude": 42.15062,
        "longitude": 13.68145
    },
    {
        "name": "Сельва",
        "latitude": 42.11442,
        "longitude": 14.34425
    },
    {
        "name": "Серрамоначеска",
        "latitude": 42.24795,
        "longitude": 14.09297
    },
    {
        "name": "Сильви",
        "latitude": 42.54984,
        "longitude": 14.11759
    },
    {
        "name": "Сполторе",
        "latitude": 42.45501,
        "longitude": 14.13988
    },
    {
        "name": "Сульмона",
        "latitude": 42.04945,
        "longitude": 13.92578
    },
    {
        "name": "Тальякоццо",
        "latitude": 42.06933,
        "longitude": 13.25469
    },
    {
        "name": "Таранта Пелинья",
        "latitude": 42.02052,
        "longitude": 14.17103
    },
    {
        "name": "Терамо",
        "latitude": 42.66123,
        "longitude": 13.69901
    },
    {
        "name": "Тионе дельи Абруцци",
        "latitude": 42.20393,
        "longitude": 13.6357
    },
    {
        "name": "Казаурия прикосновение",
        "latitude": 42.21203,
        "longitude": 13.91547
    },
    {
        "name": "я снимаю это",
        "latitude": 42.34542,
        "longitude": 14.3236
    },
    {
        "name": "Торано Нуово",
        "latitude": 42.82305,
        "longitude": 13.77729
    },
    {
        "name": "Турин от Сангро",
        "latitude": 42.191,
        "longitude": 14.54272
    },
    {
        "name": "Торнарекчо",
        "latitude": 42.03763,
        "longitude": 14.41525
    },
    {
        "name": "Турнир",
        "latitude": 42.29007,
        "longitude": 13.30092
    },
    {
        "name": "Торре де Пассери",
        "latitude": 42.24324,
        "longitude": 13.9333
    },
    {
        "name": "Торребруна",
        "latitude": 41.86742,
        "longitude": 14.54148
    },
    {
        "name": "Торревеккья",
        "latitude": 42.38274,
        "longitude": 14.21331
    },
    {
        "name": "Торричелла",
        "latitude": 42.65904,
        "longitude": 13.65719
    },
    {
        "name": "Торричелла Пелинья",
        "latitude": 42.02397,
        "longitude": 14.25854
    },
    {
        "name": "Торторето",
        "latitude": 42.80371,
        "longitude": 13.91346
    },
    {
        "name": "Торторето Лидо",
        "latitude": 42.79956,
        "longitude": 13.94205
    },
    {
        "name": "Токсичность",
        "latitude": 42.54472,
        "longitude": 13.64595
    },
    {
        "name": "Трасакко",
        "latitude": 41.95742,
        "longitude": 13.5327
    },
    {
        "name": "Трельо",
        "latitude": 42.26184,
        "longitude": 14.42315
    },
    {
        "name": "Туфилло",
        "latitude": 41.91685,
        "longitude": 14.62558
    },
    {
        "name": "Турривалиньяни",
        "latitude": 42.26296,
        "longitude": 14.02852
    },
    {
        "name": "Коровы",
        "latitude": 42.29764,
        "longitude": 14.22901
    },
    {
        "name": "Долина Кастеллана",
        "latitude": 42.73614,
        "longitude": 13.49709
    },
    {
        "name": "Валлекупа",
        "latitude": 42.25366,
        "longitude": 13.57467
    },
    {
        "name": "Огромный",
        "latitude": 42.1115,
        "longitude": 14.70649
    },
    {
        "name": "Переулки",
        "latitude": 42.34095,
        "longitude": 13.89688
    },
    {
        "name": "Вилла Калдари",
        "latitude": 42.29566,
        "longitude": 14.36157
    },
    {
        "name": "Вилла Селиера",
        "latitude": 42.38184,
        "longitude": 13.8586
    },
    {
        "name": "Вилла Лемпа",
        "latitude": 42.79345,
        "longitude": 13.64433
    },
    {
        "name": "Вилла Распа",
        "latitude": 42.45542,
        "longitude": 14.18457
    },
    {
        "name": "Розовая деревня",
        "latitude": 42.85059,
        "longitude": 13.92015
    },
    {
        "name": "Вилла Сант'Анджело",
        "latitude": 42.27043,
        "longitude": 13.5371
    },
    {
        "name": "Вилла Санта Лючия дельи Абруцци",
        "latitude": 42.33286,
        "longitude": 13.77792
    },
    {
        "name": "Вилла Санта Мария",
        "latitude": 41.9513,
        "longitude": 14.35148
    },
    {
        "name": "Виллагранде",
        "latitude": 42.29533,
        "longitude": 13.29999
    },
    {
        "name": "Вильялаго",
        "latitude": 41.93514,
        "longitude": 13.83868
    },
    {
        "name": "Вильяльфонсина",
        "latitude": 42.16038,
        "longitude": 14.56932
    },
    {
        "name": "Вилламанья",
        "latitude": 42.32984,
        "longitude": 14.23689
    },
    {
        "name": "Вилланова",
        "latitude": 42.38251,
        "longitude": 14.12338
    },
    {
        "name": "Вильяваллелонга",
        "latitude": 41.87104,
        "longitude": 13.62088
    },
    {
        "name": "Вилла Барреа",
        "latitude": 41.77646,
        "longitude": 13.93892
    },
    {
        "name": "Витторито",
        "latitude": 42.12703,
        "longitude": 13.8167
    },
    {
        "name": "Один",
        "latitude": 45.80723,
        "longitude": 7.27262
    },
    {
        "name": "Допуск",
        "latitude": 45.81484,
        "longitude": 7.68931
    },
    {
        "name": "Антей-Сен-Андре",
        "latitude": 45.80603,
        "longitude": 7.58666
    },
    {
        "name": "Аоста",
        "latitude": 45.73764,
        "longitude": 7.31722
    },
    {
        "name": "Арнад",
        "latitude": 45.64726,
        "longitude": 7.71701
    },
    {
        "name": "Шрамы",
        "latitude": 45.70205,
        "longitude": 7.16267
    },
    {
        "name": "Дайте нам знать",
        "latitude": 45.70886,
        "longitude": 7.1399
    },
    {
        "name": "Айас",
        "latitude": 45.81506,
        "longitude": 7.68911
    },
    {
        "name": "Эмавиль",
        "latitude": 45.7013,
        "longitude": 7.24683
    },
    {
        "name": "Бард",
        "latitude": 45.60936,
        "longitude": 7.74491
    },
    {
        "name": "Недавно",
        "latitude": 45.70729,
        "longitude": 7.67617
    },
    {
        "name": "Бионаз",
        "latitude": 45.87356,
        "longitude": 7.4231
    },
    {
        "name": "Брюс",
        "latitude": 45.75926,
        "longitude": 7.72899
    },
    {
        "name": "Шалан-Сен-Ансельм",
        "latitude": 45.71456,
        "longitude": 7.73451
    },
    {
        "name": "Шалан-Сен-Виктор",
        "latitude": 45.69046,
        "longitude": 7.70471
    },
    {
        "name": "Шамбаве",
        "latitude": 45.74426,
        "longitude": 7.54931
    },
    {
        "name": "Серна",
        "latitude": 45.83886,
        "longitude": 7.61871
    },
    {
        "name": "Чампдепраз",
        "latitude": 45.68526,
        "longitude": 7.65681
    },
    {
        "name": "Шампорше",
        "latitude": 45.62376,
        "longitude": 7.62151
    },
    {
        "name": "Чарвенсод",
        "latitude": 45.72025,
        "longitude": 7.32433
    },
    {
        "name": "Шатийон",
        "latitude": 45.74991,
        "longitude": 7.61668
    },
    {
        "name": "Главный город",
        "latitude": 45.75091,
        "longitude": 7.35372
    },
    {
        "name": "Конь",
        "latitude": 45.60742,
        "longitude": 7.35803
    },
    {
        "name": "Курмайор",
        "latitude": 45.79659,
        "longitude": 6.96893
    },
    {
        "name": "Доннас",
        "latitude": 45.60286,
        "longitude": 7.77491
    },
    {
        "name": "двойки",
        "latitude": 45.81916,
        "longitude": 7.306
    },
    {
        "name": "Эмарезе",
        "latitude": 45.72489,
        "longitude": 7.68976
    },
    {
        "name": "Эпроблемы",
        "latitude": 45.82082,
        "longitude": 7.23137
    },
    {
        "name": "Фенис",
        "latitude": 45.73469,
        "longitude": 7.49544
    },
    {
        "name": "Фонтейнмор",
        "latitude": 45.64746,
        "longitude": 7.85952
    },
    {
        "name": "Габи",
        "latitude": 45.713,
        "longitude": 7.88224
    },
    {
        "name": "Джинод",
        "latitude": 45.77996,
        "longitude": 7.2964
    },
    {
        "name": "Гран Бриссонь",
        "latitude": 45.72566,
        "longitude": 7.3926
    },
    {
        "name": "Грессан",
        "latitude": 45.7205,
        "longitude": 7.29311
    },
    {
        "name": "Грессони-ла-Трините",
        "latitude": 45.82967,
        "longitude": 7.82321
    },
    {
        "name": "Грессони-Сен-Жан",
        "latitude": 45.77272,
        "longitude": 7.82802
    },
    {
        "name": "Отточить",
        "latitude": 45.61356,
        "longitude": 7.73851
    },
    {
        "name": "Введение",
        "latitude": 45.69306,
        "longitude": 7.1824
    },
    {
        "name": "Даже очень",
        "latitude": 45.68546,
        "longitude": 7.85411
    },
    {
        "name": "Иссонь",
        "latitude": 45.65496,
        "longitude": 7.68571
    },
    {
        "name": "Ховенкан",
        "latitude": 45.71486,
        "longitude": 7.2726
    },
    {
        "name": "Ла Кретаз-Руазан",
        "latitude": 45.78396,
        "longitude": 7.3131
    },
    {
        "name": "Магдалина",
        "latitude": 45.80996,
        "longitude": 7.61871
    },
    {
        "name": "На месте",
        "latitude": 45.65414,
        "longitude": 7.68414
    },
    {
        "name": "Комната",
        "latitude": 45.74497,
        "longitude": 7.07295
    },
    {
        "name": "Ла Тюиль",
        "latitude": 45.71366,
        "longitude": 6.95099
    },
    {
        "name": "Лассолаз",
        "latitude": 45.73851,
        "longitude": 7.58883
    },
    {
        "name": "Лилианес",
        "latitude": 45.62948,
        "longitude": 7.84126
    },
    {
        "name": "Монгнод",
        "latitude": 45.80549,
        "longitude": 7.56806
    },
    {
        "name": "Монтан-Анжелен-Аренсод",
        "latitude": 45.7282,
        "longitude": 7.27647
    },
    {
        "name": "Монтжовет",
        "latitude": 45.70796,
        "longitude": 7.67411
    },
    {
        "name": "Моргекс",
        "latitude": 45.75664,
        "longitude": 7.04123
    },
    {
        "name": "Нус",
        "latitude": 45.74026,
        "longitude": 7.4666
    },
    {
        "name": "Олломонт",
        "latitude": 45.84976,
        "longitude": 7.3106
    },
    {
        "name": "Оясе",
        "latitude": 45.85116,
        "longitude": 7.383
    },
    {
        "name": "Пакье",
        "latitude": 45.87879,
        "longitude": 7.62575
    },
    {
        "name": "Перлоз",
        "latitude": 45.61386,
        "longitude": 7.80811
    },
    {
        "name": "Фенис спрашивает",
        "latitude": 45.75115,
        "longitude": 7.46391
    },
    {
        "name": "План внедрения",
        "latitude": 45.69203,
        "longitude": 7.18328
    },
    {
        "name": "Поллейн",
        "latitude": 45.7278,
        "longitude": 7.35146
    },
    {
        "name": "Пон-Бозе",
        "latitude": 45.60726,
        "longitude": 7.68641
    },
    {
        "name": "Пон-Сен-Мартен",
        "latitude": 45.59536,
        "longitude": 7.79451
    },
    {
        "name": "Pontey",
        "latitude": 45.73886,
        "longitude": 7.58831
    },
    {
        "name": "Ссуда ​​Сен-Дидье",
        "latitude": 45.76416,
        "longitude": 6.98579
    },
    {
        "name": "Кварта",
        "latitude": 45.74096,
        "longitude": 7.4152
    },
    {
        "name": "Квинкод",
        "latitude": 45.71513,
        "longitude": 7.73495
    },
    {
        "name": "Рем-Нотр-Дам",
        "latitude": 45.56965,
        "longitude": 7.1187
    },
    {
        "name": "Рем-Сен-Жорж",
        "latitude": 45.65226,
        "longitude": 7.1544
    },
    {
        "name": "Сен-Марсель",
        "latitude": 45.73146,
        "longitude": 7.4482
    },
    {
        "name": "Сен-Морис",
        "latitude": 45.71771,
        "longitude": 7.25547
    },
    {
        "name": "Сент-Китс",
        "latitude": 45.75406,
        "longitude": 7.3472
    },
    {
        "name": "Сен-Дени",
        "latitude": 45.75256,
        "longitude": 7.55531
    },
    {
        "name": "Святой Николай",
        "latitude": 45.71656,
        "longitude": 7.1667
    },
    {
        "name": "Сен-Уайен",
        "latitude": 45.82439,
        "longitude": 7.21372
    },
    {
        "name": "Сен-Пьер",
        "latitude": 45.71153,
        "longitude": 7.22683
    },
    {
        "name": "Сен-Реми",
        "latitude": 45.83553,
        "longitude": 7.18393
    },
    {
        "name": "Сент-Винсент",
        "latitude": 45.75082,
        "longitude": 7.64815
    },
    {
        "name": "Святой Леонард",
        "latitude": 45.82366,
        "longitude": 7.1814
    },
    {
        "name": "Торньон",
        "latitude": 45.80616,
        "longitude": 7.5698
    },
    {
        "name": "Морж",
        "latitude": 45.63036,
        "longitude": 7.064
    },
    {
        "name": "Валле д'Аоста",
        "latitude": 45.76667,
        "longitude": 7.41667
    },
    {
        "name": "Вальпеллин",
        "latitude": 45.82486,
        "longitude": 7.3255
    },
    {
        "name": "Вальсаваренш",
        "latitude": 45.59186,
        "longitude": 7.21
    },
    {
        "name": "Вальтурнанш",
        "latitude": 45.87607,
        "longitude": 7.6243
    },
    {
        "name": "Веррайес",
        "latitude": 45.76326,
        "longitude": 7.5346
    },
    {
        "name": "Очки",
        "latitude": 45.66656,
        "longitude": 7.68911
    },
    {
        "name": "Вилла-Набиан",
        "latitude": 45.6897,
        "longitude": 7.7047
    },
    {
        "name": "Виллар-Америка",
        "latitude": 45.74793,
        "longitude": 7.38982
    },
    {
        "name": "Виль Сюр Сарр",
        "latitude": 45.73339,
        "longitude": 7.25857
    },
    {
        "name": "Вильфранш",
        "latitude": 45.74064,
        "longitude": 7.41598
    },
    {
        "name": "Вильнёв",
        "latitude": 45.70201,
        "longitude": 7.20682
    },
    {
        "name": "аккадский",
        "latitude": 41.15768,
        "longitude": 15.331
    },
    {
        "name": "Мыс Аквариум",
        "latitude": 39.90979,
        "longitude": 18.2468
    },
    {
        "name": "Аквавива делле Фонти",
        "latitude": 40.89704,
        "longitude": 16.8433
    },
    {
        "name": "Адельфия",
        "latitude": 41.0033,
        "longitude": 16.87208
    },
    {
        "name": "Альберобелло",
        "latitude": 40.78448,
        "longitude": 17.23618
    },
    {
        "name": "Альберона",
        "latitude": 41.43225,
        "longitude": 15.12304
    },
    {
        "name": "Алессано",
        "latitude": 39.89381,
        "longitude": 18.33221
    },
    {
        "name": "Алезио",
        "latitude": 40.06226,
        "longitude": 18.05712
    },
    {
        "name": "Аллисты",
        "latitude": 39.94803,
        "longitude": 18.08971
    },
    {
        "name": "Альтамура",
        "latitude": 40.82664,
        "longitude": 16.54952
    },
    {
        "name": "Попробуй",
        "latitude": 39.98546,
        "longitude": 18.38232
    },
    {
        "name": "Анзано Апулийский",
        "latitude": 41.12162,
        "longitude": 15.28688
    },
    {
        "name": "Априсена",
        "latitude": 41.78629,
        "longitude": 15.44394
    },
    {
        "name": "Арадео",
        "latitude": 40.12921,
        "longitude": 18.12951
    },
    {
        "name": "Арнесано",
        "latitude": 40.33679,
        "longitude": 18.09145
    },
    {
        "name": "Асколи Сатриано",
        "latitude": 41.20365,
        "longitude": 15.56646
    },
    {
        "name": "Аветрана",
        "latitude": 40.3507,
        "longitude": 17.7326
    },
    {
        "name": "Баньоло-дель-Саленто",
        "latitude": 40.14908,
        "longitude": 18.35208
    },
    {
        "name": "Бари",
        "latitude": 40.93333,
        "longitude": 16.66667
    },
    {
        "name": "Очки",
        "latitude": 41.39736,
        "longitude": 15.19644
    },
    {
        "name": "Бинетто",
        "latitude": 41.02343,
        "longitude": 16.70988
    },
    {
        "name": "Битетто",
        "latitude": 41.04146,
        "longitude": 16.74806
    },
    {
        "name": "Битонто",
        "latitude": 41.11006,
        "longitude": 16.69086
    },
    {
        "name": "Битритто",
        "latitude": 41.04336,
        "longitude": 16.82682
    },
    {
        "name": "Бургундия",
        "latitude": 40.24108,
        "longitude": 18.37661
    },
    {
        "name": "Ботруньо",
        "latitude": 40.06359,
        "longitude": 18.32254
    },
    {
        "name": "бычий",
        "latitude": 41.24916,
        "longitude": 15.33948
    },
    {
        "name": "тосты",
        "latitude": 40.63215,
        "longitude": 17.93607
    },
    {
        "name": "Каньяно Варано",
        "latitude": 41.82832,
        "longitude": 15.77203
    },
    {
        "name": "Калимера",
        "latitude": 40.24948,
        "longitude": 18.27982
    },
    {
        "name": "Поля Саленто",
        "latitude": 40.39747,
        "longitude": 18.02141
    },
    {
        "name": "Кандела",
        "latitude": 41.13601,
        "longitude": 15.51537
    },
    {
        "name": "Канноле",
        "latitude": 40.16592,
        "longitude": 18.36456
    },
    {
        "name": "Капирро",
        "latitude": 41.25403,
        "longitude": 16.42242
    },
    {
        "name": "Капрарика Лечче",
        "latitude": 40.2606,
        "longitude": 18.24426
    },
    {
        "name": "Капурсо",
        "latitude": 41.04598,
        "longitude": 16.92168
    },
    {
        "name": "Карапель",
        "latitude": 41.36365,
        "longitude": 15.69384
    },
    {
        "name": "Карлантино",
        "latitude": 41.59388,
        "longitude": 14.97681
    },
    {
        "name": "Кармиано",
        "latitude": 40.34404,
        "longitude": 18.04195
    },
    {
        "name": "Карозино",
        "latitude": 40.46538,
        "longitude": 17.39857
    },
    {
        "name": "Каровиньо",
        "latitude": 40.70626,
        "longitude": 17.65847
    },
    {
        "name": "Карпиньяно Салентино",
        "latitude": 40.19537,
        "longitude": 18.33826
    },
    {
        "name": "Граб",
        "latitude": 41.8445,
        "longitude": 15.85712
    },
    {
        "name": "Казалини",
        "latitude": 40.73777,
        "longitude": 17.47062
    },
    {
        "name": "Казальнуово Монтеротаро",
        "latitude": 41.61942,
        "longitude": 15.10411
    },
    {
        "name": "Казалвечкьо из Апулии",
        "latitude": 41.5947,
        "longitude": 15.10999
    },
    {
        "name": "Казамасселла",
        "latitude": 40.11424,
        "longitude": 18.451
    },
    {
        "name": "Касамассима",
        "latitude": 40.95653,
        "longitude": 16.92075
    },
    {
        "name": "Казарано",
        "latitude": 40.01131,
        "longitude": 18.16237
    },
    {
        "name": "Кассано делле Мурдже",
        "latitude": 40.89112,
        "longitude": 16.76531
    },
    {
        "name": "Кастеллана",
        "latitude": 40.88643,
        "longitude": 17.16549
    },
    {
        "name": "Кастелланета",
        "latitude": 40.62794,
        "longitude": 16.9329
    },
    {
        "name": "Кастеллуччо деи Саури",
        "latitude": 41.3046,
        "longitude": 15.47561
    },
    {
        "name": "Кастеллуччо Вальмаджоре",
        "latitude": 41.3429,
        "longitude": 15.19944
    },
    {
        "name": "Кастельнуово делла Дауния",
        "latitude": 41.58139,
        "longitude": 15.11796
    },
    {
        "name": "Кастильоне",
        "latitude": 39.98333,
        "longitude": 18.35
    },
    {
        "name": "Кастри из Лечче",
        "latitude": 40.2736,
        "longitude": 18.2624
    },
    {
        "name": "Кастриньяно Де'Гречи",
        "latitude": 40.17342,
        "longitude": 18.29643
    },
    {
        "name": "Кастриньяно дель Капо",
        "latitude": 39.8328,
        "longitude": 18.35087
    },
    {
        "name": "Кастро",
        "latitude": 40.00702,
        "longitude": 18.42573
    },
    {
        "name": "Кастромедиано",
        "latitude": 40.32803,
        "longitude": 18.17877
    },
    {
        "name": "Лошадь",
        "latitude": 40.3102,
        "longitude": 18.20221
    },
    {
        "name": "Челье Мессапика",
        "latitude": 40.6462,
        "longitude": 17.51661
    },
    {
        "name": "Селенца Вальфорторе",
        "latitude": 41.56048,
        "longitude": 14.97898
    },
    {
        "name": "Челламаре",
        "latitude": 41.01969,
        "longitude": 16.92741
    },
    {
        "name": "Клетки Сан-Вито",
        "latitude": 41.32593,
        "longitude": 15.18104
    },
    {
        "name": "Челлино Сан Марко",
        "latitude": 40.47133,
        "longitude": 17.96427
    },
    {
        "name": "Серфиньяно",
        "latitude": 40.06107,
        "longitude": 18.44291
    },
    {
        "name": "Чериньола",
        "latitude": 41.26523,
        "longitude": 15.89559
    },
    {
        "name": "Как дела",
        "latitude": 41.84486,
        "longitude": 15.16681
    },
    {
        "name": "Чистернино",
        "latitude": 40.74326,
        "longitude": 17.42587
    },
    {
        "name": "Коллемето",
        "latitude": 40.20885,
        "longitude": 18.10285
    },
    {
        "name": "Коллепассо",
        "latitude": 40.07115,
        "longitude": 18.16222
    },
    {
        "name": "Они разговаривают",
        "latitude": 40.96836,
        "longitude": 17.11329
    },
    {
        "name": "Крышка",
        "latitude": 40.26821,
        "longitude": 18.0543
    },
    {
        "name": "Корато",
        "latitude": 41.15171,
        "longitude": 16.41143
    },
    {
        "name": "Корильяно д'Отранто",
        "latitude": 40.15925,
        "longitude": 18.25598
    },
    {
        "name": "Корсано",
        "latitude": 39.88911,
        "longitude": 18.36747
    },
    {
        "name": "Коццана",
        "latitude": 40.92025,
        "longitude": 17.22259
    },
    {
        "name": "Криспиано",
        "latitude": 40.60379,
        "longitude": 17.2329
    },
    {
        "name": "Корни",
        "latitude": 40.14847,
        "longitude": 18.31605
    },
    {
        "name": "Кутрофьяно",
        "latitude": 40.12616,
        "longitude": 18.2026
    },
    {
        "name": "Делисето",
        "latitude": 41.22289,
        "longitude": 15.38447
    },
    {
        "name": "Быстро",
        "latitude": 39.95908,
        "longitude": 18.36174
    },
    {
        "name": "Неправильный",
        "latitude": 40.00915,
        "longitude": 18.39144
    },
    {
        "name": "Эрчи",
        "latitude": 40.43609,
        "longitude": 17.7361
    },
    {
        "name": "Плод",
        "latitude": 41.32489,
        "longitude": 15.16045
    },
    {
        "name": "Фаджано",
        "latitude": 40.41616,
        "longitude": 17.38861
    },
    {
        "name": "Фазано",
        "latitude": 40.83625,
        "longitude": 17.36007
    },
    {
        "name": "кошачий",
        "latitude": 39.93651,
        "longitude": 18.11822
    },
    {
        "name": "Фоджа",
        "latitude": 41.45845,
        "longitude": 15.55188
    },
    {
        "name": "Фраганьяно",
        "latitude": 40.4302,
        "longitude": 17.47553
    },
    {
        "name": "Франкавилла Фонтана",
        "latitude": 40.53123,
        "longitude": 17.58522
    },
    {
        "name": "Гальяно дель Капо",
        "latitude": 39.84323,
        "longitude": 18.36962
    },
    {
        "name": "Галатина",
        "latitude": 40.17416,
        "longitude": 18.17032
    },
    {
        "name": "Галатон",
        "latitude": 40.14673,
        "longitude": 18.06937
    },
    {
        "name": "Галлиполи",
        "latitude": 40.05594,
        "longitude": 17.99088
    },
    {
        "name": "Галуньяно",
        "latitude": 40.25601,
        "longitude": 18.21473
    },
    {
        "name": "Близнецы",
        "latitude": 39.91134,
        "longitude": 18.18742
    },
    {
        "name": "Джиноза",
        "latitude": 40.5769,
        "longitude": 16.75655
    },
    {
        "name": "Джоя-дель-Колле",
        "latitude": 40.79968,
        "longitude": 16.92298
    },
    {
        "name": "Джорджилорио",
        "latitude": 40.38683,
        "longitude": 18.14873
    },
    {
        "name": "Джовинаццо",
        "latitude": 41.185,
        "longitude": 16.67054
    },
    {
        "name": "Джуджанелло",
        "latitude": 40.09383,
        "longitude": 18.36894
    },
    {
        "name": "Джурдиньяно",
        "latitude": 40.12367,
        "longitude": 18.43155
    },
    {
        "name": "Гравина в Апулии",
        "latitude": 40.81748,
        "longitude": 16.41915
    },
    {
        "name": "Гротталье",
        "latitude": 40.53694,
        "longitude": 17.43723
    },
    {
        "name": "Грумо Аппула",
        "latitude": 41.01089,
        "longitude": 16.70844
    },
    {
        "name": "Гуаньяно",
        "latitude": 40.40123,
        "longitude": 17.94902
    },
    {
        "name": "Ишителла",
        "latitude": 41.90434,
        "longitude": 15.89945
    },
    {
        "name": "Острова Тремити",
        "latitude": 42.12085,
        "longitude": 15.50424
    },
    {
        "name": "Роза",
        "latitude": 40.60674,
        "longitude": 17.95207
    },
    {
        "name": "Ламия",
        "latitude": 41.03364,
        "longitude": 16.87559
    },
    {
        "name": "Ламие из Олимпии-Сельвы",
        "latitude": 40.81714,
        "longitude": 17.33478
    },
    {
        "name": "Третий",
        "latitude": 40.62881,
        "longitude": 16.79947
    },
    {
        "name": "Латиан",
        "latitude": 40.55052,
        "longitude": 17.71856
    },
    {
        "name": "Лечче",
        "latitude": 40.35481,
        "longitude": 18.17244
    },
    {
        "name": "Лепорано",
        "latitude": 40.38218,
        "longitude": 17.33426
    },
    {
        "name": "Лепорано Марина",
        "latitude": 40.3786,
        "longitude": 17.3096
    },
    {
        "name": "Лекиль",
        "latitude": 40.30583,
        "longitude": 18.14022
    },
    {
        "name": "Лесина",
        "latitude": 41.86125,
        "longitude": 15.35322
    },
    {
        "name": "Леука",
        "latitude": 39.79949,
        "longitude": 18.35815
    },
    {
        "name": "Леверано",
        "latitude": 40.28852,
        "longitude": 17.9965
    },
    {
        "name": "Лиццанелло",
        "latitude": 40.30475,
        "longitude": 18.22283
    },
    {
        "name": "Лиццано",
        "latitude": 40.39301,
        "longitude": 17.44571
    },
    {
        "name": "Локоротондо",
        "latitude": 40.75661,
        "longitude": 17.32392
    },
    {
        "name": "Loseto",
        "latitude": 41.04214,
        "longitude": 16.84917
    },
    {
        "name": "Лусера",
        "latitude": 41.5055,
        "longitude": 15.3391
    },
    {
        "name": "Лукуньяно",
        "latitude": 39.9349,
        "longitude": 18.32174
    },
    {
        "name": "Мальяно",
        "latitude": 40.3374,
        "longitude": 18.06287
    },
    {
        "name": "Трикотажные изделия",
        "latitude": 40.12069,
        "longitude": 18.29797
    },
    {
        "name": "Мандурия",
        "latitude": 40.39899,
        "longitude": 17.63726
    },
    {
        "name": "Манфредония",
        "latitude": 41.63065,
        "longitude": 15.91876
    },
    {
        "name": "Марина ди Джиноза",
        "latitude": 40.42833,
        "longitude": 16.88003
    },
    {
        "name": "Мариотто",
        "latitude": 41.05028,
        "longitude": 16.56142
    },
    {
        "name": "морской",
        "latitude": 39.99609,
        "longitude": 18.39895
    },
    {
        "name": "Мартано",
        "latitude": 40.20205,
        "longitude": 18.30193
    },
    {
        "name": "Мартиньяно",
        "latitude": 40.23821,
        "longitude": 18.25602
    },
    {
        "name": "Мартина Франка",
        "latitude": 40.70355,
        "longitude": 17.33814
    },
    {
        "name": "Маруджо",
        "latitude": 40.32054,
        "longitude": 17.57052
    },
    {
        "name": "Массафра",
        "latitude": 40.58618,
        "longitude": 17.11635
    },
    {
        "name": "Матердомини",
        "latitude": 40.65571,
        "longitude": 17.95949
    },
    {
        "name": "трезвый",
        "latitude": 40.03083,
        "longitude": 18.1363
    },
    {
        "name": "Утро",
        "latitude": 41.71112,
        "longitude": 16.05087
    },
    {
        "name": "Мелендуньо",
        "latitude": 40.27252,
        "longitude": 18.33798
    },
    {
        "name": "Мелиссано",
        "latitude": 39.97315,
        "longitude": 18.12113
    },
    {
        "name": "Мельпиньяно",
        "latitude": 40.15624,
        "longitude": 18.29194
    },
    {
        "name": "морской",
        "latitude": 40.33418,
        "longitude": 18.22383
    },
    {
        "name": "Мезанье",
        "latitude": 40.55851,
        "longitude": 17.80774
    },
    {
        "name": "Миджано",
        "latitude": 39.9618,
        "longitude": 18.31119
    },
    {
        "name": "Минервино из Лечче",
        "latitude": 40.09025,
        "longitude": 18.42139
    },
    {
        "name": "Модуньо",
        "latitude": 41.08433,
        "longitude": 16.78342
    },
    {
        "name": "Барийская мельница",
        "latitude": 41.05997,
        "longitude": 17.09001
    },
    {
        "name": "Мольфетта",
        "latitude": 41.20036,
        "longitude": 16.59905
    },
    {
        "name": "Монополия",
        "latitude": 40.94918,
        "longitude": 17.29717
    },
    {
        "name": "Монтальбано",
        "latitude": 40.77827,
        "longitude": 17.48157
    },
    {
        "name": "Монте-Сант-Анджело",
        "latitude": 41.7053,
        "longitude": 15.96068
    },
    {
        "name": "Монтейаси",
        "latitude": 40.49992,
        "longitude": 17.3826
    },
    {
        "name": "Монтелеоне из Апулии",
        "latitude": 41.16711,
        "longitude": 15.25822
    },
    {
        "name": "Монтемесола",
        "latitude": 40.5676,
        "longitude": 17.33665
    },
    {
        "name": "Монтепарано",
        "latitude": 40.44335,
        "longitude": 17.41308
    },
    {
        "name": "Монтерони из Лечче",
        "latitude": 40.31929,
        "longitude": 18.09163
    },
    {
        "name": "Монтесано Салентино",
        "latitude": 39.97544,
        "longitude": 18.32277
    },
    {
        "name": "Монтесардо",
        "latitude": 39.87572,
        "longitude": 18.33967
    },
    {
        "name": "Арена Маунтинс-Боско Каджоне",
        "latitude": 40.3551,
        "longitude": 17.36432
    },
    {
        "name": "Морчано ди Леука",
        "latitude": 39.84719,
        "longitude": 18.31089
    },
    {
        "name": "Мотта Монтекорвино",
        "latitude": 41.50743,
        "longitude": 15.11414
    },
    {
        "name": "Моттола",
        "latitude": 40.6389,
        "longitude": 17.03432
    },
    {
        "name": "Стена Лечче",
        "latitude": 40.10286,
        "longitude": 18.33674
    },
    {
        "name": "Нардо",
        "latitude": 40.17953,
        "longitude": 18.03174
    },
    {
        "name": "Невиано",
        "latitude": 40.1065,
        "longitude": 18.11517
    },
    {
        "name": "Ночи",
        "latitude": 40.79356,
        "longitude": 17.12681
    },
    {
        "name": "Ночилья",
        "latitude": 40.03804,
        "longitude": 18.32757
    },
    {
        "name": "Хотя",
        "latitude": 40.15323,
        "longitude": 18.16569
    },
    {
        "name": "Нойкаттаро",
        "latitude": 41.03449,
        "longitude": 16.98963
    },
    {
        "name": "Новоли",
        "latitude": 40.37673,
        "longitude": 18.04757
    },
    {
        "name": "Заказ",
        "latitude": 41.31501,
        "longitude": 15.62832
    },
    {
        "name": "Болезнь",
        "latitude": 40.49999,
        "longitude": 17.6428
    },
    {
        "name": "Орсара Апулийская",
        "latitude": 41.28163,
        "longitude": 15.26765
    },
    {
        "name": "Орта Нова",
        "latitude": 41.32879,
        "longitude": 15.70994
    },
    {
        "name": "Ортель",
        "latitude": 40.03371,
        "longitude": 18.39125
    },
    {
        "name": "Остуни",
        "latitude": 40.72913,
        "longitude": 17.57675
    },
    {
        "name": "Отранто",
        "latitude": 40.14789,
        "longitude": 18.48682
    },
    {
        "name": "Паладжанелло",
        "latitude": 40.60851,
        "longitude": 16.97802
    },
    {
        "name": "Паладжано",
        "latitude": 40.57762,
        "longitude": 17.03812
    },
    {
        "name": "Скрещенные пальцы",
        "latitude": 40.13099,
        "longitude": 18.37863
    },
    {
        "name": "Пало дель Колле",
        "latitude": 41.05562,
        "longitude": 16.70321
    },
    {
        "name": "Голубятня",
        "latitude": 41.07036,
        "longitude": 16.60962
    },
    {
        "name": "Одежда",
        "latitude": 41.22082,
        "longitude": 15.2756
    },
    {
        "name": "Павел VI",
        "latitude": 40.52218,
        "longitude": 17.27401
    },
    {
        "name": "Парабита",
        "latitude": 40.05139,
        "longitude": 18.12651
    },
    {
        "name": "Парк Шиццо-Парчителло",
        "latitude": 41.07457,
        "longitude": 16.99329
    },
    {
        "name": "Извини",
        "latitude": 39.84078,
        "longitude": 18.33784
    },
    {
        "name": "Пескичи",
        "latitude": 41.94521,
        "longitude": 16.01612
    },
    {
        "name": "Греческие кусочки",
        "latitude": 40.81004,
        "longitude": 17.41333
    },
    {
        "name": "Пьетрамонтекорвино",
        "latitude": 41.54228,
        "longitude": 15.12894
    },
    {
        "name": "Пизиньяно",
        "latitude": 40.3047,
        "longitude": 18.27155
    },
    {
        "name": "Поджардо",
        "latitude": 40.05315,
        "longitude": 18.37819
    },
    {
        "name": "Поджо Империале",
        "latitude": 41.82503,
        "longitude": 15.3668
    },
    {
        "name": "Поджорсини",
        "latitude": 40.91403,
        "longitude": 16.25605
    },
    {
        "name": "Полиньяно-а-Маре",
        "latitude": 40.99221,
        "longitude": 17.22149
    },
    {
        "name": "Порто-Чезарео",
        "latitude": 40.26228,
        "longitude": 17.89896
    },
    {
        "name": "Пресичче",
        "latitude": 39.90055,
        "longitude": 18.26282
    },
    {
        "name": "Провинция Барлетта – Андрия – Трани",
        "latitude": 41.25097,
        "longitude": 16.17599
    },
    {
        "name": "Провинция Бриндизи",
        "latitude": 40.58333,
        "longitude": 17.66667
    },
    {
        "name": "Провинция Фоджа",
        "latitude": 41.45,
        "longitude": 15.53333
    },
    {
        "name": "Провинция Лечче",
        "latitude": 40.21667,
        "longitude": 18.16667
    },
    {
        "name": "Провинция Таранто",
        "latitude": 40.61667,
        "longitude": 17.25
    },
    {
        "name": "Они пульсируют",
        "latitude": 40.38109,
        "longitude": 17.35612
    },
    {
        "name": "Путиньяно",
        "latitude": 40.85106,
        "longitude": 17.1219
    },
    {
        "name": "Квазано",
        "latitude": 40.96724,
        "longitude": 16.57354
    },
    {
        "name": "Ракаль",
        "latitude": 39.96086,
        "longitude": 18.09154
    },
    {
        "name": "Риньяно Гарганико",
        "latitude": 41.67934,
        "longitude": 15.58835
    },
    {
        "name": "Крепость",
        "latitude": 40.437,
        "longitude": 17.38986
    },
    {
        "name": "Роккетта Сант'Антонио",
        "latitude": 41.10326,
        "longitude": 15.45993
    },
    {
        "name": "Родос Гарганико",
        "latitude": 41.92745,
        "longitude": 15.88217
    },
    {
        "name": "Розарий Вальфорторе",
        "latitude": 41.37544,
        "longitude": 15.09824
    },
    {
        "name": "Руффано",
        "latitude": 39.98195,
        "longitude": 18.24974
    },
    {
        "name": "Рутильяно",
        "latitude": 41.00997,
        "longitude": 17.00558
    },
    {
        "name": "Руво ди Апулия",
        "latitude": 41.11758,
        "longitude": 16.48421
    },
    {
        "name": "Саличе Салентино",
        "latitude": 40.38485,
        "longitude": 17.96134
    },
    {
        "name": "бальзам",
        "latitude": 39.86111,
        "longitude": 18.29493
    },
    {
        "name": "Саммикеле из Бари",
        "latitude": 40.88711,
        "longitude": 16.94919
    },
    {
        "name": "Сан-Кассиано",
        "latitude": 40.05631,
        "longitude": 18.33392
    },
    {
        "name": "Сан Чезарио Лечче",
        "latitude": 40.30221,
        "longitude": 18.16098
    },
    {
        "name": "Сан-Доначи",
        "latitude": 40.44853,
        "longitude": 17.92252
    },
    {
        "name": "Сан Донато Лечче",
        "latitude": 40.26728,
        "longitude": 18.18256
    },
    {
        "name": "Сан-Джорджо Ионико",
        "latitude": 40.45796,
        "longitude": 17.38034
    },
    {
        "name": "Сан Джованни Ротондо",
        "latitude": 41.70643,
        "longitude": 15.7277
    },
    {
        "name": "Сан-Марко-ин-Ламис",
        "latitude": 41.7121,
        "longitude": 15.63825
    },
    {
        "name": "Сан-Марко-ла-Катола",
        "latitude": 41.52483,
        "longitude": 15.00594
    },
    {
        "name": "Сан Марцано ди Сан Джузеппе",
        "latitude": 40.45455,
        "longitude": 17.50351
    },
    {
        "name": "Сан-Микеле Салентино",
        "latitude": 40.63163,
        "longitude": 17.63254
    },
    {
        "name": "Сан Панкрацио Салентино",
        "latitude": 40.418,
        "longitude": 17.83419
    },
    {
        "name": "св. Павел",
        "latitude": 41.12476,
        "longitude": 16.79258
    },
    {
        "name": "Сан-Паоло-ди-Чивитате",
        "latitude": 41.73893,
        "longitude": 15.2608
    },
    {
        "name": "Сан-Пьетро-ин-Лама",
        "latitude": 40.30711,
        "longitude": 18.12787
    },
    {
        "name": "Сан Пьетро Вернотико",
        "latitude": 40.4889,
        "longitude": 17.99752
    },
    {
        "name": "Святой Северус",
        "latitude": 41.68564,
        "longitude": 15.38148
    },
    {
        "name": "Сан-Вито-деи-Норманни",
        "latitude": 40.65642,
        "longitude": 17.70814
    },
    {
        "name": "Санарика",
        "latitude": 40.08908,
        "longitude": 18.34803
    },
    {
        "name": "Санникандро из Бари",
        "latitude": 41.00047,
        "longitude": 16.79714
    },
    {
        "name": "Санникандро Гарганико",
        "latitude": 41.83844,
        "longitude": 15.56535
    },
    {
        "name": "Санникола",
        "latitude": 40.09244,
        "longitude": 18.06765
    },
    {
        "name": "Сант-Агата-ди-Апулия",
        "latitude": 41.15127,
        "longitude": 15.37968
    },
    {
        "name": "Санта-Кесария-Терме",
        "latitude": 40.03607,
        "longitude": 18.45542
    },
    {
        "name": "Сантерамо-ин-Колле",
        "latitude": 40.79236,
        "longitude": 16.75873
    },
    {
        "name": "Сава",
        "latitude": 40.40203,
        "longitude": 17.55267
    },
    {
        "name": "Они текут",
        "latitude": 40.09018,
        "longitude": 18.29993
    },
    {
        "name": "Секли",
        "latitude": 40.11897,
        "longitude": 18.10931
    },
    {
        "name": "Серракаприола",
        "latitude": 41.80912,
        "longitude": 15.16098
    },
    {
        "name": "Серрано",
        "latitude": 40.18438,
        "longitude": 18.35156
    },
    {
        "name": "Сольяно Кавур",
        "latitude": 40.14827,
        "longitude": 18.19741
    },
    {
        "name": "Солето",
        "latitude": 40.18781,
        "longitude": 18.2063
    },
    {
        "name": "Зеркало",
        "latitude": 39.93913,
        "longitude": 18.29784
    },
    {
        "name": "Спонгано",
        "latitude": 40.01782,
        "longitude": 18.36563
    },
    {
        "name": "Сквинзано",
        "latitude": 40.43513,
        "longitude": 18.04086
    },
    {
        "name": "Оставаться",
        "latitude": 40.52856,
        "longitude": 17.20122
    },
    {
        "name": "Стернация",
        "latitude": 40.22022,
        "longitude": 18.22748
    },
    {
        "name": "Сторнара",
        "latitude": 41.28672,
        "longitude": 15.77003
    },
    {
        "name": "Сторнарелла",
        "latitude": 41.25591,
        "longitude": 15.73023
    },
    {
        "name": "Борьба",
        "latitude": 40.31991,
        "longitude": 18.28176
    },
    {
        "name": "Суперсано",
        "latitude": 40.01655,
        "longitude": 18.24205
    },
    {
        "name": "Сурано",
        "latitude": 40.02818,
        "longitude": 18.34591
    },
    {
        "name": "Сурбо",
        "latitude": 40.39383,
        "longitude": 18.13456
    },
    {
        "name": "Таранто",
        "latitude": 40.46438,
        "longitude": 17.24707
    },
    {
        "name": "Таурисано",
        "latitude": 39.95746,
        "longitude": 18.21498
    },
    {
        "name": "Тавиано",
        "latitude": 39.98224,
        "longitude": 18.08151
    },
    {
        "name": "Терлицци",
        "latitude": 41.12905,
        "longitude": 16.54536
    },
    {
        "name": "Тиджано",
        "latitude": 39.90284,
        "longitude": 18.36501
    },
    {
        "name": "Торкьяроло",
        "latitude": 40.48349,
        "longitude": 18.05122
    },
    {
        "name": "Торитто",
        "latitude": 40.99774,
        "longitude": 16.67945
    },
    {
        "name": "Башня Сан-Джованни",
        "latitude": 39.89001,
        "longitude": 18.11159
    },
    {
        "name": "Башня Санта-Сусанна",
        "latitude": 40.46762,
        "longitude": 17.73864
    },
    {
        "name": "Торремаджоре",
        "latitude": 41.68894,
        "longitude": 15.29408
    },
    {
        "name": "Торричелла",
        "latitude": 40.35509,
        "longitude": 17.49846
    },
    {
        "name": "Трепуцци",
        "latitude": 40.40535,
        "longitude": 18.07625
    },
    {
        "name": "Триказ",
        "latitude": 39.93018,
        "longitude": 18.35421
    },
    {
        "name": "Триджано",
        "latitude": 41.06549,
        "longitude": 16.92501
    },
    {
        "name": "Троя",
        "latitude": 41.36428,
        "longitude": 15.3173
    },
    {
        "name": "Удалять",
        "latitude": 40.07346,
        "longitude": 18.09872
    },
    {
        "name": "У вас есть",
        "latitude": 40.91657,
        "longitude": 17.02038
    },
    {
        "name": "Опекун",
        "latitude": 40.54474,
        "longitude": 17.94754
    },
    {
        "name": "Удженто",
        "latitude": 39.92724,
        "longitude": 18.15832
    },
    {
        "name": "Они ненавидят Церковь",
        "latitude": 40.10091,
        "longitude": 18.44872
    },
    {
        "name": "Уджано Монтефуско",
        "latitude": 40.38612,
        "longitude": 17.6046
    },
    {
        "name": "Валенцано",
        "latitude": 41.04376,
        "longitude": 16.88491
    },
    {
        "name": "бдения",
        "latitude": 40.33474,
        "longitude": 17.96238
    },
    {
        "name": "вернол",
        "latitude": 40.28834,
        "longitude": 18.30165
    },
    {
        "name": "Вико дель Гаргано",
        "latitude": 41.89661,
        "longitude": 15.95682
    },
    {
        "name": "Вьесте",
        "latitude": 41.88209,
        "longitude": 16.17139
    },
    {
        "name": "Виньякастризи",
        "latitude": 40.01604,
        "longitude": 18.40704
    },
    {
        "name": "Вилла Кастелли",
        "latitude": 40.58293,
        "longitude": 17.47468
    },
    {
        "name": "Витильяно",
        "latitude": 40.03951,
        "longitude": 18.4117
    },
    {
        "name": "Вольтурара Аппула",
        "latitude": 41.49603,
        "longitude": 15.05224
    },
    {
        "name": "Вольтурино",
        "latitude": 41.47723,
        "longitude": 15.12424
    },
    {
        "name": "Саппонета",
        "latitude": 41.4571,
        "longitude": 15.95615
    },
    {
        "name": "Золлино",
        "latitude": 40.20581,
        "longitude": 18.24774
    },
    {
        "name": "Андрия",
        "latitude": 41.23117,
        "longitude": 16.29797
    },
    {
        "name": "Барлетта",
        "latitude": 41.31429,
        "longitude": 16.28165
    },
    {
        "name": "Бишелье",
        "latitude": 41.24264,
        "longitude": 16.50104
    },
    {
        "name": "Каноса из Апулии",
        "latitude": 41.21954,
        "longitude": 16.06768
    },
    {
        "name": "Маргарита Савойская",
        "latitude": 41.37174,
        "longitude": 16.15275
    },
    {
        "name": "Минервино Мурге",
        "latitude": 41.08264,
        "longitude": 16.07861
    },
    {
        "name": "Святой Фердинанд Апулийский",
        "latitude": 41.30263,
        "longitude": 16.07046
    },
    {
        "name": "Спинаццола",
        "latitude": 40.96399,
        "longitude": 16.09111
    },
    {
        "name": "Трани",
        "latitude": 41.27733,
        "longitude": 16.41011
    },
    {
        "name": "Тринитаполи",
        "latitude": 41.35654,
        "longitude": 16.08924
    },
    {
        "name": "Абриола",
        "latitude": 40.50748,
        "longitude": 15.8131
    },
    {
        "name": "Принятие",
        "latitude": 40.49102,
        "longitude": 16.15798
    },
    {
        "name": "Асеренца",
        "latitude": 40.79386,
        "longitude": 15.93808
    },
    {
        "name": "Альбан из Лукании",
        "latitude": 40.58614,
        "longitude": 16.03712
    },
    {
        "name": "Алиано",
        "latitude": 40.31359,
        "longitude": 16.22984
    },
    {
        "name": "Напротив",
        "latitude": 40.51662,
        "longitude": 15.92457
    },
    {
        "name": "Стадо",
        "latitude": 40.3066,
        "longitude": 16.0655
    },
    {
        "name": "Ателла",
        "latitude": 40.87855,
        "longitude": 15.65226
    },
    {
        "name": "Авильяно",
        "latitude": 40.73291,
        "longitude": 15.72004
    },
    {
        "name": "Бальвано",
        "latitude": 40.64953,
        "longitude": 15.51345
    },
    {
        "name": "Они широкие",
        "latitude": 40.86063,
        "longitude": 16.00976
    },
    {
        "name": "Бараджано",
        "latitude": 40.68001,
        "longitude": 15.59398
    },
    {
        "name": "Бочка",
        "latitude": 40.94327,
        "longitude": 15.67167
    },
    {
        "name": "Белла",
        "latitude": 40.76059,
        "longitude": 15.54101
    },
    {
        "name": "Бернальда",
        "latitude": 40.41261,
        "longitude": 16.68919
    },
    {
        "name": "Бриенца",
        "latitude": 40.47751,
        "longitude": 15.62927
    },
    {
        "name": "Гора Бриндизи",
        "latitude": 40.60952,
        "longitude": 15.93977
    },
    {
        "name": "Они пинают",
        "latitude": 40.58802,
        "longitude": 16.19238
    },
    {
        "name": "Кальвелло",
        "latitude": 40.47482,
        "longitude": 15.85092
    },
    {
        "name": "череп",
        "latitude": 40.14871,
        "longitude": 16.14362
    },
    {
        "name": "Кампомаджоре",
        "latitude": 40.5659,
        "longitude": 16.0725
    },
    {
        "name": "Канчеллара",
        "latitude": 40.73068,
        "longitude": 15.9247
    },
    {
        "name": "Карбоне",
        "latitude": 40.14227,
        "longitude": 16.08846
    },
    {
        "name": "Кастельгранде",
        "latitude": 40.78639,
        "longitude": 15.43109
    },
    {
        "name": "Нижний Кастеллуччо",
        "latitude": 40.00151,
        "longitude": 15.98149
    },
    {
        "name": "Кастеллуччо Супериоре",
        "latitude": 40.01003,
        "longitude": 15.97184
    },
    {
        "name": "Кастельмеццано",
        "latitude": 40.52832,
        "longitude": 16.04585
    },
    {
        "name": "Кастельсарасено",
        "latitude": 40.16213,
        "longitude": 15.99281
    },
    {
        "name": "Кастронуово-ди-Сант-Андреа",
        "latitude": 40.18903,
        "longitude": 16.18559
    },
    {
        "name": "Серсосимо",
        "latitude": 40.04703,
        "longitude": 16.35059
    },
    {
        "name": "Кьяромонте",
        "latitude": 40.12323,
        "longitude": 16.2144
    },
    {
        "name": "Чирильяно",
        "latitude": 40.39376,
        "longitude": 16.17194
    },
    {
        "name": "Соавтор",
        "latitude": 40.18841,
        "longitude": 16.4248
    },
    {
        "name": "Корлето Пертикара",
        "latitude": 40.38214,
        "longitude": 16.03917
    },
    {
        "name": "Крако-Сант-Анджело",
        "latitude": 40.37992,
        "longitude": 16.43708
    },
    {
        "name": "епархия",
        "latitude": 40.07481,
        "longitude": 16.09818
    },
    {
        "name": "Груз",
        "latitude": 40.11381,
        "longitude": 16.16978
    },
    {
        "name": "Феррандина",
        "latitude": 40.50084,
        "longitude": 16.45258
    },
    {
        "name": "Дочернее предприятие",
        "latitude": 40.81042,
        "longitude": 15.70984
    },
    {
        "name": "Форенца",
        "latitude": 40.86041,
        "longitude": 15.85457
    },
    {
        "name": "Франкавилла в Синни",
        "latitude": 40.08142,
        "longitude": 16.20417
    },
    {
        "name": "Галликкьо",
        "latitude": 40.29232,
        "longitude": 16.13561
    },
    {
        "name": "Гарагузо",
        "latitude": 40.54866,
        "longitude": 16.22827
    },
    {
        "name": "Дженцано ди Лукания",
        "latitude": 40.84589,
        "longitude": 16.03124
    },
    {
        "name": "Метла",
        "latitude": 40.93092,
        "longitude": 15.73497
    },
    {
        "name": "Бульканье",
        "latitude": 40.39532,
        "longitude": 16.14456
    },
    {
        "name": "Грассано",
        "latitude": 40.63457,
        "longitude": 16.27792
    },
    {
        "name": "Гроттоле",
        "latitude": 40.60333,
        "longitude": 16.37831
    },
    {
        "name": "Грументо Нова",
        "latitude": 40.28281,
        "longitude": 15.88877
    },
    {
        "name": "Страж Пертикара",
        "latitude": 40.36167,
        "longitude": 16.09845
    },
    {
        "name": "Ирсина",
        "latitude": 40.75015,
        "longitude": 16.23816
    },
    {
        "name": "Мартелла",
        "latitude": 40.66251,
        "longitude": 16.53551
    },
    {
        "name": "Лагонегро",
        "latitude": 40.12785,
        "longitude": 15.76212
    },
    {
        "name": "Латронико",
        "latitude": 40.08909,
        "longitude": 16.00947
    },
    {
        "name": "Лауренсана",
        "latitude": 40.45908,
        "longitude": 15.97075
    },
    {
        "name": "Лаурия",
        "latitude": 40.04702,
        "longitude": 15.83812
    },
    {
        "name": "Раковина",
        "latitude": 41.04769,
        "longitude": 15.78915
    },
    {
        "name": "Лидо",
        "latitude": 40.19128,
        "longitude": 16.70692
    },
    {
        "name": "Маратея",
        "latitude": 39.99932,
        "longitude": 15.71539
    },
    {
        "name": "Маркония",
        "latitude": 40.36355,
        "longitude": 16.68823
    },
    {
        "name": "Марсико Нуово",
        "latitude": 40.42359,
        "longitude": 15.73462
    },
    {
        "name": "Марсиковетере",
        "latitude": 40.37591,
        "longitude": 15.82569
    },
    {
        "name": "Мужской",
        "latitude": 40.90892,
        "longitude": 15.82946
    },
    {
        "name": "Матера",
        "latitude": 40.66599,
        "longitude": 16.60463
    },
    {
        "name": "Мелфи",
        "latitude": 40.99571,
        "longitude": 15.65578
    },
    {
        "name": "Миглионик",
        "latitude": 40.56763,
        "longitude": 16.49964
    },
    {
        "name": "Миссанелло",
        "latitude": 40.28311,
        "longitude": 16.1665
    },
    {
        "name": "Молитерно",
        "latitude": 40.24394,
        "longitude": 15.86544
    },
    {
        "name": "Монтальбано Джонико",
        "latitude": 40.28591,
        "longitude": 16.5696
    },
    {
        "name": "Монтемилоне",
        "latitude": 41.02742,
        "longitude": 15.96661
    },
    {
        "name": "Монтемурро",
        "latitude": 40.29765,
        "longitude": 15.99182
    },
    {
        "name": "Монтескальозо",
        "latitude": 40.55024,
        "longitude": 16.66541
    },
    {
        "name": "Луканская стена",
        "latitude": 40.75379,
        "longitude": 15.48808
    },
    {
        "name": "Не волнуйся",
        "latitude": 40.06765,
        "longitude": 15.79962
    },
    {
        "name": "Ноэполи",
        "latitude": 40.08705,
        "longitude": 16.32834
    },
    {
        "name": "Новая Сири",
        "latitude": 40.14823,
        "longitude": 16.53976
    },
    {
        "name": "Нова Сири Скало",
        "latitude": 40.13177,
        "longitude": 16.63593
    },
    {
        "name": "Луканская оливковая роща",
        "latitude": 40.53554,
        "longitude": 16.18547
    },
    {
        "name": "В городе Лукан",
        "latitude": 40.76174,
        "longitude": 15.98818
    },
    {
        "name": "Палаццо Сан Джервазио",
        "latitude": 40.93156,
        "longitude": 15.98149
    },
    {
        "name": "Патерно",
        "latitude": 40.37507,
        "longitude": 15.7351
    },
    {
        "name": "Пескопагано",
        "latitude": 40.83494,
        "longitude": 15.39946
    },
    {
        "name": "Пичерно",
        "latitude": 40.63975,
        "longitude": 15.64232
    },
    {
        "name": "Пьетрагалла",
        "latitude": 40.74572,
        "longitude": 15.87398
    },
    {
        "name": "Пьетрапертоза",
        "latitude": 40.51731,
        "longitude": 16.06244
    },
    {
        "name": "суетливый",
        "latitude": 40.57412,
        "longitude": 15.78295
    },
    {
        "name": "Пистиччи",
        "latitude": 40.39017,
        "longitude": 16.55919
    },
    {
        "name": "Поликоро",
        "latitude": 40.2128,
        "longitude": 16.67795
    },
    {
        "name": "Помарико",
        "latitude": 40.52804,
        "longitude": 16.52708
    },
    {
        "name": "Власть",
        "latitude": 40.64175,
        "longitude": 15.80794
    },
    {
        "name": "Провинция Матера",
        "latitude": 40.5,
        "longitude": 16.41667
    },
    {
        "name": "Провинция Потенца",
        "latitude": 40.46442,
        "longitude": 15.89938
    },
    {
        "name": "Раполла",
        "latitude": 40.97499,
        "longitude": 15.67201
    },
    {
        "name": "Рапоне",
        "latitude": 40.8471,
        "longitude": 15.49818
    },
    {
        "name": "Рионеро в Стервятнике",
        "latitude": 40.92328,
        "longitude": 15.6711
    },
    {
        "name": "Рипакандида",
        "latitude": 40.91256,
        "longitude": 15.72597
    },
    {
        "name": "Ривелло",
        "latitude": 40.07821,
        "longitude": 15.75798
    },
    {
        "name": "Рокканова",
        "latitude": 40.2125,
        "longitude": 16.20429
    },
    {
        "name": "Карусель",
        "latitude": 39.95215,
        "longitude": 16.03904
    },
    {
        "name": "Карусель",
        "latitude": 40.17136,
        "longitude": 16.52491
    },
    {
        "name": "Поворот",
        "latitude": 40.7166,
        "longitude": 15.68369
    },
    {
        "name": "Руво дель Монте",
        "latitude": 40.84951,
        "longitude": 15.54217
    },
    {
        "name": "Саландра",
        "latitude": 40.52668,
        "longitude": 16.32037
    },
    {
        "name": "Сан-Бранкато",
        "latitude": 40.25822,
        "longitude": 16.25661
    },
    {
        "name": "Сан Кирико Нуово",
        "latitude": 40.67764,
        "longitude": 16.07892
    },
    {
        "name": "Сан-Кирико-Рапаро",
        "latitude": 40.19242,
        "longitude": 16.07618
    },
    {
        "name": "Святой Константин Албанский",
        "latitude": 40.03679,
        "longitude": 16.30475
    },
    {
        "name": "Половина Сана",
        "latitude": 40.81647,
        "longitude": 15.54043
    },
    {
        "name": "Святой Георгий Лукан",
        "latitude": 40.11132,
        "longitude": 16.3893
    },
    {
        "name": "Сан-Мартино-д'Агри",
        "latitude": 40.23913,
        "longitude": 16.05216
    },
    {
        "name": "Сан Мауро Форте",
        "latitude": 40.48333,
        "longitude": 16.25155
    },
    {
        "name": "Святой Павел Албанский",
        "latitude": 40.03567,
        "longitude": 16.33498
    },
    {
        "name": "Сан-Северино Лукано",
        "latitude": 40.02021,
        "longitude": 16.1386
    },
    {
        "name": "Сант-Анджело-ле-Фратте",
        "latitude": 40.5449,
        "longitude": 15.56156
    },
    {
        "name": "Святой Архангел",
        "latitude": 40.24852,
        "longitude": 16.27046
    },
    {
        "name": "Саркони",
        "latitude": 40.248,
        "longitude": 15.88837
    },
    {
        "name": "Сассо ди Кастальда",
        "latitude": 40.48525,
        "longitude": 15.67569
    },
    {
        "name": "Сатриано из Лукании",
        "latitude": 40.54296,
        "longitude": 15.64024
    },
    {
        "name": "Савойя Лукании",
        "latitude": 40.56949,
        "longitude": 15.55132
    },
    {
        "name": "Аэропорт Бараджано",
        "latitude": 40.695,
        "longitude": 15.57508
    },
    {
        "name": "Сканцано Джонико",
        "latitude": 40.25085,
        "longitude": 16.69824
    },
    {
        "name": "До сих пор",
        "latitude": 40.14616,
        "longitude": 16.28867
    },
    {
        "name": "Тернистый",
        "latitude": 40.26921,
        "longitude": 15.96658
    },
    {
        "name": "Стильяно",
        "latitude": 40.40237,
        "longitude": 16.22983
    },
    {
        "name": "Трогать",
        "latitude": 40.12586,
        "longitude": 16.15281
    },
    {
        "name": "Ньюфаундленд Поллино",
        "latitude": 39.97765,
        "longitude": 16.29583
    },
    {
        "name": "Тито",
        "latitude": 40.5837,
        "longitude": 15.67621
    },
    {
        "name": "Двенадцать",
        "latitude": 40.69422,
        "longitude": 16.01627
    },
    {
        "name": "Трамутола",
        "latitude": 40.31858,
        "longitude": 15.78753
    },
    {
        "name": "Коса",
        "latitude": 40.02611,
        "longitude": 15.77585
    },
    {
        "name": "Трикарико",
        "latitude": 40.61458,
        "longitude": 16.14259
    },
    {
        "name": "Тривиньо",
        "latitude": 40.58015,
        "longitude": 15.98857
    },
    {
        "name": "Турси",
        "latitude": 40.24651,
        "longitude": 16.4714
    },
    {
        "name": "Я экранирую Базиликату",
        "latitude": 40.66643,
        "longitude": 15.91434
    },
    {
        "name": "Вальс",
        "latitude": 40.17098,
        "longitude": 16.44388
    },
    {
        "name": "Венозный",
        "latitude": 40.96283,
        "longitude": 15.81285
    },
    {
        "name": "Вьетри ди Потенца",
        "latitude": 40.60027,
        "longitude": 15.50787
    },
    {
        "name": "Виджанелло",
        "latitude": 39.97227,
        "longitude": 16.08521
    },
    {
        "name": "Виджано",
        "latitude": 40.34213,
        "longitude": 15.89964
    },
    {
        "name": "Вилла д'Агри",
        "latitude": 40.35426,
        "longitude": 15.8277
    },
    {
        "name": "Зона 179",
        "latitude": 41.00313,
        "longitude": 15.61868
    },
    {
        "name": "Аккония",
        "latitude": 38.83585,
        "longitude": 16.2653
    },
    {
        "name": "Акваформ",
        "latitude": 39.72278,
        "longitude": 16.09096
    },
    {
        "name": "Акуаппеса",
        "latitude": 39.49573,
        "longitude": 15.95419
    },
    {
        "name": "Водолей",
        "latitude": 38.55729,
        "longitude": 16.18781
    },
    {
        "name": "Акко",
        "latitude": 39.49624,
        "longitude": 16.38635
    },
    {
        "name": "Новая Африка",
        "latitude": 38.05067,
        "longitude": 16.1332
    },
    {
        "name": "Старая Африка",
        "latitude": 38.06667,
        "longitude": 15.98333
    },
    {
        "name": "Аньяна Калабра",
        "latitude": 38.30206,
        "longitude": 16.22718
    },
    {
        "name": "Айелло Калабро",
        "latitude": 39.11785,
        "longitude": 16.16539
    },
    {
        "name": "Айета",
        "latitude": 39.9278,
        "longitude": 15.82348
    },
    {
        "name": "отбеливать",
        "latitude": 39.02456,
        "longitude": 16.59721
    },
    {
        "name": "Альбидона",
        "latitude": 39.92332,
        "longitude": 16.47237
    },
    {
        "name": "Алессандрия дель Карретто",
        "latitude": 39.95874,
        "longitude": 16.37963
    },
    {
        "name": "Алтилия",
        "latitude": 39.13049,
        "longitude": 16.25269
    },
    {
        "name": "Альтомонте",
        "latitude": 39.699,
        "longitude": 16.12999
    },
    {
        "name": "Амантеа",
        "latitude": 39.12658,
        "longitude": 16.07512
    },
    {
        "name": "Амаронес",
        "latitude": 38.79424,
        "longitude": 16.44809
    },
    {
        "name": "Амато",
        "latitude": 38.38333,
        "longitude": 16.13333
    },
    {
        "name": "Амендолара",
        "latitude": 39.95162,
        "longitude": 16.58293
    },
    {
        "name": "Друг",
        "latitude": 39.60085,
        "longitude": 16.66694
    },
    {
        "name": "Легкий",
        "latitude": 39.01281,
        "longitude": 16.76926
    },
    {
        "name": "Андреотта",
        "latitude": 39.3075,
        "longitude": 16.2177
    },
    {
        "name": "Анойя Нижняя",
        "latitude": 38.43618,
        "longitude": 16.0794
    },
    {
        "name": "Анойя Супериоре",
        "latitude": 38.43144,
        "longitude": 16.0974
    },
    {
        "name": "Антоним",
        "latitude": 38.27298,
        "longitude": 16.14824
    },
    {
        "name": "Априльяно",
        "latitude": 39.24228,
        "longitude": 16.34046
    },
    {
        "name": "Аркаваката",
        "latitude": 39.35846,
        "longitude": 16.20844
    },
    {
        "name": "Пыл",
        "latitude": 38.19173,
        "longitude": 16.16734
    },
    {
        "name": "Ардор Марина",
        "latitude": 38.16667,
        "longitude": 16.2
    },
    {
        "name": "Арена",
        "latitude": 38.56235,
        "longitude": 16.2106
    },
    {
        "name": "Аргусто",
        "latitude": 38.68051,
        "longitude": 16.43627
    },
    {
        "name": "Бадолато",
        "latitude": 38.56868,
        "longitude": 16.52461
    },
    {
        "name": "Бадолато Марина",
        "latitude": 38.57613,
        "longitude": 16.56527
    },
    {
        "name": "Багалади",
        "latitude": 38.0256,
        "longitude": 15.82152
    },
    {
        "name": "Баньяра Калабра",
        "latitude": 38.28778,
        "longitude": 15.80591
    },
    {
        "name": "Барон",
        "latitude": 38.85225,
        "longitude": 16.63927
    },
    {
        "name": "Белькастро",
        "latitude": 39.01799,
        "longitude": 16.78641
    },
    {
        "name": "Бельмонте Калабро",
        "latitude": 39.16398,
        "longitude": 16.08215
    },
    {
        "name": "Белсито",
        "latitude": 39.17685,
        "longitude": 16.28745
    },
    {
        "name": "Морской Бельведер",
        "latitude": 39.6193,
        "longitude": 15.8622
    },
    {
        "name": "Бельведер Спинелло",
        "latitude": 39.20674,
        "longitude": 16.89233
    },
    {
        "name": "Одобрение",
        "latitude": 38.18487,
        "longitude": 16.139
    },
    {
        "name": "Бьянки",
        "latitude": 39.10058,
        "longitude": 16.41018
    },
    {
        "name": "Бьянко",
        "latitude": 38.0917,
        "longitude": 16.15159
    },
    {
        "name": "Бизиньяно",
        "latitude": 39.50727,
        "longitude": 16.28106
    },
    {
        "name": "Бивонги",
        "latitude": 38.48328,
        "longitude": 16.45251
    },
    {
        "name": "мундштук",
        "latitude": 39.4193,
        "longitude": 16.75057
    },
    {
        "name": "Бонифати",
        "latitude": 39.58595,
        "longitude": 15.90163
    },
    {
        "name": "Морская деревня",
        "latitude": 39.97136,
        "longitude": 16.62091
    },
    {
        "name": "Борджиа",
        "latitude": 38.82627,
        "longitude": 16.5077
    },
    {
        "name": "Ботричелло",
        "latitude": 38.92997,
        "longitude": 16.85801
    },
    {
        "name": "Мы будем",
        "latitude": 37.99507,
        "longitude": 15.9319
    },
    {
        "name": "Бова Марина",
        "latitude": 37.93503,
        "longitude": 15.91736
    },
    {
        "name": "Бовалино",
        "latitude": 38.15376,
        "longitude": 16.17232
    },
    {
        "name": "Бовалино Супериоре",
        "latitude": 38.16905,
        "longitude": 16.15849
    },
    {
        "name": "Бранкалеоне",
        "latitude": 37.96297,
        "longitude": 16.1004
    },
    {
        "name": "Бранкалеоне-Марина",
        "latitude": 37.96667,
        "longitude": 16.1
    },
    {
        "name": "Бриатико",
        "latitude": 38.72254,
        "longitude": 16.02737
    },
    {
        "name": "Брогнатуро",
        "latitude": 38.60128,
        "longitude": 16.3414
    },
    {
        "name": "Брузцано Дзефирио",
        "latitude": 38.01327,
        "longitude": 16.0826
    },
    {
        "name": "Хороший сосед",
        "latitude": 39.68877,
        "longitude": 15.884
    },
    {
        "name": "Каккури",
        "latitude": 39.22562,
        "longitude": 16.77767
    },
    {
        "name": "Калан",
        "latitude": 38.18457,
        "longitude": 15.72293
    },
    {
        "name": "Сбить себя с ног",
        "latitude": 39.5612,
        "longitude": 16.8018
    },
    {
        "name": "Каловето",
        "latitude": 39.50656,
        "longitude": 16.76065
    },
    {
        "name": "Кальвизи",
        "latitude": 39.12739,
        "longitude": 16.3059
    },
    {
        "name": "Камины",
        "latitude": 38.43179,
        "longitude": 16.48321
    },
    {
        "name": "Кампана",
        "latitude": 39.4136,
        "longitude": 16.8222
    },
    {
        "name": "Поле Калабро",
        "latitude": 38.21607,
        "longitude": 15.65919
    },
    {
        "name": "Кампора Сан Джованни",
        "latitude": 39.06798,
        "longitude": 16.09566
    },
    {
        "name": "Кандидаты",
        "latitude": 38.50548,
        "longitude": 16.0863
    },
    {
        "name": "Канна",
        "latitude": 40.09484,
        "longitude": 16.50378
    },