[
    {
        "name": "Айсай-ши",
        "latitude": 35.17234,
        "longitude": 136.69478
    },
    {
        "name": "Ама-пушка",
        "latitude": 35.17174,
        "longitude": 136.82308
    },
    {
        "name": "Андзё-ши",
        "latitude": 34.94341,
        "longitude": 137.07165
    },
    {
        "name": "Чирю",
        "latitude": 35.0,
        "longitude": 137.03333
    },
    {
        "name": "Чирю-ши",
        "latitude": 34.99862,
        "longitude": 137.05
    },
    {
        "name": "Садиться",
        "latitude": 35.00267,
        "longitude": 136.8642
    },
    {
        "name": "Чита-ши",
        "latitude": 34.97048,
        "longitude": 136.8649
    },
    {
        "name": "Гамагори",
        "latitude": 34.83333,
        "longitude": 137.23333
    },
    {
        "name": "Гамагори-ши",
        "latitude": 34.82759,
        "longitude": 137.22752
    },
    {
        "name": "Ханда",
        "latitude": 34.88333,
        "longitude": 136.93333
    },
    {
        "name": "Ханда-ши",
        "latitude": 34.89903,
        "longitude": 136.9266
    },
    {
        "name": "в",
        "latitude": 34.88333,
        "longitude": 136.98333
    },
    {
        "name": "Хекинан-ши",
        "latitude": 34.87955,
        "longitude": 136.99155
    },
    {
        "name": "Ичиномия",
        "latitude": 35.3,
        "longitude": 136.8
    },
    {
        "name": "Ичиномия-ши",
        "latitude": 35.31037,
        "longitude": 136.79237
    },
    {
        "name": "Инадзава",
        "latitude": 35.25,
        "longitude": 136.78333
    },
    {
        "name": "Инадзава-ши",
        "latitude": 35.24814,
        "longitude": 136.77979
    },
    {
        "name": "Инуяма",
        "latitude": 35.37995,
        "longitude": 136.94295
    },
    {
        "name": "Инуяма-ши",
        "latitude": 35.36232,
        "longitude": 136.98072
    },
    {
        "name": "Исики",
        "latitude": 34.8,
        "longitude": 137.01667
    },
    {
        "name": "Ивакура",
        "latitude": 35.28333,
        "longitude": 136.86667
    },
    {
        "name": "Ивакура-ши",
        "latitude": 35.27927,
        "longitude": 136.86885
    },
    {
        "name": "Воздушные змеи",
        "latitude": 35.13333,
        "longitude": 136.8
    },
    {
        "name": "Сука",
        "latitude": 34.98333,
        "longitude": 136.98333
    },
    {
        "name": "Защити это",
        "latitude": 35.01098,
        "longitude": 137.00166
    },
    {
        "name": "Касугай",
        "latitude": 35.24762,
        "longitude": 136.97229
    },
    {
        "name": "Касугай-ши",
        "latitude": 35.24762,
        "longitude": 136.97226
    },
    {
        "name": "Китанагоя",
        "latitude": 35.24702,
        "longitude": 136.87832
    },
    {
        "name": "Китанагоя-ши",
        "latitude": 35.2464,
        "longitude": 136.87293
    },
    {
        "name": "Кёсу-ши",
        "latitude": 35.21325,
        "longitude": 136.84771
    },
    {
        "name": "Комаки",
        "latitude": 35.28333,
        "longitude": 136.91667
    },
    {
        "name": "Комаки-ши",
        "latitude": 35.29103,
        "longitude": 136.91196
    },
    {
        "name": "Конан",
        "latitude": 35.33165,
        "longitude": 136.87042
    },
    {
        "name": "Конан-ши",
        "latitude": 35.33137,
        "longitude": 136.87077
    },
    {
        "name": "казак-чо",
        "latitude": 34.8,
        "longitude": 137.35889
    },
    {
        "name": "Курода",
        "latitude": 35.35,
        "longitude": 136.78333
    },
    {
        "name": "Миёси-ши",
        "latitude": 35.0948,
        "longitude": 137.0887
    },
    {
        "name": "Нагакуте-ши",
        "latitude": 35.18335,
        "longitude": 137.04895
    },
    {
        "name": "Нагоя",
        "latitude": 35.18147,
        "longitude": 136.90641
    },
    {
        "name": "Нисио",
        "latitude": 34.86667,
        "longitude": 137.05
    },
    {
        "name": "Нисио-ши",
        "latitude": 34.86223,
        "longitude": 137.05433
    },
    {
        "name": "Ниссин-ши",
        "latitude": 35.13114,
        "longitude": 137.03934
    },
    {
        "name": "Обу",
        "latitude": 35.01756,
        "longitude": 136.94947
    },
    {
        "name": "Обу-ши",
        "latitude": 35.0192,
        "longitude": 136.95424
    },
    {
        "name": "Окадзаки-ши",
        "latitude": 34.95245,
        "longitude": 137.25783
    },
    {
        "name": "Овариасахи-ши",
        "latitude": 35.21652,
        "longitude": 137.03542
    },
    {
        "name": "Сето",
        "latitude": 35.23333,
        "longitude": 137.1
    },
    {
        "name": "Сето-ши",
        "latitude": 35.2234,
        "longitude": 137.08414
    },
    {
        "name": "Синсиро",
        "latitude": 34.9,
        "longitude": 137.5
    },
    {
        "name": "Синсиро-ши",
        "latitude": 34.96073,
        "longitude": 137.5436
    },
    {
        "name": "Собуэ",
        "latitude": 35.25,
        "longitude": 136.71667
    },
    {
        "name": "Тахара",
        "latitude": 34.66667,
        "longitude": 137.26667
    },
    {
        "name": "Тахара-ши",
        "latitude": 34.6414,
        "longitude": 137.18314
    },
    {
        "name": "Такахама",
        "latitude": 34.91667,
        "longitude": 136.98333
    },
    {
        "name": "Такахама-ши",
        "latitude": 34.93337,
        "longitude": 136.9949
    },
    {
        "name": "Taketoyo",
        "latitude": 34.85,
        "longitude": 136.91667
    },
    {
        "name": "Токай-ши",
        "latitude": 35.02676,
        "longitude": 136.89846
    },
    {
        "name": "Токонамэ",
        "latitude": 34.88333,
        "longitude": 136.85
    },
    {
        "name": "Токонамэ-ши",
        "latitude": 34.88929,
        "longitude": 136.85299
    },
    {
        "name": "Тойоаке",
        "latitude": 35.038,
        "longitude": 136.99931
    },
    {
        "name": "Тойоке-ши",
        "latitude": 35.06248,
        "longitude": 137.00887
    },
    {
        "name": "Тойохама",
        "latitude": 34.70933,
        "longitude": 136.93425
    },
    {
        "name": "Тойохаси",
        "latitude": 34.76667,
        "longitude": 137.38333
    },
    {
        "name": "Тойохаси-ши",
        "latitude": 34.7405,
        "longitude": 137.40714
    },
    {
        "name": "Тойокава",
        "latitude": 34.81667,
        "longitude": 137.4
    },
    {
        "name": "Тоёкава-ши",
        "latitude": 34.85032,
        "longitude": 137.36175
    },
    {
        "name": "Тойота-ши",
        "latitude": 35.087,
        "longitude": 137.15
    },
    {
        "name": "Цусима",
        "latitude": 35.16667,
        "longitude": 136.71667
    },
    {
        "name": "Цусима-ши",
        "latitude": 35.17718,
        "longitude": 136.74168
    },
    {
        "name": "Ятоми-ши",
        "latitude": 35.10938,
        "longitude": 136.72451
    },
    {
        "name": "Акита",
        "latitude": 39.71667,
        "longitude": 140.11667
    },
    {
        "name": "Акита Ши",
        "latitude": 39.71043,
        "longitude": 140.23207
    },
    {
        "name": "Дайсен",
        "latitude": 39.44116,
        "longitude": 140.48961
    },
    {
        "name": "Дайсен-ши",
        "latitude": 39.5371,
        "longitude": 140.44139
    },
    {
        "name": "Запрет",
        "latitude": 40.18361,
        "longitude": 140.78722
    },
    {
        "name": "Какунодатемачи",
        "latitude": 39.58926,
        "longitude": 140.56724
    },
    {
        "name": "Катагами",
        "latitude": 39.87869,
        "longitude": 139.99767
    },
    {
        "name": "Катагами-ши",
        "latitude": 39.87209,
        "longitude": 140.0491
    },
    {
        "name": "Казуно Ши",
        "latitude": 40.21035,
        "longitude": 140.8303
    },
    {
        "name": "Китаакита-ши",
        "latitude": 40.23446,
        "longitude": 140.39978
    },
    {
        "name": "Никахо-ши",
        "latitude": 39.19677,
        "longitude": 139.97305
    },
    {
        "name": "Носиро",
        "latitude": 40.20838,
        "longitude": 140.0274
    },
    {
        "name": "Носиро Ши",
        "latitude": 40.20289,
        "longitude": 140.14486
    },
    {
        "name": "Одате",
        "latitude": 40.27178,
        "longitude": 140.55756
    },
    {
        "name": "Ваша привычка",
        "latitude": 40.3,
        "longitude": 140.55
    },
    {
        "name": "Ога",
        "latitude": 39.871,
        "longitude": 139.84926
    },
    {
        "name": "Ога-ши",
        "latitude": 39.93793,
        "longitude": 139.83611
    },
    {
        "name": "Омагари",
        "latitude": 39.45,
        "longitude": 140.48333
    },
    {
        "name": "Сембоку-ши",
        "latitude": 39.75709,
        "longitude": 140.66998
    },
    {
        "name": "Таканосу",
        "latitude": 40.22268,
        "longitude": 140.36611
    },
    {
        "name": "Бенно",
        "latitude": 39.9,
        "longitude": 139.96667
    },
    {
        "name": "Ёкоте",
        "latitude": 39.31691,
        "longitude": 140.55034
    },
    {
        "name": "Ёкотэ-ши",
        "latitude": 39.28369,
        "longitude": 140.54432
    },
    {
        "name": "Юрихондзё",
        "latitude": 39.3895,
        "longitude": 140.05813
    },
    {
        "name": "Юрихондзё-ши",
        "latitude": 39.29336,
        "longitude": 140.16498
    },
    {
        "name": "Юдзава",
        "latitude": 39.16667,
        "longitude": 140.5
    },
    {
        "name": "Иудава-ши",
        "latitude": 39.03658,
        "longitude": 140.54267
    },
    {
        "name": "Аомори",
        "latitude": 40.81667,
        "longitude": 140.73333
    },
    {
        "name": "Аомори Ши",
        "latitude": 40.77001,
        "longitude": 140.75423
    },
    {
        "name": "Госьогавара",
        "latitude": 40.80444,
        "longitude": 140.44139
    },
    {
        "name": "Госёгавара Ши",
        "latitude": 40.91657,
        "longitude": 140.46998
    },
    {
        "name": "Хатинохе",
        "latitude": 40.5,
        "longitude": 141.5
    },
    {
        "name": "Хатинохе Ши",
        "latitude": 40.47389,
        "longitude": 141.48125
    },
    {
        "name": "Хиракава",
        "latitude": 40.58728,
        "longitude": 140.57107
    },
    {
        "name": "Хиракава Ши",
        "latitude": 40.51832,
        "longitude": 140.70048
    },
    {
        "name": "Хиросаки",
        "latitude": 40.59306,
        "longitude": 140.4725
    },
    {
        "name": "Хиросаки Ши",
        "latitude": 40.60512,
        "longitude": 140.3846
    },
    {
        "name": "Куроиси",
        "latitude": 40.64581,
        "longitude": 140.58354
    },
    {
        "name": "Куроиси Ши",
        "latitude": 40.61709,
        "longitude": 140.70467
    },
    {
        "name": "Мисава",
        "latitude": 40.68682,
        "longitude": 141.38969
    },
    {
        "name": "Мисава Ши",
        "latitude": 40.74647,
        "longitude": 141.38124
    },
    {
        "name": "Муцу",
        "latitude": 41.28944,
        "longitude": 141.21694
    },
    {
        "name": "Муцу-ши",
        "latitude": 41.2909,
        "longitude": 141.03327
    },
    {
        "name": "я пеку это",
        "latitude": 40.71069,
        "longitude": 140.59048
    },
    {
        "name": "Симокидзукури",
        "latitude": 40.81609,
        "longitude": 140.37539
    },
    {
        "name": "Товада Ши",
        "latitude": 40.56736,
        "longitude": 141.05794
    },
    {
        "name": "Цугару",
        "latitude": 40.80357,
        "longitude": 140.40299
    },
    {
        "name": "Цугару Ши",
        "latitude": 40.86988,
        "longitude": 140.34963
    },
    {
        "name": "Абрикос",
        "latitude": 35.86667,
        "longitude": 140.01667
    },
    {
        "name": "Абико-ши",
        "latitude": 35.86947,
        "longitude": 140.0651
    },
    {
        "name": "Асахи-ши",
        "latitude": 35.73443,
        "longitude": 140.65549
    },
    {
        "name": "Тиба",
        "latitude": 35.6,
        "longitude": 140.11667
    },
    {
        "name": "Тёси-ши",
        "latitude": 35.74303,
        "longitude": 140.77552
    },
    {
        "name": "Фунабаши-ши",
        "latitude": 35.69455,
        "longitude": 139.98255
    },
    {
        "name": "Футцу",
        "latitude": 35.3108,
        "longitude": 139.81877
    },
    {
        "name": "Хасаки",
        "latitude": 35.73333,
        "longitude": 140.83333
    },
    {
        "name": "Хончо",
        "latitude": 35.70129,
        "longitude": 139.98648
    },
    {
        "name": "Итихара",
        "latitude": 35.51667,
        "longitude": 140.08333
    },
    {
        "name": "Ичихара Ши",
        "latitude": 35.42484,
        "longitude": 140.13725
    },
    {
        "name": "Итикава Ши",
        "latitude": 35.71865,
        "longitude": 139.93294
    },
    {
        "name": "я сделаю это",
        "latitude": 35.81207,
        "longitude": 140.14098
    },
    {
        "name": "Исуми",
        "latitude": 35.23005,
        "longitude": 140.40492
    },
    {
        "name": "Исуми Ши",
        "latitude": 35.27777,
        "longitude": 140.34335
    },
    {
        "name": "Камагая Хим",
        "latitude": 35.77289,
        "longitude": 139.99883
    },
    {
        "name": "Камогава",
        "latitude": 35.0969,
        "longitude": 140.1003
    },
    {
        "name": "Камогава-ши",
        "latitude": 35.1,
        "longitude": 140.1
    },
    {
        "name": "Касива",
        "latitude": 35.86224,
        "longitude": 139.97732
    },
    {
        "name": "Касива Ши",
        "latitude": 35.86017,
        "longitude": 139.99386
    },
    {
        "name": "Катори-ши",
        "latitude": 35.88333,
        "longitude": 140.51667
    },
    {
        "name": "Кацуура",
        "latitude": 35.14621,
        "longitude": 140.31507
    },
    {
        "name": "Кацуура-ши",
        "latitude": 35.17535,
        "longitude": 140.2676
    },
    {
        "name": "Кимицу",
        "latitude": 35.35043,
        "longitude": 139.87029
    },
    {
        "name": "Кисаразу",
        "latitude": 35.38329,
        "longitude": 139.93254
    },
    {
        "name": "Кисарадзу Ши",
        "latitude": 35.36981,
        "longitude": 139.98749
    },
    {
        "name": "Мацудо Ши",
        "latitude": 35.79574,
        "longitude": 139.92908
    },
    {
        "name": "Минамибосо Ши",
        "latitude": 35.03657,
        "longitude": 139.92847
    },
    {
        "name": "Мобара",
        "latitude": 35.42583,
        "longitude": 140.29608
    },
    {
        "name": "Мобара Ши",
        "latitude": 35.44981,
        "longitude": 140.30163
    },
    {
        "name": "Нагареяма",
        "latitude": 35.8563,
        "longitude": 139.90266
    },
    {
        "name": "Нагареяма-ши",
        "latitude": 35.85631,
        "longitude": 139.90266
    },
    {
        "name": "Нарасино-ши",
        "latitude": 35.68091,
        "longitude": 140.03418
    },
    {
        "name": "Нарита",
        "latitude": 35.78333,
        "longitude": 140.31667
    },
    {
        "name": "Нарита-ши",
        "latitude": 35.81547,
        "longitude": 140.35757
    },
    {
        "name": "Наруто",
        "latitude": 35.6,
        "longitude": 140.41667
    },
    {
        "name": "Нода",
        "latitude": 35.94897,
        "longitude": 139.86793
    },
    {
        "name": "Нода-ши",
        "latitude": 35.98516,
        "longitude": 139.86215
    },
    {
        "name": "Оами",
        "latitude": 35.51667,
        "longitude": 140.31667
    },
    {
        "name": "Оамисирасато-ши",
        "latitude": 35.51279,
        "longitude": 140.34295
    },
    {
        "name": "Вредный",
        "latitude": 35.24761,
        "longitude": 140.39289
    },
    {
        "name": "Омигава",
        "latitude": 35.85,
        "longitude": 140.61667
    },
    {
        "name": "Сакура",
        "latitude": 35.71667,
        "longitude": 140.23333
    },
    {
        "name": "Сакура-ши",
        "latitude": 35.70619,
        "longitude": 140.21326
    },
    {
        "name": "Самбу-гун",
        "latitude": 35.68843,
        "longitude": 140.45346
    },
    {
        "name": "Знай нас",
        "latitude": 35.62756,
        "longitude": 140.41762
    },
    {
        "name": "Санму-ши",
        "latitude": 35.62397,
        "longitude": 140.42079
    },
    {
        "name": "голос",
        "latitude": 35.88333,
        "longitude": 140.5
    },
    {
        "name": "Сирой",
        "latitude": 35.8,
        "longitude": 140.06667
    },
    {
        "name": "Сирои-ши",
        "latitude": 35.80164,
        "longitude": 140.06005
    },
    {
        "name": "Шисуи",
        "latitude": 35.71667,
        "longitude": 140.26667
    },
    {
        "name": "Содегаура-ши",
        "latitude": 35.41642,
        "longitude": 140.01771
    },
    {
        "name": "Соса-ши",
        "latitude": 35.69983,
        "longitude": 140.55366
    },
    {
        "name": "Татеяма",
        "latitude": 34.98333,
        "longitude": 139.86667
    },
    {
        "name": "Татеяма-ши",
        "latitude": 34.97156,
        "longitude": 139.86163
    },
    {
        "name": "Тогане",
        "latitude": 35.55,
        "longitude": 140.36667
    },
    {
        "name": "Вот когда",
        "latitude": 35.56517,
        "longitude": 140.36707
    },
    {
        "name": "Томисато-ши",
        "latitude": 35.72024,
        "longitude": 140.3408
    },
    {
        "name": "Ураясу-ши",
        "latitude": 35.6425,
        "longitude": 139.90192
    },
    {
        "name": "Это липко",
        "latitude": 35.65,
        "longitude": 140.31667
    },
    {
        "name": "Ячимата-ши",
        "latitude": 35.64241,
        "longitude": 140.29686
    },
    {
        "name": "Ятё-ши",
        "latitude": 35.73921,
        "longitude": 140.10502
    },
    {
        "name": "Йокаитиба",
        "latitude": 35.7,
        "longitude": 140.55
    },
    {
        "name": "Ёцукайдо",
        "latitude": 35.65,
        "longitude": 140.16667
    },
    {
        "name": "Ёцукайдо-ши",
        "latitude": 35.67167,
        "longitude": 140.17912
    },
    {
        "name": "Ходзё",
        "latitude": 33.97661,
        "longitude": 132.77767
    },
    {
        "name": "Имабари-ши",
        "latitude": 34.06667,
        "longitude": 132.99791
    },
    {
        "name": "И",
        "latitude": 33.75139,
        "longitude": 132.70139
    },
    {
        "name": "Ио-ши",
        "latitude": 33.68493,
        "longitude": 132.68909
    },
    {
        "name": "Каваноэчо",
        "latitude": 34.01654,
        "longitude": 133.57844
    },
    {
        "name": "Кихоку-чо",
        "latitude": 33.25592,
        "longitude": 132.68343
    },
    {
        "name": "Масаки-чо",
        "latitude": 33.78757,
        "longitude": 132.71124
    },
    {
        "name": "Мацуяма-ши",
        "latitude": 33.83568,
        "longitude": 132.76224
    },
    {
        "name": "Ниихама",
        "latitude": 33.96047,
        "longitude": 133.30522
    },
    {
        "name": "Ниихама-ши",
        "latitude": 33.9067,
        "longitude": 133.3325
    },
    {
        "name": "Одзу",
        "latitude": 33.5,
        "longitude": 132.55
    },
    {
        "name": "Одзу-ши",
        "latitude": 33.50619,
        "longitude": 132.5443
    },
    {
        "name": "Сайджо",
        "latitude": 33.91667,
        "longitude": 133.18333
    },
    {
        "name": "Сайдзё-ши",
        "latitude": 33.861,
        "longitude": 133.10832
    },
    {
        "name": "Сэйё-ши",
        "latitude": 33.39408,
        "longitude": 132.63262
    },
    {
        "name": "Сикоку-тюо Ши",
        "latitude": 33.93538,
        "longitude": 133.53622
    },
    {
        "name": "Тон-ши",
        "latitude": 33.79099,
        "longitude": 132.87234
    },
    {
        "name": "Увадзима",
        "latitude": 33.22375,
        "longitude": 132.56001
    },
    {
        "name": "Увадзима-ши",
        "latitude": 33.22325,
        "longitude": 132.56069
    },
    {
        "name": "Яватахама-ши",
        "latitude": 33.46302,
        "longitude": 132.42336
    },
    {
        "name": "Асахи",
        "latitude": 35.97259,
        "longitude": 136.12455
    },
    {
        "name": "Авара-хим",
        "latitude": 36.22777,
        "longitude": 136.25154
    },
    {
        "name": "Этизен-ши",
        "latitude": 35.88946,
        "longitude": 136.17723
    },
    {
        "name": "Фукуи-ши",
        "latitude": 36.06667,
        "longitude": 136.21667
    },
    {
        "name": "Кацуяма",
        "latitude": 36.06173,
        "longitude": 136.50101
    },
    {
        "name": "Кацуяма Ши",
        "latitude": 36.0844,
        "longitude": 136.52178
    },
    {
        "name": "Сухой",
        "latitude": 36.1534,
        "longitude": 136.27029
    },
    {
        "name": "Микуни",
        "latitude": 36.21706,
        "longitude": 136.15185
    },
    {
        "name": "Обама",
        "latitude": 35.49576,
        "longitude": 135.74604
    },
    {
        "name": "Обамы",
        "latitude": 35.45,
        "longitude": 135.7
    },
    {
        "name": "Ой-гун",
        "latitude": 35.49238,
        "longitude": 135.49311
    },
    {
        "name": "Оно",
        "latitude": 35.98106,
        "longitude": 136.48727
    },
    {
        "name": "Оно-ши",
        "latitude": 35.90837,
        "longitude": 136.61696
    },
    {
        "name": "Сабаэ",
        "latitude": 35.94647,
        "longitude": 136.18498
    },
    {
        "name": "Сабаэ-ши",
        "latitude": 35.95932,
        "longitude": 136.21835
    },
    {
        "name": "Сакаи-ши",
        "latitude": 36.16406,
        "longitude": 136.25544
    },
    {
        "name": "Такефу",
        "latitude": 35.90393,
        "longitude": 136.16687
    },
    {
        "name": "Цуруга",
        "latitude": 35.64547,
        "longitude": 136.0558
    },
    {
        "name": "Куруга-ши",
        "latitude": 35.6373,
        "longitude": 136.08068
    },
    {
        "name": "Яйца",
        "latitude": 33.41804,
        "longitude": 130.65413
    },
    {
        "name": "Асакура Ши",
        "latitude": 33.41684,
        "longitude": 130.74167
    },
    {
        "name": "Конгер",
        "latitude": 33.61153,
        "longitude": 131.13002
    },
    {
        "name": "Бузэн-ши",
        "latitude": 33.56743,
        "longitude": 131.08578
    },
    {
        "name": "Чикуго Ши",
        "latitude": 33.20748,
        "longitude": 130.49122
    },
    {
        "name": "Чикусино-ши",
        "latitude": 33.49631,
        "longitude": 130.5156
    },
    {
        "name": "Дадзайфу-ши",
        "latitude": 33.5,
        "longitude": 130.53333
    },
    {
        "name": "Фукуока",
        "latitude": 33.6,
        "longitude": 130.41667
    },
    {
        "name": "Фукуока",
        "latitude": 33.56894,
        "longitude": 130.35764
    },
    {
        "name": "Фукуцу Ши",
        "latitude": 33.77982,
        "longitude": 130.49804
    },
    {
        "name": "Иидзука",
        "latitude": 33.63654,
        "longitude": 130.68678
    },
    {
        "name": "Иидзука Ши",
        "latitude": 33.61353,
        "longitude": 130.66098
    },
    {
        "name": "Итошима-ши",
        "latitude": 33.53317,
        "longitude": 130.17975
    },
    {
        "name": "Поймай его",
        "latitude": 33.53663,
        "longitude": 130.74028
    },
    {
        "name": "Канда",
        "latitude": 33.78333,
        "longitude": 130.98333
    },
    {
        "name": "Касуга Ши",
        "latitude": 33.52404,
        "longitude": 130.45641
    },
    {
        "name": "Кавасаки",
        "latitude": 33.59993,
        "longitude": 130.81495
    },
    {
        "name": "Китакюсю",
        "latitude": 33.85181,
        "longitude": 130.85034
    },
    {
        "name": "Кога",
        "latitude": 33.73333,
        "longitude": 130.46667
    },
    {
        "name": "В любое время",
        "latitude": 33.72139,
        "longitude": 130.49947
    },
    {
        "name": "Маршировать",
        "latitude": 33.31667,
        "longitude": 130.51667
    },
    {
        "name": "Куруме Ши",
        "latitude": 33.30358,
        "longitude": 130.56549
    },
    {
        "name": "Маэбару-туо",
        "latitude": 33.55916,
        "longitude": 130.20148
    },
    {
        "name": "Мияма Ши",
        "latitude": 33.12369,
        "longitude": 130.4954
    },
    {
        "name": "Мията",
        "latitude": 33.70811,
        "longitude": 130.65297
    },
    {
        "name": "Миявака Ши",
        "latitude": 33.71559,
        "longitude": 130.61506
    },
    {
        "name": "Мунаката-ши",
        "latitude": 33.8,
        "longitude": 130.55
    },
    {
        "name": "Накама",
        "latitude": 33.81688,
        "longitude": 130.70962
    },
    {
        "name": "Накама Ши",
        "latitude": 33.82081,
        "longitude": 130.70862
    },
    {
        "name": "Нисифукума",
        "latitude": 33.76627,
        "longitude": 130.47461
    },
    {
        "name": "Ногата",
        "latitude": 33.74051,
        "longitude": 130.72263
    },
    {
        "name": "Ногата Ши",
        "latitude": 33.75116,
        "longitude": 130.74592
    },
    {
        "name": "Огори-ши",
        "latitude": 33.38333,
        "longitude": 130.56667
    },
    {
        "name": "Формальный",
        "latitude": 33.20566,
        "longitude": 130.37527
    },
    {
        "name": "Ока-ши",
        "latitude": 33.20736,
        "longitude": 130.38253
    },
    {
        "name": "Покидать",
        "latitude": 33.03333,
        "longitude": 130.45
    },
    {
        "name": "Убей его",
        "latitude": 33.04616,
        "longitude": 130.46912
    },
    {
        "name": "вниз ружье",
        "latitude": 33.85699,
        "longitude": 130.63626
    },
    {
        "name": "Молодой",
        "latitude": 33.53567,
        "longitude": 130.47861
    },
    {
        "name": "Онодзё Ши",
        "latitude": 33.51302,
        "longitude": 130.47925
    },
    {
        "name": "Сасагури",
        "latitude": 33.61561,
        "longitude": 130.55105
    },
    {
        "name": "Сетакамачи-такаянаги",
        "latitude": 33.14858,
        "longitude": 130.46548
    },
    {
        "name": "Шлифование",
        "latitude": 33.65341,
        "longitude": 131.05797
    },
    {
        "name": "Шингу",
        "latitude": 33.71399,
        "longitude": 130.4313
    },
    {
        "name": "Тагава",
        "latitude": 33.63333,
        "longitude": 130.8
    },
    {
        "name": "Тагава Ши",
        "latitude": 33.63159,
        "longitude": 130.79966
    },
    {
        "name": "Танусимаруматы-тойоки",
        "latitude": 33.35,
        "longitude": 130.68333
    },
    {
        "name": "Цуики",
        "latitude": 33.67307,
        "longitude": 131.03776
    },
    {
        "name": "Укиха Ши",
        "latitude": 33.31184,
        "longitude": 130.79325
    },
    {
        "name": "Уми",
        "latitude": 33.56826,
        "longitude": 130.51009
    },
    {
        "name": "Ямеши",
        "latitude": 33.23302,
        "longitude": 130.62775
    },
    {
        "name": "Янагава",
        "latitude": 33.16667,
        "longitude": 130.4
    },
    {
        "name": "Янагава Ши",
        "latitude": 33.14932,
        "longitude": 130.40725
    },
    {
        "name": "Ёситоми",
        "latitude": 33.60247,
        "longitude": 131.17599
    },
    {
        "name": "Юкухаши",
        "latitude": 33.72873,
        "longitude": 130.983
    },
    {
        "name": "Юкухаси Ши",
        "latitude": 33.71404,
        "longitude": 130.97108
    },
    {
        "name": "Айдзу-вакамацу Ши",
        "latitude": 37.45071,
        "longitude": 139.96814
    },
    {
        "name": "Датэ-ши",
        "latitude": 37.81667,
        "longitude": 140.51667
    },
    {
        "name": "Фукусима",
        "latitude": 37.75,
        "longitude": 140.46667
    },
    {
        "name": "Фукусима Ши",
        "latitude": 37.78643,
        "longitude": 140.38849
    },
    {
        "name": "Фунейкимати-фунехики",
        "latitude": 37.44722,
        "longitude": 140.5771
    },
    {
        "name": "Хобарамачи",
        "latitude": 37.81667,
        "longitude": 140.55
    },
    {
        "name": "Это подразумевает",
        "latitude": 37.56667,
        "longitude": 140.11667
    },
    {
        "name": "Исикава",
        "latitude": 37.15,
        "longitude": 140.45
    },
    {
        "name": "Иваки",
        "latitude": 37.05,
        "longitude": 140.88333
    },
    {
        "name": "Иваки-ши",
        "latitude": 37.08333,
        "longitude": 140.83333
    },
    {
        "name": "Китаката",
        "latitude": 37.65,
        "longitude": 139.86667
    },
    {
        "name": "Китаката-ши",
        "latitude": 37.68333,
        "longitude": 139.9
    },
    {
        "name": "Корияма",
        "latitude": 37.4,
        "longitude": 140.38333
    },
    {
        "name": "Корияма Ши",
        "latitude": 37.41277,
        "longitude": 140.29507
    },
    {
        "name": "Михару",
        "latitude": 37.43333,
        "longitude": 140.48333
    },
    {
        "name": "Минами-Сома",
        "latitude": 37.62908,
        "longitude": 140.97868
    },
    {
        "name": "Минамисома Ши",
        "latitude": 37.63108,
        "longitude": 140.92852
    },
    {
        "name": "Мотомия",
        "latitude": 37.51391,
        "longitude": 140.40063
    },
    {
        "name": "Мотомия-ши",
        "latitude": 37.51218,
        "longitude": 140.39841
    },
    {
        "name": "Дома",
        "latitude": 37.48333,
        "longitude": 141.0
    },
    {
        "name": "Нихоммацу",
        "latitude": 37.58333,
        "longitude": 140.43333
    },
    {
        "name": "Нихоммацу Ши",
        "latitude": 37.58402,
        "longitude": 140.49543
    },
    {
        "name": "Сиракава Ши",
        "latitude": 37.12225,
        "longitude": 140.24963
    },
    {
        "name": "Сома",
        "latitude": 37.79283,
        "longitude": 140.92941
    },
    {
        "name": "Сома Ши",
        "latitude": 37.78193,
        "longitude": 140.87321
    },
    {
        "name": "Сукагава",
        "latitude": 37.28333,
        "longitude": 140.38333
    },
    {
        "name": "Они принесли Его",
        "latitude": 37.29342,
        "longitude": 140.31691
    },
    {
        "name": "Тамура",
        "latitude": 37.43055,
        "longitude": 140.60335
    },
    {
        "name": "Тамура-ши",
        "latitude": 37.43793,
        "longitude": 140.57384
    },
    {
        "name": "Янагавамати-сайвайчо",
        "latitude": 37.85,
        "longitude": 140.6
    },
    {
        "name": "Это оно",
        "latitude": 35.44722,
        "longitude": 137.4181
    },
    {
        "name": "Затем",
        "latitude": 35.8,
        "longitude": 137.23333
    },
    {
        "name": "Геро-ши",
        "latitude": 35.75,
        "longitude": 137.25
    },
    {
        "name": "Гифу-ши",
        "latitude": 35.44826,
        "longitude": 136.7647
    },
    {
        "name": "Спасибо",
        "latitude": 35.41667,
        "longitude": 136.6
    },
    {
        "name": "Гудзё",
        "latitude": 35.73691,
        "longitude": 136.95852
    },
    {
        "name": "Гудзё-ши",
        "latitude": 35.83298,
        "longitude": 136.94561
    },
    {
        "name": "Хашима",
        "latitude": 35.329,
        "longitude": 136.68051
    },
    {
        "name": "Хасима-ши",
        "latitude": 35.3074,
        "longitude": 136.70161
    },
    {
        "name": "наследственный",
        "latitude": 36.24483,
        "longitude": 137.17323
    },
    {
        "name": "Хида Ши",
        "latitude": 36.33272,
        "longitude": 137.20568
    },
    {
        "name": "Кайдзу-ши",
        "latitude": 35.21381,
        "longitude": 136.62443
    },
    {
        "name": "Какамигахара-ши",
        "latitude": 35.40283,
        "longitude": 136.87829
    },
    {
        "name": "Кани-ши",
        "latitude": 35.40589,
        "longitude": 137.06602
    },
    {
        "name": "Касамацучо",
        "latitude": 35.36667,
        "longitude": 136.76667
    },
    {
        "name": "Мино",
        "latitude": 35.53333,
        "longitude": 136.91667
    },
    {
        "name": "Мино-ши",
        "latitude": 35.57892,
        "longitude": 136.9012
    },
    {
        "name": "Минокамо",
        "latitude": 35.48199,
        "longitude": 137.02166
    },
    {
        "name": "Минокамо-ши",
        "latitude": 35.48386,
        "longitude": 137.02658
    },
    {
        "name": "Митаке",
        "latitude": 35.41667,
        "longitude": 137.13333
    },
    {
        "name": "Мидзухо-ши",
        "latitude": 35.39663,
        "longitude": 136.67022
    },
    {
        "name": "Мизунами",
        "latitude": 35.36667,
        "longitude": 137.25
    },
    {
        "name": "Мизунами-ши",
        "latitude": 35.38935,
        "longitude": 137.2736
    },
    {
        "name": "Мотосу-ши",
        "latitude": 35.65553,
        "longitude": 136.61991
    },
    {
        "name": "Накацугава",
        "latitude": 35.48333,
        "longitude": 137.5
    },
    {
        "name": "Накацугава-ши",
        "latitude": 35.56656,
        "longitude": 137.47433
    },
    {
        "name": "Огаки-ши",
        "latitude": 35.36485,
        "longitude": 136.60189
    },
    {
        "name": "Секи-ши",
        "latitude": 35.48333,
        "longitude": 136.91667
    },
    {
        "name": "Мошенничество",
        "latitude": 35.31667,
        "longitude": 137.13333
    },
    {
        "name": "Таджими-ши",
        "latitude": 35.33401,
        "longitude": 137.11258
    },
    {
        "name": "Такаяма Ши",
        "latitude": 36.13181,
        "longitude": 137.28585
    },
    {
        "name": "Таруи",
        "latitude": 35.36667,
        "longitude": 136.53333
    },
    {
        "name": "Конечно",
        "latitude": 35.35,
        "longitude": 137.18333
    },
    {
        "name": "Токи-ши",
        "latitude": 35.32418,
        "longitude": 137.20748
    },
    {
        "name": "Ямагата-ши",
        "latitude": 35.59892,
        "longitude": 136.74311
    },
    {
        "name": "Уезд Агацума",
        "latitude": 36.57368,
        "longitude": 138.67243
    },
    {
        "name": "Аннака",
        "latitude": 36.33011,
        "longitude": 138.89585
    },
    {
        "name": "Аннака Ши",
        "latitude": 36.34079,
        "longitude": 138.77647
    },
    {
        "name": "Фудзиока",
        "latitude": 36.24624,
        "longitude": 139.07204
    },
    {
        "name": "Фудзиока Ши",
        "latitude": 36.19213,
        "longitude": 138.99918
    },
    {
        "name": "Это мешок",
        "latitude": 36.31667,
        "longitude": 139.2
    },
    {
        "name": "Исэсаки Ши",
        "latitude": 36.32126,
        "longitude": 139.21823
    },
    {
        "name": "Канекомачи",
        "latitude": 36.41097,
        "longitude": 138.99621
    },
    {
        "name": "Кирю",
        "latitude": 36.4,
        "longitude": 139.33333
    },
    {
        "name": "Кирю Ши",
        "latitude": 36.45702,
        "longitude": 139.30962
    },
    {
        "name": "Маэбаши",
        "latitude": 36.4,
        "longitude": 139.08333
    },
    {
        "name": "Маэбаши Ши",
        "latitude": 36.41432,
        "longitude": 139.1311
    },
    {
        "name": "Мидори",
        "latitude": 36.44492,
        "longitude": 139.28448
    },
    {
        "name": "Мидори Ши",
        "latitude": 36.53044,
        "longitude": 139.34728
    },
    {
        "name": "Наканодзёмати",
        "latitude": 36.58717,
        "longitude": 138.84083
    },
    {
        "name": "Нумата",
        "latitude": 36.63333,
        "longitude": 139.05
    },
    {
        "name": "Нумата Ши",
        "latitude": 36.67371,
        "longitude": 139.18353
    },
    {
        "name": "Омамачо-Омама",
        "latitude": 36.43181,
        "longitude": 139.27534
    },
    {
        "name": "Заказ",
        "latitude": 36.3,
        "longitude": 139.36667
    },
    {
        "name": "Ота-ши",
        "latitude": 36.3,
        "longitude": 139.36667
    },
    {
        "name": "Сакаи-Наказима",
        "latitude": 36.26667,
        "longitude": 139.25
    },
    {
        "name": "Сибукава",
        "latitude": 36.48333,
        "longitude": 139.0
    },
    {
        "name": "Сибукава-ши",
        "latitude": 36.5,
        "longitude": 138.98333
    },
    {
        "name": "Такасаки",
        "latitude": 36.33333,
        "longitude": 139.01667
    },
    {
        "name": "Такасаки Ши",
        "latitude": 36.40538,
        "longitude": 138.89227
    },
    {
        "name": "Тамамура",
        "latitude": 36.3,
        "longitude": 139.11667
    },
    {
        "name": "Татебаяси",
        "latitude": 36.25,
        "longitude": 139.53333
    },
    {
        "name": "Татебаяси-ши",
        "latitude": 36.24597,
        "longitude": 139.53533
    },
    {
        "name": "Томиока",
        "latitude": 36.25411,
        "longitude": 138.89813
    },
    {
        "name": "Томиока-ши",
        "latitude": 36.25,
        "longitude": 138.88333
    },
    {
        "name": "Молодость",
        "latitude": 36.25,
        "longitude": 138.98333
    },
    {
        "name": "Аки-таката Ши",
        "latitude": 34.70248,
        "longitude": 132.6777
    },
    {
        "name": "Этадзима-ши",
        "latitude": 34.21989,
        "longitude": 132.44345
    },
    {
        "name": "Фучу-ши",
        "latitude": 34.56667,
        "longitude": 133.23333
    },
    {
        "name": "Фучучо",
        "latitude": 34.5735,
        "longitude": 133.23513
    },
    {
        "name": "Фукуяма",
        "latitude": 34.48333,
        "longitude": 133.36667
    },
    {
        "name": "Фукуяма Ши",
        "latitude": 34.52342,
        "longitude": 133.33779
    },
    {
        "name": "Хацукаичи",
        "latitude": 34.35,
        "longitude": 132.33333
    },
    {
        "name": "Хацукаичи-ши",
        "latitude": 34.35,
        "longitude": 132.3
    },
    {
        "name": "Хигасихирошима Ши",
        "latitude": 34.44755,
        "longitude": 132.76116
    },
    {
        "name": "Хиросима",
        "latitude": 34.4,
        "longitude": 132.45
    },
    {
        "name": "Хиросима",
        "latitude": 34.47942,
        "longitude": 132.45312
    },
    {
        "name": "Инносима",
        "latitude": 34.28333,
        "longitude": 133.18333
    },
    {
        "name": "Каннабечо-яхиро",
        "latitude": 34.55808,
        "longitude": 133.41796
    },
    {
        "name": "Далеко",
        "latitude": 34.23222,
        "longitude": 132.56658
    },
    {
        "name": "Куре-ши",
        "latitude": 34.22448,
        "longitude": 132.62914
    },
    {
        "name": "Михара",
        "latitude": 34.4,
        "longitude": 133.08333
    },
    {
        "name": "Михара Ши",
        "latitude": 34.45817,
        "longitude": 133.00395
    },
    {
        "name": "Миядзима",
        "latitude": 34.29907,
        "longitude": 132.32186
    },
    {
        "name": "Миёси",
        "latitude": 34.8,
        "longitude": 132.85
    },
    {
        "name": "Миёси Ши",
        "latitude": 34.79201,
        "longitude": 132.86435
    },
    {
        "name": "Шесть грехов",
        "latitude": 34.28333,
        "longitude": 132.26667
    },
    {
        "name": "Ономичи",
        "latitude": 34.41667,
        "longitude": 133.2
    },
    {
        "name": "Ономичи-ши",
        "latitude": 34.4263,
        "longitude": 133.16329
    },
    {
        "name": "Важный",
        "latitude": 34.20754,
        "longitude": 132.22063
    },
    {
        "name": "Отаке-ши",
        "latitude": 34.25787,
        "longitude": 132.18756
    },
    {
        "name": "Синъити",
        "latitude": 34.55543,
        "longitude": 133.27297
    },
    {
        "name": "Друг",
        "latitude": 34.85,
        "longitude": 133.01667
    },
    {
        "name": "Сёбара-ши",
        "latitude": 34.94831,
        "longitude": 133.06769
    },
    {
        "name": "Такехара",
        "latitude": 34.33833,
        "longitude": 132.91667
    },
    {
        "name": "Такехара-ши",
        "latitude": 34.35,
        "longitude": 132.9
    },
    {
        "name": "Абашири",
        "latitude": 44.02127,
        "longitude": 144.26971
    },
    {
        "name": "Абашири Ши",
        "latitude": 43.98565,
        "longitude": 144.21051
    },
    {
        "name": "Он украл",
        "latitude": 43.55139,
        "longitude": 142.05306
    },
    {
        "name": "Акабира-хим",
        "latitude": 43.5679,
        "longitude": 142.06281
    },
    {
        "name": "Асахикава",
        "latitude": 43.77063,
        "longitude": 142.36489
    },
    {
        "name": "Ашибэцу",
        "latitude": 43.50972,
        "longitude": 142.18556
    },
    {
        "name": "Ашибэцу-ши",
        "latitude": 43.42542,
        "longitude": 142.20161
    },
    {
        "name": "Бибай",
        "latitude": 43.32472,
        "longitude": 141.85861
    },
    {
        "name": "Титосэ",
        "latitude": 42.81944,
        "longitude": 141.65222
    },
    {
        "name": "Титосэ Ши",
        "latitude": 42.80048,
        "longitude": 141.50951
    },
    {
        "name": "Дата",
        "latitude": 42.46806,
        "longitude": 140.86806
    },
    {
        "name": "Датэ-ши",
        "latitude": 42.49337,
        "longitude": 140.89142
    },
    {
        "name": "Эбецу",
        "latitude": 43.10806,
        "longitude": 141.55056
    },
    {
        "name": "Энива-ши",
        "latitude": 42.88333,
        "longitude": 141.56667
    },
    {
        "name": "Фукагава",
        "latitude": 43.70806,
        "longitude": 142.03917
    },
    {
        "name": "Фукагава-си",
        "latitude": 43.79334,
        "longitude": 142.09923
    },
    {
        "name": "Фурано-ши",
        "latitude": 43.28182,
        "longitude": 142.47349
    },
    {
        "name": "Хакодатэ",
        "latitude": 41.77583,
        "longitude": 140.73667
    },
    {
        "name": "Хакодатэ Ши",
        "latitude": 41.83754,
        "longitude": 140.92597
    },
    {
        "name": "Хокуто",
        "latitude": 41.81626,
        "longitude": 140.63472
    },
    {
        "name": "Хокуто-ши",
        "latitude": 41.86411,
        "longitude": 140.55424
    },
    {
        "name": "Хончо",
        "latitude": 41.8944,
        "longitude": 140.69386
    },
    {
        "name": "Исикари",
        "latitude": 43.23972,
        "longitude": 141.35389
    },
    {
        "name": "Исикари-ши",
        "latitude": 43.46596,
        "longitude": 141.44298
    },
    {
        "name": "Ивамизава",
        "latitude": 43.20028,
        "longitude": 141.75972
    },
    {
        "name": "Ивамизава-ши",
        "latitude": 43.18086,
        "longitude": 141.79744
    },
    {
        "name": "Иванай",
        "latitude": 42.97444,
        "longitude": 140.50889
    },
    {
        "name": "Рубашка",
        "latitude": 41.82013,
        "longitude": 140.64482
    },
    {
        "name": "Камикава",
        "latitude": 43.84,
        "longitude": 142.77111
    },
    {
        "name": "Китахиросима",
        "latitude": 42.97583,
        "longitude": 141.56722
    },
    {
        "name": "Китахиросима-ши",
        "latitude": 42.98581,
        "longitude": 141.55678
    },
    {
        "name": "Китами",
        "latitude": 43.80306,
        "longitude": 143.89083
    },
    {
        "name": "Ктиами Ши",
        "latitude": 43.8516,
        "longitude": 143.7152
    },
    {
        "name": "Кусиро",
        "latitude": 42.975,
        "longitude": 144.37472
    },
    {
        "name": "Кусиро Ши",
        "latitude": 43.1591,
        "longitude": 144.06647
    },
    {
        "name": "Макубецу",
        "latitude": 45.37139,
        "longitude": 141.82111
    },
    {
        "name": "Микаса",
        "latitude": 43.25581,
        "longitude": 141.88818
    },
    {
        "name": "Микаса-ши",
        "latitude": 43.23976,
        "longitude": 141.99273
    },
    {
        "name": "Момбецу",
        "latitude": 44.3525,
        "longitude": 143.3525
    },
    {
        "name": "Монбецу Ши",
        "latitude": 44.20323,
        "longitude": 143.29293
    },
    {
        "name": "Мотомачи",
        "latitude": 43.82634,
        "longitude": 144.09638
    },
    {
        "name": "Муроран",
        "latitude": 42.31722,
        "longitude": 140.98806
    },
    {
        "name": "Муроран-ши",
        "latitude": 42.36659,
        "longitude": 140.98845
    },
    {
        "name": "Наёро",
        "latitude": 44.35056,
        "longitude": 142.45778
    },
    {
        "name": "Наёро Ши",
        "latitude": 44.33951,
        "longitude": 142.45932
    },
    {
        "name": "Немуро",
        "latitude": 43.32361,
        "longitude": 145.575
    },
    {
        "name": "Намуро-ши",
        "latitude": 43.33333,
        "longitude": 145.61667
    },
    {
        "name": "Нисеко Таун",
        "latitude": 42.77871,
        "longitude": 140.66903
    },
    {
        "name": "Ноборибецу",
        "latitude": 42.45215,
        "longitude": 141.17914
    },
    {
        "name": "Ноборибецу-ши",
        "latitude": 42.46565,
        "longitude": 141.07578
    },
    {
        "name": "Обихиро",
        "latitude": 42.91722,
        "longitude": 143.20444
    },
    {
        "name": "Обихиро Ши",
        "latitude": 42.75736,
        "longitude": 143.03061
    },
    {
        "name": "Отару",
        "latitude": 43.18944,
        "longitude": 141.00222
    },
    {
        "name": "Отара-ши",
        "latitude": 43.15628,
        "longitude": 141.02572
    },
    {
        "name": "Отофукэ",
        "latitude": 42.99167,
        "longitude": 143.20028
    },
    {
        "name": "Ребун Пистолет",
        "latitude": 45.38263,
        "longitude": 141.02839
    },
    {
        "name": "Ришири Ган",
        "latitude": 45.18244,
        "longitude": 141.22859
    },
    {
        "name": "Город Ришири",
        "latitude": 45.15928,
        "longitude": 141.19629
    },
    {
        "name": "Румои",
        "latitude": 43.93444,
        "longitude": 141.64278
    },
    {
        "name": "Румои-ши",
        "latitude": 43.8856,
        "longitude": 141.75567
    },
    {
        "name": "Саппоро",
        "latitude": 43.06667,
        "longitude": 141.35
    },
    {
        "name": "Саппоро",
        "latitude": 43.06667,
        "longitude": 141.35
    },
    {
        "name": "Сибецу",
        "latitude": 43.65899,
        "longitude": 145.13197
    },
    {
        "name": "Сибецу Ши",
        "latitude": 44.11522,
        "longitude": 142.54054
    },
    {
        "name": "Симо-фурано",
        "latitude": 43.35,
        "longitude": 142.38333
    },
    {
        "name": "Сираой",
        "latitude": 42.55,
        "longitude": 141.35
    },
    {
        "name": "Сидзунай-фурукавачо",
        "latitude": 42.33389,
        "longitude": 142.36694
    },
    {
        "name": "Сунагава",
        "latitude": 43.48639,
        "longitude": 141.90556
    },
    {
        "name": "Сунагава-си",
        "latitude": 43.50328,
        "longitude": 141.93274
    },
    {
        "name": "Такикава",
        "latitude": 43.55278,
        "longitude": 141.90639
    },
    {
        "name": "Такикава-ши",
        "latitude": 43.60837,
        "longitude": 141.94988
    },
    {
        "name": "Тобецу",
        "latitude": 43.21694,
        "longitude": 141.51694
    },
    {
        "name": "Томакомай",
        "latitude": 42.63694,
        "longitude": 141.60333
    },
    {
        "name": "Томакомай Ши",
        "latitude": 42.68226,
        "longitude": 141.57948
    },
    {
        "name": "Ты будешь мочиться",
        "latitude": 43.51667,
        "longitude": 142.05
    },
    {
        "name": "Уташинай-ши",
        "latitude": 43.49366,
        "longitude": 142.03878
    },
    {
        "name": "Вакканай",
        "latitude": 45.40944,
        "longitude": 141.67389
    },
    {
        "name": "Вакканай Ши",
        "latitude": 45.33243,
        "longitude": 141.82831
    },
    {
        "name": "Ёичи",
        "latitude": 43.20389,
        "longitude": 140.77028
    },
    {
        "name": "Отправитель",
        "latitude": 43.03778,
        "longitude": 141.95778
    },
    {
        "name": "Юбари-ши",
        "latitude": 43.04336,
        "longitude": 142.11065
    },
    {
        "name": "Очень прошу",
        "latitude": 34.80361,
        "longitude": 134.46806
    },
    {
        "name": "Айой Ши",
        "latitude": 34.82719,
        "longitude": 134.46699
    },
    {
        "name": "Акаши",
        "latitude": 34.65524,
        "longitude": 135.00687
    },
    {
        "name": "Акаши Ши",
        "latitude": 34.68277,
        "longitude": 134.94029
    },
    {
        "name": "Амагасаки Ши",
        "latitude": 34.73544,
        "longitude": 135.41181
    },
    {
        "name": "Асаго-ши",
        "latitude": 35.26249,
        "longitude": 134.82527
    },
    {
        "name": "Он ушел",
        "latitude": 34.72807,
        "longitude": 135.30264
    },
    {
        "name": "Азия Ши",
        "latitude": 34.74853,
        "longitude": 135.29759
    },
    {
        "name": "Авадзи Ши",
        "latitude": 34.49749,
        "longitude": 134.91331
    },
    {
        "name": "Фукура",
        "latitude": 34.25765,
        "longitude": 134.71535
    },
    {
        "name": "Химедзи",
        "latitude": 34.81667,
        "longitude": 134.7
    },
    {
        "name": "Химедзи Ши",
        "latitude": 34.90134,
        "longitude": 134.66316
    },
    {
        "name": "Итами",
        "latitude": 34.78427,
        "longitude": 135.40126
    },
    {
        "name": "Итами Ши",
        "latitude": 34.78675,
        "longitude": 135.40562
    },
    {
        "name": "Какогава Ши",
        "latitude": 34.78472,
        "longitude": 134.84897
    },
    {
        "name": "Какогавачо-хонмати",
        "latitude": 34.76943,
        "longitude": 134.82905
    },
    {
        "name": "Сука",
        "latitude": 34.75136,
        "longitude": 134.38734
    },
    {
        "name": "Касаи Ши",
        "latitude": 34.92476,
        "longitude": 134.85359
    },
    {
        "name": "Като Ши",
        "latitude": 34.92714,
        "longitude": 135.02134
    },
    {
        "name": "Каваниси",
        "latitude": 34.81667,
        "longitude": 135.41667
    },
    {
        "name": "Каваниси Ши",
        "latitude": 34.87955,
        "longitude": 135.40919
    },
    {
        "name": "Кобе",
        "latitude": 34.6913,
        "longitude": 135.183
    },
    {
        "name": "Мики",
        "latitude": 34.8,
        "longitude": 134.98333
    },
    {
        "name": "Мики Ши",
        "latitude": 34.83553,
        "longitude": 135.05822
    },
    {
        "name": "Минамиаваджи Ши",
        "latitude": 34.2753,
        "longitude": 134.76465
    },
    {
        "name": "Нисиномия Ши",
        "latitude": 34.78194,
        "longitude": 135.30247
    },
    {
        "name": "Нисиномы - все",
        "latitude": 34.71562,
        "longitude": 135.33199
    },
    {
        "name": "Нишиваки",
        "latitude": 34.98419,
        "longitude": 134.97407
    },
    {
        "name": "Нишиваки-ши",
        "latitude": 35.01098,
        "longitude": 134.9965
    },
    {
        "name": "Оно",
        "latitude": 34.85,
        "longitude": 134.93333
    },
    {
        "name": "Оно Ши",
        "latitude": 34.8575,
        "longitude": 134.95129
    },
    {
        "name": "Санда Ши",
        "latitude": 34.95506,
        "longitude": 135.2166
    },
    {
        "name": "Сандачо",
        "latitude": 34.88444,
        "longitude": 135.22694
    },
    {
        "name": "Сасаяма",
        "latitude": 35.06667,
        "longitude": 135.21667
    },
    {
        "name": "Сасаяма-ши",
        "latitude": 35.07523,
        "longitude": 135.23087
    },
    {
        "name": "Сырахамачо-усазакиминами",
        "latitude": 34.78333,
        "longitude": 134.71667
    },
    {
        "name": "Шисо-ши",
        "latitude": 35.15466,
        "longitude": 134.54337
    },
    {
        "name": "Сумото",
        "latitude": 34.34322,
        "longitude": 134.88911
    },
    {
        "name": "Сумото Ши",
        "latitude": 34.34533,
        "longitude": 134.85858
    },
    {
        "name": "Это винтовка",
        "latitude": 35.08473,
        "longitude": 134.90474
    },
    {
        "name": "Такаразука",
        "latitude": 34.79936,
        "longitude": 135.35697
    },
    {
        "name": "Такаразука Ши",
        "latitude": 34.86008,
        "longitude": 135.33197
    },
    {
        "name": "Такасаго Ши",
        "latitude": 34.77796,
        "longitude": 134.78665
    },
    {
        "name": "Танба-ши",
        "latitude": 35.17715,
        "longitude": 135.04972
    },
    {
        "name": "Тацуно-ши",
        "latitude": 34.88804,
        "longitude": 134.5191
    },
    {
        "name": "Тацуночо-томинага",
        "latitude": 34.86437,
        "longitude": 134.552
    },
    {
        "name": "Тойоока",
        "latitude": 35.54008,
        "longitude": 134.82038
    },
    {
        "name": "Тойока-ши",
        "latitude": 35.51384,
        "longitude": 134.82724
    },
    {
        "name": "Ябу",
        "latitude": 35.40304,
        "longitude": 134.77118
    },
    {
        "name": "Ябу-ши",
        "latitude": 35.38333,
        "longitude": 134.81667
    },
    {
        "name": "Ямадзакичо-накабиросе",
        "latitude": 35.0,
        "longitude": 134.55
    },
    {
        "name": "Яширо",
        "latitude": 34.91667,
        "longitude": 134.96667
    },
    {
        "name": "Йонедачио Существо",
        "latitude": 34.7756,
        "longitude": 134.82551
    },
    {
        "name": "Ами",
        "latitude": 36.03333,
        "longitude": 140.2
    },
    {
        "name": "Бандо",
        "latitude": 36.06997,
        "longitude": 139.86705
    },
    {
        "name": "Бандо-ши",
        "latitude": 36.06384,
        "longitude": 139.88787
    },
    {
        "name": "Чикусей",
        "latitude": 36.316,
        "longitude": 139.98238
    },
    {
        "name": "Чикусей-ши",
        "latitude": 36.28938,
        "longitude": 139.98692
    },
    {
        "name": "Дайго",
        "latitude": 36.76667,
        "longitude": 140.35
    },
    {
        "name": "Эдосаки",
        "latitude": 35.95,
        "longitude": 140.31667
    },
    {
        "name": "Фудзисиро",
        "latitude": 35.91667,
        "longitude": 140.11667
    },
    {
        "name": "Фунаисикава",
        "latitude": 36.46667,
        "longitude": 140.56667
    },
    {
        "name": "Хитачи",
        "latitude": 36.6,
        "longitude": 140.65
    },
    {
        "name": "Хитачи-Нака",
        "latitude": 36.39659,
        "longitude": 140.53479
    },
    {
        "name": "Хитачи-ота",
        "latitude": 36.5513,
        "longitude": 140.52821
    },
    {
        "name": "Хитачи",
        "latitude": 36.62492,
        "longitude": 140.61876
    },
    {
        "name": "Хитачинака-ши",
        "latitude": 36.39596,
        "longitude": 140.55789
    },
    {
        "name": "Хитачиомия-ши",
        "latitude": 36.61371,
        "longitude": 140.3399
    },
    {
        "name": "Хитачиота-ши",
        "latitude": 36.64836,
        "longitude": 140.50536
    },
    {
        "name": "Хокота-ши",
        "latitude": 36.17337,
        "longitude": 140.51993
    },
    {
        "name": "Это липко",
        "latitude": 35.95633,
        "longitude": 140.32356
    },
    {
        "name": "Инашики-ши",
        "latitude": 35.94563,
        "longitude": 140.36889
    },
    {
        "name": "Исиге",
        "latitude": 36.11667,
        "longitude": 139.96667
    },
    {
        "name": "Исиока",
        "latitude": 36.18333,
        "longitude": 140.26667
    },
    {
        "name": "Исиока-ши",
        "latitude": 36.22776,
        "longitude": 140.21786
    },
    {
        "name": "Это",
        "latitude": 35.93333,
        "longitude": 140.55
    },
    {
        "name": "Итако-ши",
        "latitude": 35.961,
        "longitude": 140.5621
    },
    {
        "name": "Восемь",
        "latitude": 36.05,
        "longitude": 139.9
    },
    {
        "name": "Ивасе",
        "latitude": 36.35,
        "longitude": 140.1
    },
    {
        "name": "Дзесо-ши",
        "latitude": 36.06409,
        "longitude": 139.96397
    },
    {
        "name": "Камису-ши",
        "latitude": 35.85126,
        "longitude": 140.71171
    },
    {
        "name": "с",
        "latitude": 36.38333,
        "longitude": 140.26667
    },
    {
        "name": "Присоединяйся к нему",
        "latitude": 36.35651,
        "longitude": 140.26935
    },
    {
        "name": "Касима-ши",
        "latitude": 35.96536,
        "longitude": 140.64474
    },
    {
        "name": "Касумигаура",
        "latitude": 36.15326,
        "longitude": 140.24635
    },
    {
        "name": "Касумигаура-ши",
        "latitude": 36.10937,
        "longitude": 140.30205
    },
    {
        "name": "Кацута",
        "latitude": 36.38333,
        "longitude": 140.53333
    },
    {
        "name": "Китайбараки",
        "latitude": 36.78671,
        "longitude": 140.74901
    },
    {
        "name": "Китайбараки-ши",
        "latitude": 36.83987,
        "longitude": 140.68736
    },
    {
        "name": "Кога",
        "latitude": 36.18333,
        "longitude": 139.71667
    },
    {
        "name": "В любое время",
        "latitude": 36.17975,
        "longitude": 139.77534
    },
    {
        "name": "Позволь ему быть",
        "latitude": 36.26667,
        "longitude": 140.1
    },
    {
        "name": "Мито",
        "latitude": 36.35,
        "longitude": 140.45
    },
    {
        "name": "Мито-ши",
        "latitude": 36.37053,
        "longitude": 140.43559
    },
    {
        "name": "Мицукайдо",
        "latitude": 36.01667,
        "longitude": 139.98333
    },
    {
        "name": "Мориа",
        "latitude": 35.93333,
        "longitude": 140.0
    },
    {
        "name": "Мориа-чем",
        "latitude": 35.9514,
        "longitude": 139.97539
    },
    {
        "name": "На",
        "latitude": 36.05,
        "longitude": 140.16667
    },
    {
        "name": "С пистолетом",
        "latitude": 36.46934,
        "longitude": 140.47943
    },
    {
        "name": "Намегата",
        "latitude": 36.00705,
        "longitude": 140.49623
    },
    {
        "name": "Он не говорит",
        "latitude": 36.06526,
        "longitude": 140.47173
    },
    {
        "name": "Хорошо",
        "latitude": 36.31409,
        "longitude": 140.58389
    },
    {
        "name": "Окуноя",
        "latitude": 36.28333,
        "longitude": 140.41667
    },
    {
        "name": "Омитама-ши",
        "latitude": 36.20403,
        "longitude": 140.3598
    },
    {
        "name": "Омия",
        "latitude": 36.55,
        "longitude": 140.41667
    },
    {
        "name": "Рюгасаки сказал",
        "latitude": 35.9,
        "longitude": 140.18333
    },
    {
        "name": "Рюгасаки-ши",
        "latitude": 35.92249,
        "longitude": 140.18527
    },
    {
        "name": "Сакаи",
        "latitude": 36.1,
        "longitude": 139.8
    },
    {
        "name": "Сакурагава",
        "latitude": 36.25052,
        "longitude": 140.11565
    },
    {
        "name": "Сакурагава-ши",
        "latitude": 36.32746,
        "longitude": 140.10792
    },
    {
        "name": "Симодате",
        "latitude": 36.3,
        "longitude": 139.98333
    },
    {
        "name": "Симоцума-ши",
        "latitude": 36.18743,
        "longitude": 139.96642
    },
    {
        "name": "Такахаги",
        "latitude": 36.71667,
        "longitude": 140.71667
    },
    {
        "name": "Томобе",
        "latitude": 36.35,
        "longitude": 140.3
    },
    {
        "name": "горячий",
        "latitude": 35.9,
        "longitude": 140.08333
    },
    {
        "name": "Ториде-ши",
        "latitude": 35.91286,
        "longitude": 140.08009
    },
    {
        "name": "Цучиура-ши",
        "latitude": 36.08333,
        "longitude": 140.2
    },
    {
        "name": "Цукуба",
        "latitude": 36.2,
        "longitude": 140.1
    },
    {
        "name": "Цукуба-ши",
        "latitude": 36.10532,
        "longitude": 140.08174
    },
    {
        "name": "Цукубамираи",
        "latitude": 35.98411,
        "longitude": 140.00929
    },
    {
        "name": "Цукубамираи-ши",
        "latitude": 35.98201,
        "longitude": 140.03812
    },
    {
        "name": "Усику",
        "latitude": 35.96667,
        "longitude": 140.13333
    },
    {
        "name": "Замолчи",
        "latitude": 35.97175,
        "longitude": 140.18578
    },
    {
        "name": "Юки",
        "latitude": 36.3,
        "longitude": 139.88333
    },
    {
        "name": "Юки-ши",
        "latitude": 36.26127,
        "longitude": 139.86403
    },
    {
        "name": "Хакуи",
        "latitude": 36.88333,
        "longitude": 136.78333
    },
    {
        "name": "Хакуи Ши",
        "latitude": 36.91136,
        "longitude": 136.81626
    },
    {
        "name": "Хакусан Ши",
        "latitude": 36.27558,
        "longitude": 136.66966
    },
    {
        "name": "Взгляни на него",
        "latitude": 36.25503,
        "longitude": 136.37963
    },
    {
        "name": "Кахоку Ши",
        "latitude": 36.74365,
        "longitude": 136.73273
    },
    {
        "name": "Канадзава",
        "latitude": 36.6,
        "longitude": 136.61667
    },
    {
        "name": "Канадзава-ши",
        "latitude": 36.51919,
        "longitude": 136.70836
    },
    {
        "name": "Комацу",
        "latitude": 36.40263,
        "longitude": 136.45088
    },
    {
        "name": "Мацуто",
        "latitude": 36.51667,
        "longitude": 136.56667
    },
    {
        "name": "Нанао Ши",
        "latitude": 37.07844,
        "longitude": 136.9286
    },
    {
        "name": "Номи Ши",
        "latitude": 36.43593,
        "longitude": 136.54456
    },
    {
        "name": "Ноноичи",
        "latitude": 36.53333,
        "longitude": 136.61667
    },
    {
        "name": "Ноноичи-ши",
        "latitude": 36.52288,
        "longitude": 136.60589
    },
    {
        "name": "Сузу",
        "latitude": 37.43459,
        "longitude": 137.26009
    },
    {
        "name": "Сузу Ши",
        "latitude": 37.45533,
        "longitude": 137.22587
    },
    {
        "name": "Цубата",
        "latitude": 36.67012,
        "longitude": 136.7403
    },
    {
        "name": "Цуруги-асахимачи",
        "latitude": 36.45,
        "longitude": 136.63333
    },
    {
        "name": "Вадзима Ши",
        "latitude": 37.33753,
        "longitude": 136.88757
    },
    {
        "name": "Хатимантай",
        "latitude": 39.89979,
        "longitude": 141.12989
    },
    {
        "name": "Хатимантай Ши",
        "latitude": 40.0239,
        "longitude": 140.99113
    },
    {
        "name": "Ханамаки",
        "latitude": 39.38333,
        "longitude": 141.11667
    },
    {
        "name": "Ханамаки Ши",
        "latitude": 39.44187,
        "longitude": 141.16751
    },
    {
        "name": "Ичинохе",
        "latitude": 40.21965,
        "longitude": 141.28986
    },
    {
        "name": "Ичиносеки",
        "latitude": 38.91667,
        "longitude": 141.13333
    },
    {
        "name": "Ичиносеки-ши",
        "latitude": 38.91667,
        "longitude": 141.13333
    },
    {
        "name": "Уезд Иватэ",
        "latitude": 39.97238,
        "longitude": 141.22719
    },
    {
        "name": "Камаиси",
        "latitude": 39.27694,
        "longitude": 141.86801
    },
    {
        "name": "Камаиси-ши",
        "latitude": 39.28748,
        "longitude": 141.79854
    },
    {
        "name": "Китаками",
        "latitude": 39.28333,
        "longitude": 141.11667
    },
    {
        "name": "Китаками-ши",
        "latitude": 39.30765,
        "longitude": 141.00795
    },
    {
        "name": "Идти",
        "latitude": 40.18778,
        "longitude": 141.76889
    },
    {
        "name": "Перейти к этому",
        "latitude": 40.14364,
        "longitude": 141.65918
    },
    {
        "name": "Мияко",
        "latitude": 39.64691,
        "longitude": 141.94057
    },
    {
        "name": "Мияко-ши",
        "latitude": 39.65724,
        "longitude": 141.85144
    },
    {
        "name": "Мизусава",
        "latitude": 39.13333,
        "longitude": 141.13333
    },
    {
        "name": "Мориока",
        "latitude": 39.7,
        "longitude": 141.15
    },
    {
        "name": "Мориока-ши",
        "latitude": 39.74546,
        "longitude": 141.26915
    },
    {
        "name": "Нинохе",
        "latitude": 40.29081,
        "longitude": 141.31334
    },
    {
        "name": "Нинохе Ши",
        "latitude": 40.23798,
        "longitude": 141.19576
    },
    {
        "name": "Офунато",
        "latitude": 39.07167,
        "longitude": 141.71667
    },
    {
        "name": "Офунато-ши",
        "latitude": 39.06667,
        "longitude": 141.71667
    },
    {
        "name": "Осю",
        "latitude": 39.13927,
        "longitude": 141.1685
    },
    {
        "name": "Осю-ши",
        "latitude": 39.12962,
        "longitude": 141.09479
    },
    {
        "name": "Оцучи",
        "latitude": 39.36667,
        "longitude": 141.9
    },
    {
        "name": "Рикузентаката-ши",
        "latitude": 39.04082,
        "longitude": 141.57703
    },
    {
        "name": "Шизукуиси",
        "latitude": 39.69414,
        "longitude": 140.98442
    },
    {
        "name": "Такидзава-ши",
        "latitude": 39.8,
        "longitude": 141.06667
    },
    {
        "name": "Запрос",
        "latitude": 39.31667,
        "longitude": 141.53333
    },
    {
        "name": "Тоно-ши",
        "latitude": 39.36479,
        "longitude": 141.50922
    },
    {
        "name": "Ямада",
        "latitude": 39.46667,
        "longitude": 141.95
    },
    {
        "name": "Хигасикагава Ши",
        "latitude": 34.21158,
        "longitude": 134.3335
    },
    {
        "name": "Канонджи Ши",
        "latitude": 34.08457,
        "longitude": 133.67448
    },
    {
        "name": "Канонджичо",
        "latitude": 34.1276,
        "longitude": 133.64598
    },
    {
        "name": "Маругаме",
        "latitude": 34.28333,
        "longitude": 133.78333
    },
    {
        "name": "Маругаме Ши",
        "latitude": 34.2856,
        "longitude": 133.81535
    },
    {
        "name": "Митойо Ши",
        "latitude": 34.16176,
        "longitude": 133.72282
    },
    {
        "name": "Сакаиде Ши",
        "latitude": 34.32403,
        "longitude": 133.89222
    },
    {
        "name": "Сакайдечо",
        "latitude": 34.32278,
        "longitude": 133.8356
    },
    {
        "name": "Сануки-ши",
        "latitude": 34.26615,
        "longitude": 134.20941
    },
    {
        "name": "Шидо",
        "latitude": 34.32333,
        "longitude": 134.17333
    },
    {
        "name": "Тадоцу",
        "latitude": 34.275,
        "longitude": 133.75
    },
    {
        "name": "Такамацу",
        "latitude": 34.33333,
        "longitude": 134.05
    },
    {
        "name": "Такамацу Ши",
        "latitude": 34.26852,
        "longitude": 134.0545
    },
    {
        "name": "Ограбление",
        "latitude": 34.48047,
        "longitude": 134.17017
    },
    {
        "name": "Зенцудзи Ши",
        "latitude": 34.22581,
        "longitude": 133.77692
    },
    {
        "name": "Айра Ши",
        "latitude": 31.7846,
        "longitude": 130.60668
    },
    {
        "name": "Акуне",
        "latitude": 32.01667,
        "longitude": 130.2
    },
    {
        "name": "Akune Shi",
        "latitude": 32.02516,
        "longitude": 130.19768
    },
    {
        "name": "люби меня",
        "latitude": 28.3769,
        "longitude": 129.49379
    },
    {
        "name": "Амами Ши",
        "latitude": 28.34542,
        "longitude": 129.50221
    },
    {
        "name": "Хаманоичи",
        "latitude": 31.71667,
        "longitude": 130.73333
    },
    {
        "name": "Хиоки",
        "latitude": 31.58333,
        "longitude": 130.35
    },
    {
        "name": "Хиоки Ши",
        "latitude": 31.59929,
        "longitude": 130.38208
    },
    {
        "name": "Ибусуки",
        "latitude": 31.23333,
        "longitude": 130.65
    },
    {
        "name": "Ибусуки Ши",
        "latitude": 31.22962,
        "longitude": 130.5806
    },
    {
        "name": "Ичикикусикино Ши",
        "latitude": 31.73281,
        "longitude": 130.28893
    },
    {
        "name": "Иджуин",
        "latitude": 31.61667,
        "longitude": 130.4
    },
    {
        "name": "Хватит с него",
        "latitude": 32.05835,
        "longitude": 130.60104
    },
    {
        "name": "Идзуми",
        "latitude": 32.08333,
        "longitude": 130.36667
    },
    {
        "name": "Идзуми Ши",
        "latitude": 32.06412,
        "longitude": 130.36097
    },
    {
        "name": "Кагосима",
        "latitude": 31.56667,
        "longitude": 130.55
    },
    {
        "name": "Кагосима Ши",
        "latitude": 31.58003,
        "longitude": 130.52806
    },
    {
        "name": "Кадзики",
        "latitude": 31.73333,
        "longitude": 130.66667
    },
    {
        "name": "Каноя",
        "latitude": 31.38333,
        "longitude": 130.85
    },
    {
        "name": "Каноя Ши",
        "latitude": 31.42664,
        "longitude": 130.86735
    },
    {
        "name": "Каседа-сиракаме",
        "latitude": 31.41667,
        "longitude": 130.31667
    },
    {
        "name": "Киришима Ши",
        "latitude": 31.80558,
        "longitude": 130.78164
    },
    {
        "name": "Кокубу-Мацуки",
        "latitude": 31.73333,
        "longitude": 130.76667
    },
    {
        "name": "Коседа",
        "latitude": 30.38796,
        "longitude": 130.64924
    },
    {
        "name": "Косима",
        "latitude": 30.23461,
        "longitude": 130.53517
    },
    {
        "name": "Чей",
        "latitude": 30.27123,
        "longitude": 130.4236
    },
    {
        "name": "Схватить",
        "latitude": 31.71667,
        "longitude": 130.26667
    },
    {
        "name": "Макуразаки",
        "latitude": 31.26667,
        "longitude": 130.31667
    },
    {
        "name": "Макуразаки Ши",
        "latitude": 31.29139,
        "longitude": 130.30681
    },
    {
        "name": "Минамикюсю Ши",
        "latitude": 31.34038,
        "longitude": 130.43677
    },
    {
        "name": "Минамисацума Ши",
        "latitude": 31.38793,
        "longitude": 130.26961
    },
    {
        "name": "Мияноура",
        "latitude": 30.4269,
        "longitude": 130.57151
    },
    {
        "name": "Нагата",
        "latitude": 30.39516,
        "longitude": 130.42548
    },
    {
        "name": "Назе",
        "latitude": 28.36667,
        "longitude": 129.48333
    },
    {
        "name": "Нишиноомоте",
        "latitude": 30.73333,
        "longitude": 131.0
    },
    {
        "name": "Нишиноомоте Ши",
        "latitude": 30.70536,
        "longitude": 131.01521
    },
    {
        "name": "Окучи-синохара",
        "latitude": 32.06779,
        "longitude": 130.62439
    },
    {
        "name": "Сацумасендай",
        "latitude": 31.81667,
        "longitude": 130.3
    },
    {
        "name": "Сацумасендай Ши",
        "latitude": 31.82376,
        "longitude": 130.25899
    },
    {
        "name": "Сибуши",
        "latitude": 31.476,
        "longitude": 131.10114
    },
    {
        "name": "Сибуши-ши",
        "latitude": 31.48333,
        "longitude": 131.1
    },
    {
        "name": "Ну давай же",
        "latitude": 31.65615,
        "longitude": 130.9747
    },
    {
        "name": "Суёсичо-нинока",
        "latitude": 31.65,
        "longitude": 131.01667
    },
    {
        "name": "Тарумизу",
        "latitude": 31.48333,
        "longitude": 130.7
    },
    {
        "name": "Тарумизу Ши",
        "latitude": 31.51583,
        "longitude": 130.76046
    },
    {
        "name": "Юдомари",
        "latitude": 30.2347,
        "longitude": 130.47942
    },
    {
        "name": "Ацуги",
        "latitude": 35.44272,
        "longitude": 139.36931
    },
    {
        "name": "Ацуги Ши",
        "latitude": 35.46513,
        "longitude": 139.32707
    },
    {
        "name": "Аясэ Ши",
        "latitude": 35.43995,
        "longitude": 139.43089
    },
    {
        "name": "Чигасаки",
        "latitude": 35.33638,
        "longitude": 139.40434
    },
    {
        "name": "Чигасаки Ши",
        "latitude": 35.34429,
        "longitude": 139.40958
    },
    {
        "name": "Эбина Ши",
        "latitude": 35.43762,
        "longitude": 139.39307
    },
    {
        "name": "Фудзисава",
        "latitude": 35.34926,
        "longitude": 139.47666
    },
    {
        "name": "Фудзисава Ши",
        "latitude": 35.36814,
        "longitude": 139.45899
    },
    {
        "name": "Хадано",
        "latitude": 35.37111,
        "longitude": 139.22361
    },
    {
        "name": "Хадано-ши",
        "latitude": 35.4,
        "longitude": 139.2
    },
    {
        "name": "Хаконе",
        "latitude": 35.18945,
        "longitude": 139.02649
    },
    {
        "name": "Хаяма",
        "latitude": 35.27651,
        "longitude": 139.57733
    },
    {
        "name": "Хирацука",
        "latitude": 35.32785,
        "longitude": 139.33735
    },
    {
        "name": "Хирацука Ши",
        "latitude": 35.35099,
        "longitude": 139.32013
    },
    {
        "name": "Исехара",
        "latitude": 35.39932,
        "longitude": 139.31019
    },
    {
        "name": "Исехара Ши",
        "latitude": 35.41011,
        "longitude": 139.29203
    },
    {
        "name": "Камакура",
        "latitude": 35.30889,
        "longitude": 139.55028
    },
    {
        "name": "Камакура Ши",
        "latitude": 35.33,
        "longitude": 139.53798
    },
    {
        "name": "Кавасаки",
        "latitude": 35.52056,
        "longitude": 139.71722
    },
    {
        "name": "Кавасаки-ши",
        "latitude": 35.56996,
        "longitude": 139.62854
    },
    {
        "name": "Минамиасигара",
        "latitude": 35.31947,
        "longitude": 139.1096
    },
    {
        "name": "Минамиасигара Ши",
        "latitude": 35.30991,
        "longitude": 139.07016
    },
    {
        "name": "Минамиринкан",
        "latitude": 35.49527,
        "longitude": 139.44279
    },
    {
        "name": "Миура",
        "latitude": 35.14,
        "longitude": 139.61917
    },
    {
        "name": "Миура Ши",
        "latitude": 35.16754,
        "longitude": 139.64104
    },
    {
        "name": "Ниномия",
        "latitude": 35.3015,
        "longitude": 139.25581
    },
    {
        "name": "Одавара",
        "latitude": 35.25556,
        "longitude": 139.15972
    },
    {
        "name": "Одавара-ши",
        "latitude": 35.25,
        "longitude": 139.13333
    },
    {
        "name": "Оизо",
        "latitude": 35.31558,
        "longitude": 139.31625
    },
    {
        "name": "Сагамихара-ши",
        "latitude": 35.55,
        "longitude": 139.35
    },
    {
        "name": "Ямакита",
        "latitude": 35.36344,
        "longitude": 139.07975
    },
    {
        "name": "Ямато-ши",
        "latitude": 35.46934,
        "longitude": 139.46165
    },
    {
        "name": "Иокогама",
        "latitude": 35.43333,
        "longitude": 139.65
    },
    {
        "name": "Иокогама Ши",
        "latitude": 35.46225,
        "longitude": 139.57645
    },
    {
        "name": "Йокосука",
        "latitude": 35.28361,
        "longitude": 139.66722
    },
    {
        "name": "Ёкосука Ши",
        "latitude": 35.24985,
        "longitude": 139.66033
    },
    {
        "name": "Югавара",
        "latitude": 35.15,
        "longitude": 139.06667
    },
    {
        "name": "Существовать",
        "latitude": 35.4879,
        "longitude": 139.39101
    },
    {
        "name": "Стать им",
        "latitude": 35.48752,
        "longitude": 139.40925
    },
    {
        "name": "Дзуси Ши",
        "latitude": 35.299,
        "longitude": 139.59125
    },
    {
        "name": "Ачи",
        "latitude": 35.44388889,
        "longitude": 137.7475
    },
    {
        "name": "Агэмацу",
        "latitude": 35.78388889,
        "longitude": 137.69416667
    },
    {
        "name": "Аки",
        "latitude": 33.5025,
        "longitude": 133.90722222
    },
    {
        "name": "Анан",
        "latitude": 35.32361111,
        "longitude": 137.81611111
    },
    {
        "name": "Аоки",
        "latitude": 36.37,
        "longitude": 138.12861111
    },
    {
        "name": "Асахи",
        "latitude": 36.12361111,
        "longitude": 137.86638889
    },
    {
        "name": "Пост",
        "latitude": 36.30388889,
        "longitude": 137.90555556
    },
    {
        "name": "Тикухоку",
        "latitude": 36.4212,
        "longitude": 138.04011
    },
    {
        "name": "Чикума",
        "latitude": 36.50624,
        "longitude": 138.12352
    },
    {
        "name": "Чино",
        "latitude": 35.99555556,
        "longitude": 138.15888889
    },
    {
        "name": "Фудзими",
        "latitude": 35.91472222,
        "longitude": 138.24083333
    },
    {
        "name": "Гейсей",
        "latitude": 33.52694444,
        "longitude": 133.80916667
    },
    {
        "name": "Хакуба",
        "latitude": 36.7,
        "longitude": 137.86666667
    },
    {
        "name": "Хара",
        "latitude": 35.96444444,
        "longitude": 138.2175
    },
    {
        "name": "Хидака",
        "latitude": 33.53472222,
        "longitude": 133.37333333
    },
    {
        "name": "Хирая",
        "latitude": 35.32333333,
        "longitude": 137.63027778
    },
    {
        "name": "Иида",
        "latitude": 35.51472222,
        "longitude": 137.82194444
    },
    {
        "name": "Иидзима",
        "latitude": 35.67638889,
        "longitude": 137.91944444
    },
    {
        "name": "Иияма",
        "latitude": 36.85166667,
        "longitude": 138.36555556
    },
    {
        "name": "Иидзуна",
        "latitude": 36.755,
        "longitude": 138.23555556
    },
    {
        "name": "Икеда",
        "latitude": 36.42138889,
        "longitude": 137.87472222
    },
    {
        "name": "Икусака",
        "latitude": 36.42527778,
        "longitude": 137.9275
    },
    {
        "name": "В",
        "latitude": 35.8275,
        "longitude": 137.95388889
    },
    {
        "name": "Я не",
        "latitude": 33.55,
        "longitude": 133.43333333
    },
    {
        "name": "Каруизава",
        "latitude": 36.34833333,
        "longitude": 138.59694444
    },
    {
        "name": "Каваками",
        "latitude": 35.97555556,
        "longitude": 138.57833333
    },
    {
        "name": "Круговой",
        "latitude": 36.85861111,
        "longitude": 138.40666667
    },
    {
        "name": "поцелуй",
        "latitude": 35.93638889,
        "longitude": 137.78305556
    },
    {
        "name": "Китайки",
        "latitude": 36.05916667,
        "longitude": 138.55111111
    },
    {
        "name": "Китагава",
        "latitude": 33.44777778,
        "longitude": 134.04222222
    },
    {
        "name": "Коти",
        "latitude": 33.55888889,
        "longitude": 133.53138889
    },
    {
        "name": "Камера",
        "latitude": 36.3275,
        "longitude": 138.42583333
    },
    {
        "name": "Конан",
        "latitude": 33.56416667,
        "longitude": 133.70055556
    },
    {
        "name": "Куросио",
        "latitude": 33.025,
        "longitude": 133.01083333
    },
    {
        "name": "Мацукава",
        "latitude": 35.59722222,
        "longitude": 137.90972222
    },
    {
        "name": "Мацумото",
        "latitude": 36.23805556,
        "longitude": 137.97194444
    },
    {
        "name": "Михара",
        "latitude": 32.90611111,
        "longitude": 132.84722222
    },
    {
        "name": "Минамиаики",
        "latitude": 36.03611111,
        "longitude": 138.54694444
    },
    {
        "name": "Минамимаки",
        "latitude": 36.02083333,
        "longitude": 138.49222222
    },
    {
        "name": "Минамиминова",
        "latitude": 35.87277778,
        "longitude": 137.97527778
    },
    {
        "name": "Минова",
        "latitude": 35.915,
        "longitude": 137.98194444
    },
    {
        "name": "Мицусима",
        "latitude": 35.275251,
        "longitude": 137.852137
    },
    {
        "name": "В мозгу",
        "latitude": 35.76888889,
        "longitude": 137.94422222
    },
    {
        "name": "Миота",
        "latitude": 36.32138889,
        "longitude": 138.50888889
    },
    {
        "name": "Мотояма",
        "latitude": 35.16402778,
        "longitude": 136.96361111
    },
    {
        "name": "Мурото",
        "latitude": 33.29,
        "longitude": 134.15194444
    },
    {
        "name": "Нагано",
        "latitude": 36.64861111,
        "longitude": 138.19277778
    },
    {
        "name": "Сделанный",
        "latitude": 36.25611111,
        "longitude": 138.26777778
    },
    {
        "name": "Нагисо",
        "latitude": 35.60361111,
        "longitude": 137.60888889
    },
    {
        "name": "Нахари",
        "latitude": 33.42416667,
        "longitude": 134.02111111
    },
    {
        "name": "Накагава",
        "latitude": 35.63444444,
        "longitude": 137.94611111
    },
    {
        "name": "Накаджо",
        "latitude": 36.61222222,
        "longitude": 138.03652778
    },
    {
        "name": "Накамура",
        "latitude": 32.99138889,
        "longitude": 132.93375
    },
    {
        "name": "Накано",
        "latitude": 36.74194444,
        "longitude": 138.36944444
    },
    {
        "name": "Промытый",
        "latitude": 33.3275,
        "longitude": 133.22833333
    },
    {
        "name": "Нанкоку",
        "latitude": 33.57555556,
        "longitude": 133.64138889
    },
    {
        "name": "Небеса",
        "latitude": 35.25305556,
        "longitude": 137.58111111
    },
    {
        "name": "Ниёдогава",
        "latitude": 33.57527778,
        "longitude": 133.16833333
    },
    {
        "name": "Нодзаваонсен",
        "latitude": 36.92277778,
        "longitude": 138.44055556
    },
    {
        "name": "Он правил",
        "latitude": 36.69777778,
        "longitude": 138.31222222
    },
    {
        "name": "Глаза",
        "latitude": 33.53277778,
        "longitude": 133.25194444
    },
    {
        "name": "Огава",
        "latitude": 36.61694444,
        "longitude": 137.97444444
    },
    {
        "name": "Формальный",
        "latitude": 33.78361111,
        "longitude": 133.46666667
    },
    {
        "name": "Хорошо",
        "latitude": 36.06694444,
        "longitude": 138.04944444
    },
    {
        "name": "Обе",
        "latitude": 35.68277778,
        "longitude": 137.665
    },
    {
        "name": "Омати",
        "latitude": 36.5,
        "longitude": 137.85
    },
    {
        "name": "Вода",
        "latitude": 36.45611111,
        "longitude": 138.04527778
    },
    {
        "name": "Осика",
        "latitude": 35.57833333,
        "longitude": 138.03416667
    },
    {
        "name": "Правильный",
        "latitude": 35.80944444,
        "longitude": 137.55111111
    },
    {
        "name": "Отари",
        "latitude": 36.77916667,
        "longitude": 137.90833333
    },
    {
        "name": "Отойо",
        "latitude": 33.76416667,
        "longitude": 133.66416667
    },
    {
        "name": "Оцуки",
        "latitude": 32.84138889,
        "longitude": 132.70694444
    },
    {
        "name": "Сакаэ",
        "latitude": 36.9875,
        "longitude": 138.5775
    },
    {
        "name": "Развод",
        "latitude": 36.46194444,
        "longitude": 138.18027778
    },
    {
        "name": "Вставка",
        "latitude": 33.50083333,
        "longitude": 133.28666667
    },
    {
        "name": "Начинать",
        "latitude": 36.24888889,
        "longitude": 138.47694444
    },
    {
        "name": "Сакухо",
        "latitude": 36.16111111,
        "longitude": 138.48333333
    },
    {
        "name": "Санада",
        "latitude": 36.44088889,
        "longitude": 138.30361111
    },
    {
        "name": "Шиманто",
        "latitude": 33.20833333,
        "longitude": 133.13555556
    },
    {
        "name": "Симодзё",
        "latitude": 35.3975,
        "longitude": 137.78611111
    },
    {
        "name": "Симосува",
        "latitude": 36.06972222,
        "longitude": 138.08027778
    },
    {
        "name": "Синано",
        "latitude": 36.80638889,
        "longitude": 138.20694444
    },
    {
        "name": "Сиодзири",
        "latitude": 36.11666667,
        "longitude": 137.95
    },
    {
        "name": "Сукумо",
        "latitude": 32.93888889,
        "longitude": 132.72611111
    },
    {
        "name": "Сусаки",
        "latitude": 33.40083333,
        "longitude": 133.28305556
    },
    {
        "name": "Вода",
        "latitude": 36.03916667,
        "longitude": 138.11416667
    },
    {
        "name": "Сузак",
        "latitude": 36.65,
        "longitude": 138.31667
    },
    {
        "name": "Такаги",
        "latitude": 35.51388889,
        "longitude": 137.87388889
    },
    {
        "name": "Такамори",
        "latitude": 35.55138889,
        "longitude": 137.87861111
    },
    {
        "name": "Такаяма",
        "latitude": 36.67972222,
        "longitude": 138.36305556
    },
    {
        "name": "Тано",
        "latitude": 33.42777778,
        "longitude": 134.00833333
    },
    {
        "name": "Татешина",
        "latitude": 36.27194444,
        "longitude": 138.31611111
    },
    {
        "name": "Тацуно",
        "latitude": 35.9825,
        "longitude": 137.9875
    },
    {
        "name": "Траулер",
        "latitude": 36.91666667,
        "longitude": 138.38333333
    },
    {
        "name": "Томи",
        "latitude": 36.35944444,
        "longitude": 138.33055556
    },
    {
        "name": "Уход",
        "latitude": 33.49611111,
        "longitude": 133.42527778
    },
    {
        "name": "Тосашимидзу",
        "latitude": 32.78138889,
        "longitude": 132.955
    },
    {
        "name": "Тойо",
        "latitude": 33.52805556,
        "longitude": 134.28
    },
    {
        "name": "Тойоока",
        "latitude": 35.55138889,
        "longitude": 137.89583333
    },
    {
        "name": "Цуно",
        "latitude": 33.44666667,
        "longitude": 133.19944444
    },
    {
        "name": "Уэда",
        "latitude": 36.40194444,
        "longitude": 138.24916667
    },
    {
        "name": "Вода",
        "latitude": 33.55527778,
        "longitude": 134.04805556
    },
    {
        "name": "Дверь",
        "latitude": 35.27111111,
        "longitude": 137.71111111
    },
    {
        "name": "США",
        "latitude": 33.44936111,
        "longitude": 133.43711111
    },
    {
        "name": "Ямагата",
        "latitude": 36.16805556,
        "longitude": 137.87888889
    },
    {
        "name": "Яманучи",
        "latitude": 36.74472222,
        "longitude": 138.4125
    },
    {
        "name": "Ясуда",
        "latitude": 33.43833333,
        "longitude": 133.98111111
    },
    {
        "name": "Ясуока",
        "latitude": 35.37722222,
        "longitude": 137.84583333
    },
    {
        "name": "Много",
        "latitude": 36.51666667,
        "longitude": 138.1
    },
    {
        "name": "Юсухара",
        "latitude": 33.39194444,
        "longitude": 132.92694444
    },
    {
        "name": "Амакуса Пистолет",
        "latitude": 32.48513,
        "longitude": 130.0724
    },
    {
        "name": "Амакуса Ши",
        "latitude": 32.38515,
        "longitude": 130.15014
    },
    {
        "name": "Арао Ши",
        "latitude": 32.97619,
        "longitude": 130.47562
    },
    {
        "name": "Асо-ши",
        "latitude": 32.95608,
        "longitude": 131.09458
    },
    {
        "name": "Хитоёси",
        "latitude": 32.21667,
        "longitude": 130.75
    },
    {
        "name": "Хитоёси Ши",
        "latitude": 32.17298,
        "longitude": 130.74013
    },
    {
        "name": "дорогие студенты",
        "latitude": 32.45993,
        "longitude": 130.16713
    },
    {
        "name": "Хонмати",
        "latitude": 32.50439,
        "longitude": 130.59952
    },
    {
        "name": "Камиамакуса Ши",
        "latitude": 32.4955,
        "longitude": 130.40816
    },
    {
        "name": "Кикучи",
        "latitude": 32.98333,
        "longitude": 130.81667
    },
    {
        "name": "Кикучи Ши",
        "latitude": 32.99107,
        "longitude": 130.85523
    },
    {
        "name": "Коси Ши",
        "latitude": 32.89305,
        "longitude": 130.76867
    },
    {
        "name": "Кумамото",
        "latitude": 32.80589,
        "longitude": 130.69181
    },
    {
        "name": "Кумамото Ши",
        "latitude": 32.79733,
        "longitude": 130.69171
    },
    {
        "name": "Мацубасе",
        "latitude": 32.65,
        "longitude": 130.66667
    },
    {
        "name": "Минамата",
        "latitude": 32.21667,
        "longitude": 130.4
    },
    {
        "name": "Минамата Ши",
        "latitude": 32.17055,
        "longitude": 130.46211
    },
    {
        "name": "Одзу",
        "latitude": 32.8804,
        "longitude": 130.87161
    },
    {
        "name": "Отец",
        "latitude": 32.94716,
        "longitude": 130.57446
    },
    {
        "name": "Люби его",
        "latitude": 32.9155,
        "longitude": 130.56018
    },
    {
        "name": "Уэкимачи-моно",
        "latitude": 32.89964,
        "longitude": 130.68898
    },
    {
        "name": "Уки Ши",
        "latitude": 32.62669,
        "longitude": 130.65491
    },
    {
        "name": "Ушибукамати",
        "latitude": 32.20142,
        "longitude": 130.02171
    },
    {
        "name": "Уто",
        "latitude": 32.68333,
        "longitude": 130.66667
    },
    {
        "name": "Уто Ши",
        "latitude": 32.68092,
        "longitude": 130.61308
    },
    {
        "name": "Ямага Ши",
        "latitude": 33.05587,
        "longitude": 130.72309
    },
    {
        "name": "Яцусиро Ши",
        "latitude": 32.49063,
        "longitude": 130.74972
    },
    {
        "name": "Арасияма",
        "latitude": 35.01481,
        "longitude": 135.67755
    },
    {
        "name": "Будь как будет",
        "latitude": 35.3,
        "longitude": 135.25
    },
    {
        "name": "Аябэ-ши",
        "latitude": 35.35263,
        "longitude": 135.34465
    },
    {
        "name": "Фукутияма-ши",
        "latitude": 35.32404,
        "longitude": 135.11332
    },
    {
        "name": "Джойо Ши",
        "latitude": 34.84566,
        "longitude": 135.7976
    },
    {
        "name": "Камея",
        "latitude": 35.0,
        "longitude": 135.58333
    },
    {
        "name": "Камеока-ши",
        "latitude": 35.01021,
        "longitude": 135.539
    },
    {
        "name": "Камигё-ку",
        "latitude": 35.02954,
        "longitude": 135.75666
    },
    {
        "name": "Кизугава-ши",
        "latitude": 34.73781,
        "longitude": 135.82128
    },
    {
        "name": "Кётанабе Ши",
        "latitude": 34.80779,
        "longitude": 135.763
    },
    {
        "name": "Кётанго-ши",
        "latitude": 35.63089,
        "longitude": 135.04785
    },
    {
        "name": "Киото",
        "latitude": 35.02107,
        "longitude": 135.75385
    },
    {
        "name": "Майдзуру",
        "latitude": 35.45,
        "longitude": 135.33333
    },
    {
        "name": "Майдзуру-ши",
        "latitude": 35.47009,
        "longitude": 135.34003
    },
    {
        "name": "Миядзу",
        "latitude": 35.53333,
        "longitude": 135.18333
    },
    {
        "name": "Миядзу-ши",
        "latitude": 35.55596,
        "longitude": 135.17662
    },
    {
        "name": "Муко Ши",
        "latitude": 34.94975,
        "longitude": 135.70269
    },
    {
        "name": "Нагаокаке Ши",
        "latitude": 34.9284,
        "longitude": 135.67881
    },
    {
        "name": "Нантан-ши",
        "latitude": 35.2274,
        "longitude": 135.55939
    },
    {
        "name": "Танабэ",
        "latitude": 34.82242,
        "longitude": 135.76604
    },
    {
        "name": "Удзи",
        "latitude": 34.89044,
        "longitude": 135.80325
    },
    {
        "name": "Уджи Ши",
        "latitude": 34.90296,
        "longitude": 135.82039
    },
    {
        "name": "Много",
        "latitude": 34.87009,
        "longitude": 135.7027
    },
    {
        "name": "Распространи его",
        "latitude": 34.86662,
        "longitude": 135.7147
    },
    {
        "name": "Хысай-мотоматы",
        "latitude": 34.66667,
        "longitude": 136.46667
    },
    {
        "name": "Ига-ши",
        "latitude": 34.76855,
        "longitude": 136.13013
    },
    {
        "name": "Инабе",
        "latitude": 35.11344,
        "longitude": 136.57205
    },
    {
        "name": "Инабе-ши",
        "latitude": 35.16061,
        "longitude": 136.50788
    },
    {
        "name": "Тогда как",
        "latitude": 34.48333,
        "longitude": 136.7
    },
    {
        "name": "Исэ-ши",
        "latitude": 34.4674,
        "longitude": 136.71585
    },
    {
        "name": "Камеяма",
        "latitude": 34.85,
        "longitude": 136.45
    },
    {
        "name": "Камеяма Ши",
        "latitude": 34.86866,
        "longitude": 136.39345
    },
    {
        "name": "Каваге",
        "latitude": 34.80447,
        "longitude": 136.54645
    },
    {
        "name": "Комоно",
        "latitude": 35.0,
        "longitude": 136.51667
    },
    {
        "name": "Кумано",
        "latitude": 33.90389,
        "longitude": 136.12214
    },
    {
        "name": "Кумано-ши",
        "latitude": 33.9229,
        "longitude": 136.02646
    },
    {
        "name": "Найти",
        "latitude": 35.05192,
        "longitude": 136.66958
    },
    {
        "name": "Вот и все",
        "latitude": 35.06176,
        "longitude": 136.68348
    },
    {
        "name": "Мацудзака-ши",
        "latitude": 34.56667,
        "longitude": 136.53333
    },
    {
        "name": "Очевидно",
        "latitude": 34.61667,
        "longitude": 136.08333
    },
    {
        "name": "Набари-ши",
        "latitude": 34.62643,
        "longitude": 136.10825
    },
    {
        "name": "Который имел",
        "latitude": 34.06667,
        "longitude": 136.2
    },
    {
        "name": "Сима",
        "latitude": 34.33333,
        "longitude": 136.83333
    },
    {
        "name": "Сима-ши",
        "latitude": 34.33795,
        "longitude": 136.81336
    },
    {
        "name": "Сузука",
        "latitude": 34.88333,
        "longitude": 136.58333
    },
    {
        "name": "Сузука-ши",
        "latitude": 34.88114,
        "longitude": 136.58443
    },
    {
        "name": "Тоба",
        "latitude": 34.4833,
        "longitude": 136.84186
    },
    {
        "name": "Тоба-ши",
        "latitude": 34.48333,
        "longitude": 136.83333
    },
    {
        "name": "Цу",
        "latitude": 34.73333,
        "longitude": 136.51667
    },
    {
        "name": "Цу-ши",
        "latitude": 34.71706,
        "longitude": 136.50616
    },
    {
        "name": "Уэно-меч",
        "latitude": 34.75856,
        "longitude": 136.13108
    },
    {
        "name": "Ёккаичи-ши",
        "latitude": 34.96475,
        "longitude": 136.62443
    },
    {
        "name": "Фурукава",
        "latitude": 38.57167,
        "longitude": 140.95556
    },
    {
        "name": "Хигасимацушима Ши",
        "latitude": 38.41089,
        "longitude": 141.17717
    },
    {
        "name": "Хигасимацусима",
        "latitude": 38.40886,
        "longitude": 141.17901
    },
    {
        "name": "Исиномаки",
        "latitude": 38.41667,
        "longitude": 141.3
    },
    {
        "name": "Исиномаки Ши",
        "latitude": 38.47918,
        "longitude": 141.37226
    },
    {
        "name": "Иванума",
        "latitude": 38.10472,
        "longitude": 140.85944
    },
    {
        "name": "Иванума-ши",
        "latitude": 38.11667,
        "longitude": 140.88333
    },
    {
        "name": "Черный",
        "latitude": 37.97451,
        "longitude": 140.77202
    },
    {
        "name": "Какуда Ши",
        "latitude": 37.98828,
        "longitude": 140.77903
    },
    {
        "name": "Кесеннума",
        "latitude": 38.90112,
        "longitude": 141.57746
    },
    {
        "name": "Кесеннума Ши",
        "latitude": 38.91377,
        "longitude": 141.55711
    },
    {
        "name": "Kogota",
        "latitude": 38.55,
        "longitude": 141.05
    },
    {
        "name": "Курихара",
        "latitude": 38.75,
        "longitude": 141.0
    },
    {
        "name": "Курихара Ши",
        "latitude": 38.80895,
        "longitude": 140.94034
    },
    {
        "name": "Марумори",
        "latitude": 37.91667,
        "longitude": 140.76667
    },
    {
        "name": "Мацусима",
        "latitude": 38.37357,
        "longitude": 141.06105
    },
    {
        "name": "Натори Ши",
        "latitude": 38.16729,
        "longitude": 140.86666
    },
    {
        "name": "Окавара",
        "latitude": 38.05,
        "longitude": 140.73361
    },
    {
        "name": "Онагава Чо",
        "latitude": 38.4466,
        "longitude": 141.44794
    },
    {
        "name": "Осаки",
        "latitude": 38.58866,
        "longitude": 140.973
    },
    {
        "name": "Осака Ши",
        "latitude": 38.68005,
        "longitude": 140.84669
    },
    {
        "name": "Смерть",
        "latitude": 38.33092,
        "longitude": 140.97691
    },
    {
        "name": "Сендай",
        "latitude": 38.26667,
        "longitude": 140.86667
    },
    {
        "name": "Сиогама",
        "latitude": 38.31667,
        "longitude": 141.03333
    },
    {
        "name": "Сироиси",
        "latitude": 38.00333,
        "longitude": 140.61833
    },
    {
        "name": "Сироиси Ши",
        "latitude": 37.99691,
        "longitude": 140.57944
    },
    {
        "name": "Взгляни на него",
        "latitude": 38.29535,
        "longitude": 140.9991
    },
    {
        "name": "Томе Ши",
        "latitude": 38.68583,
        "longitude": 141.25745
    },
    {
        "name": "Tomiya",
        "latitude": 38.39306,
        "longitude": 140.88611
    },