[
    {
        "name": "Aydarken",
        "latitude": 39.94319,
        "longitude": 71.34184
    },
    {
        "name": "Batken",
        "latitude": 40.06259,
        "longitude": 70.81939
    },
    {
        "name": "Iradan",
        "latitude": 40.26667,
        "longitude": 72.1
    },
    {
        "name": "Isfana",
        "latitude": 39.83895,
        "longitude": 69.5276
    },
    {
        "name": "Karavan",
        "latitude": 40.29513,
        "longitude": 72.18627
    },
    {
        "name": "Kyzyl-Kyya",
        "latitude": 40.25684,
        "longitude": 72.12793
    },
    {
        "name": "Suluktu",
        "latitude": 39.93652,
        "longitude": 69.56779
    },
    {
        "name": "Bishkek",
        "latitude": 42.87,
        "longitude": 74.59
    },
    {
        "name": "Alamudunskiy Rayon",
        "latitude": 42.81985,
        "longitude": 74.59398
    },
    {
        "name": "Belovodskoye",
        "latitude": 42.82944,
        "longitude": 74.1083
    },
    {
        "name": "Chuyskiy Rayon",
        "latitude": 42.66667,
        "longitude": 75.33333
    },
    {
        "name": "Ivanovka",
        "latitude": 42.88778,
        "longitude": 75.085
    },
    {
        "name": "Kaindy",
        "latitude": 42.82469,
        "longitude": 73.67585
    },
    {
        "name": "Kant",
        "latitude": 42.89106,
        "longitude": 74.85077
    },
    {
        "name": "Kara-Balta",
        "latitude": 42.81423,
        "longitude": 73.84813
    },
    {
        "name": "Kemin",
        "latitude": 42.78611,
        "longitude": 75.69167
    },
    {
        "name": "Lebedinovka",
        "latitude": 42.88454,
        "longitude": 74.67819
    },
    {
        "name": "Sokulukskiy Rayon",
        "latitude": 42.83333,
        "longitude": 74.33333
    },
    {
        "name": "Sosnovka",
        "latitude": 42.63707,
        "longitude": 73.89608
    },
    {
        "name": "Tokmok",
        "latitude": 42.84194,
        "longitude": 75.30149
    },
    {
        "name": "Ysyk-Ata",
        "latitude": 42.72665,
        "longitude": 75.07444
    },
    {
        "name": "Ak-Suu",
        "latitude": 42.49948,
        "longitude": 78.52702
    },
    {
        "name": "Balykchy",
        "latitude": 42.46017,
        "longitude": 76.18709
    },
    {
        "name": "Cholpon-Ata",
        "latitude": 42.64944,
        "longitude": 77.08225
    },
    {
        "name": "Kadzhi-Say",
        "latitude": 42.14107,
        "longitude": 77.17848
    },
    {
        "name": "Karakol",
        "latitude": 42.49068,
        "longitude": 78.39362
    },
    {
        "name": "Kyzyl-Suu",
        "latitude": 42.34211,
        "longitude": 78.00644
    },
    {
        "name": "Tyup",
        "latitude": 42.7276,
        "longitude": 78.36476
    },
    {
        "name": "Ala-Buka",
        "latitude": 41.40806,
        "longitude": 71.46306
    },
    {
        "name": "Bazar-Korgon",
        "latitude": 41.0376,
        "longitude": 72.74586
    },
    {
        "name": "Jalal-Abad",
        "latitude": 40.93333,
        "longitude": 73.0
    },
    {
        "name": "Kazarman",
        "latitude": 41.405,
        "longitude": 74.037
    },
    {
        "name": "Kerben",
        "latitude": 41.49399,
        "longitude": 71.75826
    },
    {
        "name": "Kochkor-Ata",
        "latitude": 41.03709,
        "longitude": 72.4832
    },
    {
        "name": "Suzak",
        "latitude": 40.8982,
        "longitude": 72.90481
    },
    {
        "name": "Tash-Kumyr",
        "latitude": 41.34612,
        "longitude": 72.21707
    },
    {
        "name": "Toktogul",
        "latitude": 41.87442,
        "longitude": 72.94192
    },
    {
        "name": "Toktogul District",
        "latitude": 41.75,
        "longitude": 73.0
    },
    {
        "name": "At-Bashi",
        "latitude": 41.16951,
        "longitude": 75.80099
    },
    {
        "name": "Jumgal",
        "latitude": 41.94924,
        "longitude": 74.40566
    },
    {
        "name": "Naryn",
        "latitude": 41.42866,
        "longitude": 75.99111
    },
    {
        "name": "Chong-Alay District",
        "latitude": 39.47614,
        "longitude": 72.33017
    },
    {
        "name": "Daroot-Korgon",
        "latitude": 39.55274,
        "longitude": 72.20518
    },
    {
        "name": "Kara Kulja",
        "latitude": 40.64095,
        "longitude": 73.49411
    },
    {
        "name": "Kara Suu",
        "latitude": 40.7046,
        "longitude": 72.86666
    },
    {
        "name": "Kyzyl-Eshme",
        "latitude": 39.56559,
        "longitude": 72.27153
    },
    {
        "name": "Nookat",
        "latitude": 40.26597,
        "longitude": 72.61834
    },
    {
        "name": "Osh",
        "latitude": 40.52828,
        "longitude": 72.7985
    },
    {
        "name": "Uzgen",
        "latitude": 40.76994,
        "longitude": 73.30068
    },
    {
        "name": "Uzgen District",
        "latitude": 40.55,
        "longitude": 73.3
    },
    {
        "name": "Kara-Buurinskiy Rayon",
        "latitude": 42.5,
        "longitude": 71.41667
    },
    {
        "name": "Talas",
        "latitude": 42.52277,
        "longitude": 72.24274
    },
    {
        "name": "Talasskiy Rayon",
        "latitude": 42.18647,
        "longitude": 72.69408
    }
]