[
    {
        "name": "Аль Ахмади",
        "latitude": 29.07694,
        "longitude": 48.08389
    },
    {
        "name": "Аль-Фахиль",
        "latitude": 29.0825,
        "longitude": 48.13028
    },
    {
        "name": "Аль Финтас",
        "latitude": 29.17389,
        "longitude": 48.12111
    },
    {
        "name": "Аль-Махбула",
        "latitude": 29.145,
        "longitude": 48.13028
    },
    {
        "name": "Аль Манкаф",
        "latitude": 29.09611,
        "longitude": 48.13278
    },
    {
        "name": "Аль-Вафра",
        "latitude": 28.63917,
        "longitude": 47.93056
    },
    {
        "name": "Ар-Рикка",
        "latitude": 29.14583,
        "longitude": 48.09472
    },
    {
        "name": "Аль-Фарвания",
        "latitude": 29.2775,
        "longitude": 47.95861
    },
    {
        "name": "Джануб, как Сурра",
        "latitude": 29.26917,
        "longitude": 47.97806
    },
    {
        "name": "Аль Джахра",
        "latitude": 29.3375,
        "longitude": 47.65806
    },
    {
        "name": "Ад Дасма",
        "latitude": 29.365,
        "longitude": 48.00139
    },
    {
        "name": "Ар-Рабия",
        "latitude": 29.295,
        "longitude": 47.93306
    },
    {
        "name": "Аш Шамия",
        "latitude": 29.34722,
        "longitude": 47.96167
    },
    {
        "name": "Заур",
        "latitude": 29.4425,
        "longitude": 48.27472
    },
    {
        "name": "Кувейт",
        "latitude": 29.36972,
        "longitude": 47.97833
    },
    {
        "name": "Ар Румайтия",
        "latitude": 29.31167,
        "longitude": 48.07417
    },
    {
        "name": "Ас Салимия",
        "latitude": 29.33389,
        "longitude": 48.07611
    },
    {
        "name": "Баян",
        "latitude": 29.3032,
        "longitude": 48.04881
    },
    {
        "name": "Хавалли",
        "latitude": 29.33278,
        "longitude": 48.02861
    },
    {
        "name": "Сальва",
        "latitude": 29.29583,
        "longitude": 48.07861
    },
    {
        "name": "Абу Аль Хасания",
        "latitude": 29.19076,
        "longitude": 48.11355
    },
    {
        "name": "Абу Фатира",
        "latitude": 29.19746,
        "longitude": 48.10278
    },
    {
        "name": "Аль Фунайцис",
        "latitude": 29.22528,
        "longitude": 48.10167
    },
    {
        "name": "Аль-Масаэль",
        "latitude": 29.2393,
        "longitude": 48.08862
    },
    {
        "name": "Шабах как Салим",
        "latitude": 29.25722,
        "longitude": 48.05722
    }
]