[
    {
        "name": "Al A\u1e29mad\u012b",
        "latitude": 29.07694,
        "longitude": 48.08389
    },
    {
        "name": "Al Fa\u1e29\u0101\u1e29\u012bl",
        "latitude": 29.0825,
        "longitude": 48.13028
    },
    {
        "name": "Al Fin\u0163\u0101s",
        "latitude": 29.17389,
        "longitude": 48.12111
    },
    {
        "name": "Al Mahb\u016blah",
        "latitude": 29.145,
        "longitude": 48.13028
    },
    {
        "name": "Al Manqaf",
        "latitude": 29.09611,
        "longitude": 48.13278
    },
    {
        "name": "Al Wafrah",
        "latitude": 28.63917,
        "longitude": 47.93056
    },
    {
        "name": "Ar Riqqah",
        "latitude": 29.14583,
        "longitude": 48.09472
    },
    {
        "name": "Al Farw\u0101n\u012byah",
        "latitude": 29.2775,
        "longitude": 47.95861
    },
    {
        "name": "Jan\u016bb as Surrah",
        "latitude": 29.26917,
        "longitude": 47.97806
    },
    {
        "name": "Al Jahr\u0101\u2019",
        "latitude": 29.3375,
        "longitude": 47.65806
    },
    {
        "name": "Ad Dasmah",
        "latitude": 29.365,
        "longitude": 48.00139
    },
    {
        "name": "Ar R\u0101biyah",
        "latitude": 29.295,
        "longitude": 47.93306
    },
    {
        "name": "Ash Sh\u0101m\u012byah",
        "latitude": 29.34722,
        "longitude": 47.96167
    },
    {
        "name": "Az Zawr",
        "latitude": 29.4425,
        "longitude": 48.27472
    },
    {
        "name": "Kuwait City",
        "latitude": 29.36972,
        "longitude": 47.97833
    },
    {
        "name": "Ar Rumayth\u012byah",
        "latitude": 29.31167,
        "longitude": 48.07417
    },
    {
        "name": "As S\u0101lim\u012byah",
        "latitude": 29.33389,
        "longitude": 48.07611
    },
    {
        "name": "Bay\u0101n",
        "latitude": 29.3032,
        "longitude": 48.04881
    },
    {
        "name": "\u1e28awall\u012b",
        "latitude": 29.33278,
        "longitude": 48.02861
    },
    {
        "name": "Salw\u00e1",
        "latitude": 29.29583,
        "longitude": 48.07861
    },
    {
        "name": "Abu Al Hasaniya",
        "latitude": 29.19076,
        "longitude": 48.11355
    },
    {
        "name": "Abu Fatira",
        "latitude": 29.19746,
        "longitude": 48.10278
    },
    {
        "name": "Al Funay\u0163\u012bs",
        "latitude": 29.22528,
        "longitude": 48.10167
    },
    {
        "name": "Al-Masayel",
        "latitude": 29.2393,
        "longitude": 48.08862
    },
    {
        "name": "\u015eab\u0101\u1e29 as S\u0101lim",
        "latitude": 29.25722,
        "longitude": 48.05722
    }
]