[
    {
        "name": "В Теятеяне",
        "latitude": -29.14719,
        "longitude": 27.74895
    },
    {
        "name": "Бута-Бута",
        "latitude": -28.76659,
        "longitude": 28.24937
    },
    {
        "name": "Ребро",
        "latitude": -28.87185,
        "longitude": 28.04501
    },
    {
        "name": "Синий",
        "latitude": -28.8866,
        "longitude": 27.89915
    },
    {
        "name": "На дорогах",
        "latitude": -29.82299,
        "longitude": 27.23744
    },
    {
        "name": "Масеру",
        "latitude": -29.31667,
        "longitude": 27.48333
    },
    {
        "name": "Время",
        "latitude": -29.61667,
        "longitude": 27.76667
    },
    {
        "name": "Уголок Мохале",
        "latitude": -30.15137,
        "longitude": 27.47691
    },
    {
        "name": "В суде",
        "latitude": -29.28939,
        "longitude": 29.06751
    },
    {
        "name": "Нек Грязного",
        "latitude": -30.11537,
        "longitude": 28.68936
    },
    {
        "name": "Цитирование",
        "latitude": -30.40001,
        "longitude": 27.70027
    },
    {
        "name": "Гора Цека",
        "latitude": -29.52204,
        "longitude": 28.6084
    }
]