[
    {
        "name": "Башараж",
        "latitude": 49.56727,
        "longitude": 5.9073
    },
    {
        "name": "Бридель",
        "latitude": 49.65579,
        "longitude": 6.07999
    },
    {
        "name": "Капеллен",
        "latitude": 49.645,
        "longitude": 5.99083
    },
    {
        "name": "Милосердие",
        "latitude": 49.59667,
        "longitude": 5.87583
    },
    {
        "name": "Диппах",
        "latitude": 49.58701,
        "longitude": 5.9833
    },
    {
        "name": "Требования",
        "latitude": 49.68556,
        "longitude": 5.87861
    },
    {
        "name": "Гарнир",
        "latitude": 49.61667,
        "longitude": 5.9525
    },
    {
        "name": "уход за кожей",
        "latitude": 49.57499,
        "longitude": 5.9097
    },
    {
        "name": "Хобшайд",
        "latitude": 49.68861,
        "longitude": 5.91472
    },
    {
        "name": "Кердженг",
        "latitude": 49.58311,
        "longitude": 5.89892
    },
    {
        "name": "Горло",
        "latitude": 49.66833,
        "longitude": 6.03583
    },
    {
        "name": "Кёрих",
        "latitude": 49.67,
        "longitude": 5.95
    },
    {
        "name": "Копсталь",
        "latitude": 49.66444,
        "longitude": 6.07306
    },
    {
        "name": "мать",
        "latitude": 49.6275,
        "longitude": 6.02333
    },
    {
        "name": "Шувейлер",
        "latitude": 49.5825,
        "longitude": 5.95639
    },
    {
        "name": "Септфонтен",
        "latitude": 49.70111,
        "longitude": 5.96722
    },
    {
        "name": "Каменный Форт",
        "latitude": 49.66139,
        "longitude": 5.91917
    },
    {
        "name": "Клерво",
        "latitude": 50.05472,
        "longitude": 6.03139
    },
    {
        "name": "Хосен",
        "latitude": 50.01218,
        "longitude": 6.09089
    },
    {
        "name": "Парк Хозинген",
        "latitude": 49.99744,
        "longitude": 6.09067
    },
    {
        "name": "Труасвьерж",
        "latitude": 50.12111,
        "longitude": 6.00028
    },
    {
        "name": "Вайсвампах",
        "latitude": 50.13722,
        "longitude": 6.075
    },
    {
        "name": "Винкрендж",
        "latitude": 50.05333,
        "longitude": 5.91917
    },
    {
        "name": "Беттендорф",
        "latitude": 49.87667,
        "longitude": 6.21806
    },
    {
        "name": "Буршайд",
        "latitude": 49.90862,
        "longitude": 6.0675
    },
    {
        "name": "Коммуна Валле-де-л'Эрнц",
        "latitude": 49.82149,
        "longitude": 6.21746
    },
    {
        "name": "Дикирх",
        "latitude": 49.86778,
        "longitude": 6.15583
    },
    {
        "name": "Эрпельданж",
        "latitude": 49.86472,
        "longitude": 6.11472
    },
    {
        "name": "Эттельбрюк",
        "latitude": 49.8475,
        "longitude": 6.10417
    },
    {
        "name": "Грязный",
        "latitude": 49.85,
        "longitude": 6.01667
    },
    {
        "name": "Медернах",
        "latitude": 49.80955,
        "longitude": 6.21521
    },
    {
        "name": "Мерциг",
        "latitude": 49.83389,
        "longitude": 6.0075
    },
    {
        "name": "Нидерфойлен",
        "latitude": 49.85556,
        "longitude": 6.04722
    },
    {
        "name": "Райсдорф",
        "latitude": 49.86861,
        "longitude": 6.26778
    },
    {
        "name": "ножницы",
        "latitude": 49.83056,
        "longitude": 6.09861
    },
    {
        "name": "Проснуться",
        "latitude": 49.85918,
        "longitude": 6.08415
    },
    {
        "name": "Бофорт",
        "latitude": 49.83583,
        "longitude": 6.29167
    },
    {
        "name": "Бек",
        "latitude": 49.7526,
        "longitude": 6.36379
    },
    {
        "name": "Бердорф",
        "latitude": 49.82051,
        "longitude": 6.34945
    },
    {
        "name": "Консдорф",
        "latitude": 49.78018,
        "longitude": 6.3395
    },
    {
        "name": "Эхтернах",
        "latitude": 49.81212,
        "longitude": 6.41846
    },
    {
        "name": "Момпах",
        "latitude": 49.74611,
        "longitude": 6.465
    },
    {
        "name": "Роспорт",
        "latitude": 49.8047,
        "longitude": 6.50532
    },
    {
        "name": "Лес дешево",
        "latitude": 49.79636,
        "longitude": 6.28431
    },
    {
        "name": "Аспельт",
        "latitude": 49.52278,
        "longitude": 6.22472
    },
    {
        "name": "Бельво",
        "latitude": 49.51014,
        "longitude": 5.92414
    },
    {
        "name": "Бергем",
        "latitude": 49.525,
        "longitude": 6.04222
    },
    {
        "name": "Беттембург",
        "latitude": 49.51861,
        "longitude": 6.10278
    },
    {
        "name": "Краутем",
        "latitude": 49.53556,
        "longitude": 6.14694
    },
    {
        "name": "различия",
        "latitude": 49.52417,
        "longitude": 5.89139
    },
    {
        "name": "Дюделанж",
        "latitude": 49.48056,
        "longitude": 6.0875
    },
    {
        "name": "Аш-сюр-Альзетт",
        "latitude": 49.49583,
        "longitude": 5.98056
    },
    {
        "name": "Фризанс",
        "latitude": 49.51616,
        "longitude": 6.18858
    },
    {
        "name": "Кайл",
        "latitude": 49.48917,
        "longitude": 6.03972
    },
    {
        "name": "Ламаделейн",
        "latitude": 49.54639,
        "longitude": 5.85639
    },
    {
        "name": "Леделанж",
        "latitude": 49.56833,
        "longitude": 6.06528
    },
    {
        "name": "Мондерканж",
        "latitude": 49.53306,
        "longitude": 5.98833
    },
    {
        "name": "Нидеркорн",
        "latitude": 49.53611,
        "longitude": 5.89306
    },
    {
        "name": "Оберкорн",
        "latitude": 49.51361,
        "longitude": 5.89611
    },
    {
        "name": "Петанк",
        "latitude": 49.55833,
        "longitude": 5.88056
    },
    {
        "name": "Понпьер",
        "latitude": 49.53639,
        "longitude": 6.02944
    },
    {
        "name": "Реканж-сюр-Месс",
        "latitude": 49.5625,
        "longitude": 6.00889
    },
    {
        "name": "Роданге",
        "latitude": 49.54639,
        "longitude": 5.84083
    },
    {
        "name": "Розер",
        "latitude": 49.53721,
        "longitude": 6.14629
    },
    {
        "name": "Рюмеланж",
        "latitude": 49.45964,
        "longitude": 6.03089
    },
    {
        "name": "Санем",
        "latitude": 49.54806,
        "longitude": 5.92889
    },
    {
        "name": "длина корабля",
        "latitude": 49.50639,
        "longitude": 6.01278
    },
    {
        "name": "Сольная работа",
        "latitude": 49.52148,
        "longitude": 5.93781
    },
    {
        "name": "Тетанж",
        "latitude": 49.47583,
        "longitude": 6.04222
    },
    {
        "name": "Бецдорф",
        "latitude": 49.68333,
        "longitude": 6.35
    },
    {
        "name": "Бобр",
        "latitude": 49.70605,
        "longitude": 6.37201
    },
    {
        "name": "Флаксвейлер",
        "latitude": 49.66602,
        "longitude": 6.34321
    },
    {
        "name": "Гондеранж",
        "latitude": 49.69537,
        "longitude": 6.24577
    },
    {
        "name": "Гревенмахер",
        "latitude": 49.67751,
        "longitude": 6.44022
    },
    {
        "name": "Юнглинстер",
        "latitude": 49.70722,
        "longitude": 6.25306
    },
    {
        "name": "Мантернах",
        "latitude": 49.70278,
        "longitude": 6.42639
    },
    {
        "name": "Мерт",
        "latitude": 49.70261,
        "longitude": 6.47966
    },
    {
        "name": "Вода дешевая",
        "latitude": 49.71534,
        "longitude": 6.49861
    },
    {
        "name": "Укус червяка",
        "latitude": 49.61114,
        "longitude": 6.40546
    },
    {
        "name": "Альцинген",
        "latitude": 49.565,
        "longitude": 6.16361
    },
    {
        "name": "Берельданж",
        "latitude": 49.65507,
        "longitude": 6.11874
    },
    {
        "name": "Бертранж",
        "latitude": 49.61111,
        "longitude": 6.05
    },
    {
        "name": "Продолжение",
        "latitude": 49.58194,
        "longitude": 6.22667
    },
    {
        "name": "Фентанж",
        "latitude": 49.56278,
        "longitude": 6.15389
    },
    {
        "name": "Хайсдорф",
        "latitude": 49.67207,
        "longitude": 6.14202
    },
    {
        "name": "Хельмсанге",
        "latitude": 49.65278,
        "longitude": 6.14139
    },
    {
        "name": "Эсперанж",
        "latitude": 49.56806,
        "longitude": 6.15139
    },
    {
        "name": "Ици",
        "latitude": 49.58769,
        "longitude": 6.17065
    },
    {
        "name": "Кирхберг",
        "latitude": 49.62389,
        "longitude": 6.14944
    },
    {
        "name": "Люксембург",
        "latitude": 49.61167,
        "longitude": 6.13
    },
    {
        "name": "Маутфорт",
        "latitude": 49.58528,
        "longitude": 6.25556
    },
    {
        "name": "Мюллендорф",
        "latitude": 49.68028,
        "longitude": 6.13
    },
    {
        "name": "Нидеранвен",
        "latitude": 49.65196,
        "longitude": 6.26199
    },
    {
        "name": "Олм",
        "latitude": 49.65722,
        "longitude": 6.00028
    },
    {
        "name": "Сандвейлер",
        "latitude": 49.61471,
        "longitude": 6.22221
    },
    {
        "name": "Шрассиг",
        "latitude": 49.61014,
        "longitude": 6.25903
    },
    {
        "name": "диапазон щебня",
        "latitude": 49.62056,
        "longitude": 6.26861
    },
    {
        "name": "Штейнзель",
        "latitude": 49.67694,
        "longitude": 6.12389
    },
    {
        "name": "улицы",
        "latitude": 49.62056,
        "longitude": 6.07333
    },
    {
        "name": "Вальферданж",
        "latitude": 49.66321,
        "longitude": 6.13224
    },
    {
        "name": "Гамлет-ла-Тур",
        "latitude": 49.54083,
        "longitude": 6.20083
    },
    {
        "name": "кусать",
        "latitude": 49.78733,
        "longitude": 6.0654
    },
    {
        "name": "Боеванж-сюр-Аттер",
        "latitude": 49.77256,
        "longitude": 6.01532
    },
    {
        "name": "Кольмар",
        "latitude": 49.81028,
        "longitude": 6.09722
    },
    {
        "name": "Фишбах",
        "latitude": 49.746,
        "longitude": 6.18702
    },
    {
        "name": "сборы",
        "latitude": 49.76907,
        "longitude": 6.24049
    },
    {
        "name": "Ларошетт",
        "latitude": 49.78362,
        "longitude": 6.21891
    },
    {
        "name": "Линтген",
        "latitude": 49.72243,
        "longitude": 6.13016
    },
    {
        "name": "Лоренцвайлер",
        "latitude": 49.70131,
        "longitude": 6.14234
    },
    {
        "name": "Дерьмо",
        "latitude": 49.74889,
        "longitude": 6.10611
    },
    {
        "name": "Числа",
        "latitude": 49.78694,
        "longitude": 6.17472
    },
    {
        "name": "Роллинг",
        "latitude": 49.74167,
        "longitude": 6.11444
    },
    {
        "name": "Тунтанж",
        "latitude": 49.71778,
        "longitude": 6.01028
    },
    {
        "name": "Беккерих",
        "latitude": 49.73056,
        "longitude": 5.88722
    },
    {
        "name": "Беттборн",
        "latitude": 49.79528,
        "longitude": 5.94111
    },
    {
        "name": "Муниципалитет Прейзердал",
        "latitude": 49.80114,
        "longitude": 5.93299
    },
    {
        "name": "Элл",
        "latitude": 49.76389,
        "longitude": 5.85722
    },
    {
        "name": "Гросбус",
        "latitude": 49.82778,
        "longitude": 5.96722
    },
    {
        "name": "Рамбруш",
        "latitude": 49.83083,
        "longitude": 5.845
    },
    {
        "name": "Реданж-сюр-Аттер",
        "latitude": 49.76437,
        "longitude": 5.88997
    },
    {
        "name": "Столб",
        "latitude": 49.72722,
        "longitude": 5.98639
    },
    {
        "name": "Применение",
        "latitude": 49.76972,
        "longitude": 5.98222
    },
    {
        "name": "Вихт",
        "latitude": 49.80306,
        "longitude": 6.0
    },
    {
        "name": "Валь",
        "latitude": 49.83667,
        "longitude": 5.90639
    },
    {
        "name": "Бус",
        "latitude": 49.55389,
        "longitude": 6.32917
    },
    {
        "name": "Дальхейм",
        "latitude": 49.54083,
        "longitude": 6.25972
    },
    {
        "name": "Леннинген",
        "latitude": 49.59861,
        "longitude": 6.36806
    },
    {
        "name": "Мондорф-ле-Бен",
        "latitude": 49.505,
        "longitude": 6.28111
    },
    {
        "name": "Ремих",
        "latitude": 49.545,
        "longitude": 6.36694
    },
    {
        "name": "Шенген",
        "latitude": 49.47,
        "longitude": 6.362
    },
    {
        "name": "Штадтбредимус",
        "latitude": 49.56278,
        "longitude": 6.36444
    },
    {
        "name": "Вальдбредимус",
        "latitude": 49.55676,
        "longitude": 6.28789
    },
    {
        "name": "Путчид",
        "latitude": 49.96083,
        "longitude": 6.14306
    },
    {
        "name": "Слушать",
        "latitude": 49.8975,
        "longitude": 6.18333
    },
    {
        "name": "Мясо",
        "latitude": 49.935,
        "longitude": 6.20889
    },
    {
        "name": "Бавинь",
        "latitude": 49.92194,
        "longitude": 5.84944
    },
    {
        "name": "Булаида",
        "latitude": 49.88778,
        "longitude": 5.81639
    },
    {
        "name": "Эш-сюр-Сюр",
        "latitude": 49.91139,
        "longitude": 5.93639
    },
    {
        "name": "Гёсдорф",
        "latitude": 49.92131,
        "longitude": 5.96601
    },
    {
        "name": "Вишневая цедра",
        "latitude": 49.97835,
        "longitude": 6.0076
    },
    {
        "name": "Озеро Верхняя Сюр",
        "latitude": 49.91667,
        "longitude": 5.83333
    },
    {
        "name": "Вильц",
        "latitude": 49.96547,
        "longitude": 5.9339
    },
    {
        "name": "Вильвервильц",
        "latitude": 49.98889,
        "longitude": 5.99917
    },
    {
        "name": "Уинслер",
        "latitude": 49.96778,
        "longitude": 5.89028
    }
]