[
    {
        "name": "Передать его",
        "latitude": -18.81667,
        "longitude": 49.06667
    },
    {
        "name": "Андоворанто",
        "latitude": -18.95443,
        "longitude": 49.1094
    },
    {
        "name": "рекомендуемые",
        "latitude": -19.9,
        "longitude": 48.8
    },
    {
        "name": "Оживленный",
        "latitude": -17.68475,
        "longitude": 49.50869
    },
    {
        "name": "Мароломбо",
        "latitude": -20.05,
        "longitude": 48.11667
    },
    {
        "name": "Тоамасина",
        "latitude": -18.1492,
        "longitude": 49.40234
    },
    {
        "name": "Томас I",
        "latitude": -18.13863,
        "longitude": 49.39203
    },
    {
        "name": "Тоамасина II",
        "latitude": -17.94053,
        "longitude": 49.14608
    },
    {
        "name": "Его деревня",
        "latitude": -17.35,
        "longitude": 49.03333
    }
]