[
    {
        "name": "Цецерлег",
        "latitude": 47.475,
        "longitude": 101.45417
    },
    {
        "name": "Алтай",
        "latitude": 48.29359,
        "longitude": 89.51488
    },
    {
        "name": "Олгий",
        "latitude": 48.96833,
        "longitude": 89.9625
    },
    {
        "name": "Цэнгель",
        "latitude": 48.94314,
        "longitude": 89.14358
    },
    {
        "name": "Баянхонгор",
        "latitude": 46.19444,
        "longitude": 100.71806
    },
    {
        "name": "Это было",
        "latitude": 48.8125,
        "longitude": 103.53472
    },
    {
        "name": "Дархан",
        "latitude": 49.48667,
        "longitude": 105.92278
    },
    {
        "name": "Революции",
        "latitude": 48.07257,
        "longitude": 114.53264
    },
    {
        "name": "Эренцав",
        "latitude": 49.8807,
        "longitude": 115.72526
    },
    {
        "name": "Мандалгови",
        "latitude": 45.7625,
        "longitude": 106.27083
    },
    {
        "name": "Алтай",
        "latitude": 46.37222,
        "longitude": 96.25833
    },
    {
        "name": "Хор",
        "latitude": 46.36111,
        "longitude": 108.36111
    },
    {
        "name": "Втягивание",
        "latitude": 47.31944,
        "longitude": 110.65556
    },
    {
        "name": "Ховд",
        "latitude": 48.00556,
        "longitude": 91.64194
    },
    {
        "name": "Большинство",
        "latitude": 46.67712,
        "longitude": 92.78521
    },
    {
        "name": "Молодость",
        "latitude": 46.04786,
        "longitude": 92.02612
    },
    {
        "name": "Хань",
        "latitude": 51.50265,
        "longitude": 100.66395
    },
    {
        "name": "Ожог носа",
        "latitude": 49.63417,
        "longitude": 100.1625
    },
    {
        "name": "Цэнгель",
        "latitude": 49.47833,
        "longitude": 100.88944
    },
    {
        "name": "Удачливый",
        "latitude": 51.50725,
        "longitude": 100.66257
    },
    {
        "name": "Даландзадгад",
        "latitude": 43.57083,
        "longitude": 104.425
    },
    {
        "name": "Поздравления",
        "latitude": 43.77345,
        "longitude": 104.47998
    },
    {
        "name": "Номгон Сумма",
        "latitude": 42.41462,
        "longitude": 105.0564
    },
    {
        "name": "Эрдэнэт",
        "latitude": 49.03333,
        "longitude": 104.08333
    },
    {
        "name": "Арвайхер",
        "latitude": 46.26389,
        "longitude": 102.775
    },
    {
        "name": "я испугался",
        "latitude": 47.19753,
        "longitude": 102.82379
    },
    {
        "name": "Голова",
        "latitude": 44.67024,
        "longitude": 102.17491
    },
    {
        "name": "Хархорин",
        "latitude": 47.19245,
        "longitude": 102.81349
    },
    {
        "name": "Нарынтел",
        "latitude": 45.9595,
        "longitude": 101.45977
    },
    {
        "name": "Дзуюнхараа",
        "latitude": 48.85229,
        "longitude": 106.45786
    },
    {
        "name": "Сыхэ-Батор",
        "latitude": 50.23139,
        "longitude": 106.20778
    },
    {
        "name": "Тренинг-Урт",
        "latitude": 46.68056,
        "longitude": 113.27917
    },
    {
        "name": "Дзуунмод",
        "latitude": 47.70694,
        "longitude": 106.95278
    },
    {
        "name": "Монгонморит",
        "latitude": 48.19504,
        "longitude": 108.48295
    },
    {
        "name": "Идет дождь",
        "latitude": 47.33333,
        "longitude": 104.5
    },
    {
        "name": "Сороконожка",
        "latitude": 47.70693,
        "longitude": 106.95276
    },
    {
        "name": "Улангом",
        "latitude": 49.98111,
        "longitude": 92.06667
    },
    {
        "name": "Улиастай",
        "latitude": 47.74167,
        "longitude": 96.84444
    }
]