[
    {
        "name": "Атар",
        "latitude": 20.5177,
        "longitude": -13.04857
    },
    {
        "name": "Азуги",
        "latitude": 20.56764,
        "longitude": -13.11191
    },
    {
        "name": "Чингуетти",
        "latitude": 20.463,
        "longitude": -12.362
    },
    {
        "name": "Хар-эль-Хали",
        "latitude": 20.93333333,
        "longitude": -11.61666667
    },
    {
        "name": "кора шерсти",
        "latitude": 16.64039,
        "longitude": -12.49849
    },
    {
        "name": "Киффа",
        "latitude": 16.62073,
        "longitude": -11.40208
    },
    {
        "name": "'Эльб-эль-Джмель",
        "latitude": 17.0105,
        "longitude": -13.97102
    },
    {
        "name": "я выбираю",
        "latitude": 17.05314,
        "longitude": -13.91312
    },
    {
        "name": "Бофаль",
        "latitude": 16.41666667,
        "longitude": -13.8
    },
    {
        "name": "Извините, немного",
        "latitude": 16.95416667,
        "longitude": -13.37916667
    },
    {
        "name": "Измученный",
        "latitude": 20.85333333,
        "longitude": -17.0325
    },
    {
        "name": "Юик",
        "latitude": 19.84944444,
        "longitude": -16.33083333
    },
    {
        "name": "Нуадибу",
        "latitude": 20.94188,
        "longitude": -17.03842
    },
    {
        "name": "Каеди",
        "latitude": 16.15027,
        "longitude": -13.5037
    },
    {
        "name": "Селибаби",
        "latitude": 15.15846,
        "longitude": -12.1843
    },
    {
        "name": "Диада",
        "latitude": 16.23333333,
        "longitude": -7.41666667
    },
    {
        "name": "Катауан",
        "latitude": 16.06888889,
        "longitude": -6.49888889
    },
    {
        "name": "Тупой",
        "latitude": 16.61702,
        "longitude": -7.25649
    },
    {
        "name": "Тимбедра",
        "latitude": 16.24472222,
        "longitude": -8.1675
    },
    {
        "name": "Айон",
        "latitude": 16.6614,
        "longitude": -9.6149
    },
    {
        "name": "Аюн эль Атроус",
        "latitude": 16.66666667,
        "longitude": -9.61666667
    },
    {
        "name": "Тогба",
        "latitude": 17.4,
        "longitude": -10.36666667
    },
    {
        "name": "Акджоут",
        "latitude": 19.74657,
        "longitude": -14.38531
    },
    {
        "name": "Дар-Наим",
        "latitude": 18.03333333,
        "longitude": -15.96666667
    },
    {
        "name": "Подготовка",
        "latitude": 18.1289572,
        "longitude": -15.9377834
    },
    {
        "name": "Всегда",
        "latitude": 18.07169,
        "longitude": -15.90311
    },
    {
        "name": "Ксар",
        "latitude": 18.10222222,
        "longitude": -15.955
    },
    {
        "name": "Себха",
        "latitude": 18.07555556,
        "longitude": -16.00194444
    },
    {
        "name": "Тевраг-Который",
        "latitude": 18.11011,
        "longitude": -15.99931
    },
    {
        "name": "Арафат",
        "latitude": 18.04639,
        "longitude": -15.97194
    },
    {
        "name": "Рияд",
        "latitude": 18.10222222,
        "longitude": -15.955
    },
    {
        "name": "Айн Бен Тили",
        "latitude": 25.99444444,
        "longitude": -9.55333333
    },
    {
        "name": "До края",
        "latitude": 25.37194444,
        "longitude": -5.78666667
    },
    {
        "name": "Фредерик",
        "latitude": 22.67777778,
        "longitude": -12.7075
    },
    {
        "name": "Зуэрат",
        "latitude": 22.73444444,
        "longitude": -12.4725
    },
    {
        "name": "Зуэрат",
        "latitude": 22.73542,
        "longitude": -12.47134
    },
    {
        "name": "Граница",
        "latitude": 16.75,
        "longitude": -14.83333333
    },
    {
        "name": "Россо",
        "latitude": 16.51378,
        "longitude": -15.80503
    },
    {
        "name": "давление",
        "latitude": 16.60175,
        "longitude": -15.34866
    }
]