[
    {
        "name": "Хитадху",
        "latitude": -0.6,
        "longitude": 73.08333
    },
    {
        "name": "Медху",
        "latitude": -0.58333,
        "longitude": 73.23333
    },
    {
        "name": "Кудахувадху",
        "latitude": 2.67075,
        "longitude": 72.89437
    },
    {
        "name": "Виджилили",
        "latitude": 0.75906,
        "longitude": 73.43296
    },
    {
        "name": "Тинаду",
        "latitude": 0.5306,
        "longitude": 72.99969
    },
    {
        "name": "Фувахмула",
        "latitude": -0.29878,
        "longitude": 73.42403
    },
    {
        "name": "Дидду",
        "latitude": 6.88744,
        "longitude": 73.11402
    },
    {
        "name": "Чтобы ускорить это",
        "latitude": 6.62207,
        "longitude": 73.06998
    },
    {
        "name": "Гурайдо",
        "latitude": 3.90045,
        "longitude": 73.46623
    },
    {
        "name": "Хулумела",
        "latitude": 4.21169,
        "longitude": 73.54008
    },
    {
        "name": "Маафуши",
        "latitude": 3.94231,
        "longitude": 73.4907
    },
    {
        "name": "Мужской",
        "latitude": 4.17521,
        "longitude": 73.50916
    },
    {
        "name": "Телефон",
        "latitude": 1.83243,
        "longitude": 73.50257
    },
    {
        "name": "Найфару",
        "latitude": 5.44438,
        "longitude": 73.36571
    },
    {
        "name": "Снова",
        "latitude": 2.91667,
        "longitude": 73.56667
    },
    {
        "name": "Манаду",
        "latitude": 5.76687,
        "longitude": 73.4136
    },
    {
        "name": "Угофаару",
        "latitude": 5.66812,
        "longitude": 73.03017
    },
    {
        "name": "Фунаду",
        "latitude": 6.15091,
        "longitude": 73.29013
    },
    {
        "name": "Махибаду",
        "latitude": 3.75713,
        "longitude": 72.96893
    },
    {
        "name": "Вейманду",
        "latitude": 2.18772,
        "longitude": 73.09556
    },
    {
        "name": "Фелиду",
        "latitude": 3.47182,
        "longitude": 73.54699
    }
]