[
    {
        "name": "Lifou",
        "latitude": -20.9667,
        "longitude": 167.2333
    },
    {
        "name": "Mar\u00e9",
        "latitude": -21.5167,
        "longitude": 167.9833
    },
    {
        "name": "Houa\u00eflou",
        "latitude": -21.2909,
        "longitude": 165.6217
    },
    {
        "name": "Kon\u00e9",
        "latitude": -21.059,
        "longitude": 164.8518
    },
    {
        "name": "Poindimi\u00e9",
        "latitude": -20.9496,
        "longitude": 165.3293
    },
    {
        "name": "Bourail",
        "latitude": -21.5701,
        "longitude": 165.4804
    },
    {
        "name": "Dumb\u00e9a",
        "latitude": -22.15,
        "longitude": 166.45
    },
    {
        "name": "Le Mont-Dore",
        "latitude": -22.2157,
        "longitude": 166.4665
    },
    {
        "name": "Noum\u00e9a",
        "latitude": -22.2758,
        "longitude": 166.458
    },
    {
        "name": "Pa\u00efta",
        "latitude": -22.1337,
        "longitude": 166.3505
    }
]