[
    {
        "name": "Папоротник-Хобби",
        "latitude": 56.23333,
        "longitude": 15.11667
    },
    {
        "name": "Хеллевик",
        "latitude": 56.01667,
        "longitude": 14.7
    },
    {
        "name": "хлопот",
        "latitude": 56.11667,
        "longitude": 15.48333
    },
    {
        "name": "ура",
        "latitude": 56.19187,
        "longitude": 15.84115
    },
    {
        "name": "Одинаково высокий",
        "latitude": 56.23333,
        "longitude": 14.51667
    },
    {
        "name": "Вызов",
        "latitude": 56.24841,
        "longitude": 15.28721
    },
    {
        "name": "Карлсхамн",
        "latitude": 56.1706,
        "longitude": 14.86188
    },
    {
        "name": "Карл Великий",
        "latitude": 56.16156,
        "longitude": 15.58661
    },
    {
        "name": "Мьельбю",
        "latitude": 56.05,
        "longitude": 14.68333
    },
    {
        "name": "Муррум",
        "latitude": 56.19281,
        "longitude": 14.74739
    },
    {
        "name": "Неттраби",
        "latitude": 56.2,
        "longitude": 15.51667
    },
    {
        "name": "Олофстрем",
        "latitude": 56.2773,
        "longitude": 14.53402
    },
    {
        "name": "Редебю",
        "latitude": 56.26078,
        "longitude": 15.62143
    },
    {
        "name": "Роннебю",
        "latitude": 56.20999,
        "longitude": 15.27602
    },
    {
        "name": "Сольвесборг",
        "latitude": 56.05205,
        "longitude": 14.57525
    },
    {
        "name": "Стурко",
        "latitude": 56.08333,
        "longitude": 15.7
    },
    {
        "name": "Самый загруженный",
        "latitude": 56.26667,
        "longitude": 14.76667
    },
    {
        "name": "Перч-гора",
        "latitude": 60.15,
        "longitude": 14.8
    },
    {
        "name": "Долина реки",
        "latitude": 61.22774,
        "longitude": 14.03935
    },
    {
        "name": "Авеста",
        "latitude": 60.14274,
        "longitude": 16.16295
    },
    {
        "name": "Вишневый соус",
        "latitude": 60.73726,
        "longitude": 15.45291
    },
    {
        "name": "Бурленге",
        "latitude": 60.4858,
        "longitude": 15.43714
    },
    {
        "name": "Хорошо",
        "latitude": 60.26255,
        "longitude": 16.01034
    },
    {
        "name": "Джурос",
        "latitude": 60.56061,
        "longitude": 15.13281
    },
    {
        "name": "Энбака",
        "latitude": 60.40993,
        "longitude": 15.59575
    },
    {
        "name": "Фалунь",
        "latitude": 60.60357,
        "longitude": 15.62597
    },
    {
        "name": "Ганеф",
        "latitude": 60.59856,
        "longitude": 15.07745
    },
    {
        "name": "Грангесберг",
        "latitude": 60.07465,
        "longitude": 15.00784
    },
    {
        "name": "Греческий резидент",
        "latitude": 60.68751,
        "longitude": 15.48507
    },
    {
        "name": "Вереск",
        "latitude": 60.27973,
        "longitude": 15.98855
    },
    {
        "name": "Роговая долина",
        "latitude": 60.3,
        "longitude": 16.41667
    },
    {
        "name": "Озеро",
        "latitude": 60.67688,
        "longitude": 15.09487
    },
    {
        "name": "Железо",
        "latitude": 60.53333,
        "longitude": 14.36667
    },
    {
        "name": "Крылбо",
        "latitude": 60.13333,
        "longitude": 16.21667
    },
    {
        "name": "Длинная кабина",
        "latitude": 60.45238,
        "longitude": 16.03831
    },
    {
        "name": "Играть в песок",
        "latitude": 60.7303,
        "longitude": 14.99994
    },
    {
        "name": "Людвика",
        "latitude": 60.14959,
        "longitude": 15.18776
    },
    {
        "name": "Малунг",
        "latitude": 60.68329,
        "longitude": 13.71542
    },
    {
        "name": "Мокфьярд",
        "latitude": 60.5,
        "longitude": 14.96667
    },
    {
        "name": "Мора",
        "latitude": 61.00704,
        "longitude": 14.54316
    },
    {
        "name": "Нихаммар",
        "latitude": 60.28333,
        "longitude": 14.96667
    },
    {
        "name": "Орнес",
        "latitude": 60.50944,
        "longitude": 15.54128
    },
    {
        "name": "Орса",
        "latitude": 61.12034,
        "longitude": 14.6155
    },
    {
        "name": "Раттвик",
        "latitude": 60.88632,
        "longitude": 15.11787
    },
    {
        "name": "Сметана",
        "latitude": 60.43333,
        "longitude": 15.5
    },
    {
        "name": "Сиденья",
        "latitude": 60.34778,
        "longitude": 15.75051
    },
    {
        "name": "Сильянснес",
        "latitude": 60.78333,
        "longitude": 14.85
    },
    {
        "name": "Смедби",
        "latitude": 60.7,
        "longitude": 15.05
    },
    {
        "name": "Смедьебакен",
        "latitude": 60.14181,
        "longitude": 15.41416
    },
    {
        "name": "Озеро Мечей",
        "latitude": 60.74022,
        "longitude": 15.90173
    },
    {
        "name": "Вансбро",
        "latitude": 60.50893,
        "longitude": 14.22458
    },
    {
        "name": "Викарбин",
        "latitude": 60.91667,
        "longitude": 15.01667
    },
    {
        "name": "Альфта",
        "latitude": 61.34675,
        "longitude": 16.07499
    },
    {
        "name": "Арбро",
        "latitude": 61.46667,
        "longitude": 16.38333
    },
    {
        "name": "Орсунда",
        "latitude": 60.51644,
        "longitude": 16.73436
    },
    {
        "name": "Горный город",
        "latitude": 60.92931,
        "longitude": 17.04194
    },
    {
        "name": "Бергсьо",
        "latitude": 61.98253,
        "longitude": 17.06368
    },
    {
        "name": "Боллнес",
        "latitude": 61.34817,
        "longitude": 16.39464
    },
    {
        "name": "Совместное проживание",
        "latitude": 61.80104,
        "longitude": 16.55571
    },
    {
        "name": "Эдсбин",
        "latitude": 61.37692,
        "longitude": 15.81747
    },
    {
        "name": "Ферила",
        "latitude": 61.80011,
        "longitude": 15.84422
    },
    {
        "name": "Форсбака",
        "latitude": 60.61667,
        "longitude": 16.88333
    },
    {
        "name": "Гейбл",
        "latitude": 60.67452,
        "longitude": 17.14174
    },
    {
        "name": "Гнарп",
        "latitude": 62.04874,
        "longitude": 17.25858
    },
    {
        "name": "Хедесунда",
        "latitude": 60.4,
        "longitude": 17.0
    },
    {
        "name": "Хофорс",
        "latitude": 60.54573,
        "longitude": 16.28668
    },
    {
        "name": "Худиксвалль",
        "latitude": 61.72744,
        "longitude": 17.10558
    },
    {
        "name": "Иггесунн",
        "latitude": 61.64219,
        "longitude": 17.07477
    },
    {
        "name": "Ярбо",
        "latitude": 60.71667,
        "longitude": 16.6
    },
    {
        "name": "Ярвсё",
        "latitude": 61.71667,
        "longitude": 16.16667
    },
    {
        "name": "Килафорс",
        "latitude": 61.23333,
        "longitude": 16.56667
    },
    {
        "name": "Долина Света",
        "latitude": 61.82883,
        "longitude": 16.09126
    },
    {
        "name": "Свет",
        "latitude": 61.2117,
        "longitude": 17.1279
    },
    {
        "name": "Окельбо",
        "latitude": 60.8912,
        "longitude": 16.71846
    },
    {
        "name": "Сандарна",
        "latitude": 61.25893,
        "longitude": 17.15284
    },
    {
        "name": "Сандвикен",
        "latitude": 60.61667,
        "longitude": 16.76667
    },
    {
        "name": "Седерхамн",
        "latitude": 61.30373,
        "longitude": 17.05921
    },
    {
        "name": "Серферы",
        "latitude": 61.73333,
        "longitude": 16.98333
    },
    {
        "name": "Сторвик",
        "latitude": 60.58333,
        "longitude": 16.53333
    },
    {
        "name": "Вальбо",
        "latitude": 60.65,
        "longitude": 17.03333
    },
    {
        "name": "Готланд",
        "latitude": 57.5,
        "longitude": 18.5
    },
    {
        "name": "Усадьба",
        "latitude": 57.23788,
        "longitude": 18.37443
    },
    {
        "name": "Клинтехамн",
        "latitude": 57.38667,
        "longitude": 18.20371
    },
    {
        "name": "покачиваться",
        "latitude": 57.60452,
        "longitude": 18.25601
    },
    {
        "name": "Висбю",
        "latitude": 57.64089,
        "longitude": 18.29602
    },
    {
        "name": "Олед",
        "latitude": 56.75,
        "longitude": 12.93333
    },
    {
        "name": "Ридж",
        "latitude": 57.35,
        "longitude": 12.11667
    },
    {
        "name": "Буа",
        "latitude": 57.2378,
        "longitude": 12.12187
    },
    {
        "name": "Фалькенберг",
        "latitude": 56.90552,
        "longitude": 12.49118
    },
    {
        "name": "Церковная деревня Фьяро",
        "latitude": 57.45913,
        "longitude": 12.17508
    },
    {
        "name": "Соус для фрилов",
        "latitude": 57.31667,
        "longitude": 12.16667
    },
    {
        "name": "Семенной помет",
        "latitude": 56.68333,
        "longitude": 12.73333
    },
    {
        "name": "Пломбы",
        "latitude": 56.65,
        "longitude": 12.91667
    },
    {
        "name": "Оса",
        "latitude": 56.81667,
        "longitude": 12.73333
    },
    {
        "name": "Гломм",
        "latitude": 56.93333,
        "longitude": 12.35
    },
    {
        "name": "Галлбрандсторп",
        "latitude": 56.7,
        "longitude": 12.73333
    },
    {
        "name": "Хальмстад",
        "latitude": 56.67446,
        "longitude": 12.85676
    },
    {
        "name": "Харплинг",
        "latitude": 56.74491,
        "longitude": 12.72758
    },
    {
        "name": "Хавердал",
        "latitude": 56.72222,
        "longitude": 12.67194
    },
    {
        "name": "Использование полки",
        "latitude": 56.99892,
        "longitude": 13.23958
    },
    {
        "name": "На коленях",
        "latitude": 56.51861,
        "longitude": 13.32423
    },
    {
        "name": "Кунгсбака",
        "latitude": 57.48719,
        "longitude": 12.07612
    },
    {
        "name": "Лахольм",
        "latitude": 56.51207,
        "longitude": 13.04371
    },
    {
        "name": "Меллбистранд",
        "latitude": 56.48561,
        "longitude": 12.93958
    },
    {
        "name": "Мьельбю",
        "latitude": 56.68333,
        "longitude": 12.76667
    },
    {
        "name": "Непродаваемый",
        "latitude": 57.42531,
        "longitude": 12.02903
    },
    {
        "name": "Оскарстрем",
        "latitude": 56.8,
        "longitude": 12.96667
    },
    {
        "name": "Искажение",
        "latitude": 57.50577,
        "longitude": 11.9321
    },
    {
        "name": "Крик",
        "latitude": 56.88333,
        "longitude": 12.56667
    },
    {
        "name": "Стенинге",
        "latitude": 56.769,
        "longitude": 12.63034
    },
    {
        "name": "Торуп",
        "latitude": 56.95663,
        "longitude": 13.07725
    },
    {
        "name": "Режим деревянного листа",
        "latitude": 57.05417,
        "longitude": 12.27899
    },
    {
        "name": "Треннинге",
        "latitude": 56.61667,
        "longitude": 12.93333
    },
    {
        "name": "Два поля",
        "latitude": 57.04147,
        "longitude": 12.3995
    },
    {
        "name": "Валда",
        "latitude": 57.4775,
        "longitude": 12.00139
    },
    {
        "name": "Варберг",
        "latitude": 57.10557,
        "longitude": 12.25078
    },
    {
        "name": "Вестерн Хаген",
        "latitude": 57.42444,
        "longitude": 11.93583
    },
    {
        "name": "Остроумный",
        "latitude": 57.26591,
        "longitude": 12.3322
    },
    {
        "name": "Венге",
        "latitude": 56.55,
        "longitude": 13.06667
    },
    {
        "name": "Андерсторп",
        "latitude": 57.28333,
        "longitude": 13.63333
    },
    {
        "name": "Анеби",
        "latitude": 57.83895,
        "longitude": 14.81016
    },
    {
        "name": "Банкерид",
        "latitude": 57.86021,
        "longitude": 14.124
    },
    {
        "name": "Бодафорс",
        "latitude": 57.5,
        "longitude": 14.7
    },
    {
        "name": "Бор",
        "latitude": 57.11667,
        "longitude": 14.16667
    },
    {
        "name": "Бредарид",
        "latitude": 57.17343,
        "longitude": 13.73789
    },
    {
        "name": "Экенэссйон",
        "latitude": 57.49175,
        "longitude": 15.02226
    },
    {
        "name": "Эксьё",
        "latitude": 57.66643,
        "longitude": 14.97205
    },
    {
        "name": "Форсерум",
        "latitude": 57.7,
        "longitude": 14.46667
    },
    {
        "name": "Форшеда",
        "latitude": 57.16415,
        "longitude": 13.83016
    },
    {
        "name": "Гиславед",
        "latitude": 57.3044,
        "longitude": 13.54078
    },
    {
        "name": "Гносё",
        "latitude": 57.3585,
        "longitude": 13.73686
    },
    {
        "name": "Тонкий",
        "latitude": 58.01667,
        "longitude": 14.46667
    },
    {
        "name": "Дом",
        "latitude": 57.91185,
        "longitude": 14.07444
    },
    {
        "name": "Эстер",
        "latitude": 57.44232,
        "longitude": 13.59575
    },
    {
        "name": "Хиллерсторп",
        "latitude": 57.31293,
        "longitude": 13.88437
    },
    {
        "name": "Домработницы",
        "latitude": 57.78596,
        "longitude": 14.30214
    },
    {
        "name": "Йёнчёпинг",
        "latitude": 57.78145,
        "longitude": 14.15618
    },
    {
        "name": "в Каксхольме",
        "latitude": 57.85345,
        "longitude": 14.30457
    },
    {
        "name": "Деревенский мост",
        "latitude": 57.36667,
        "longitude": 14.9
    },
    {
        "name": "Мальмбек",
        "latitude": 57.57667,
        "longitude": 14.4617
    },
    {
        "name": "Марианнелунд",
        "latitude": 57.61667,
        "longitude": 15.56667
    },
    {
        "name": "Марихольм",
        "latitude": 57.38333,
        "longitude": 13.85
    },
    {
        "name": "Муллсё",
        "latitude": 57.9171,
        "longitude": 13.87831
    },
    {
        "name": "Несшо",
        "latitude": 57.65307,
        "longitude": 14.69676
    },
    {
        "name": "Озеро Оденсе",
        "latitude": 57.71667,
        "longitude": 14.16667
    },
    {
        "name": "Рефтеле",
        "latitude": 57.17467,
        "longitude": 13.59498
    },
    {
        "name": "Райдахольм",
        "latitude": 56.98388,
        "longitude": 14.30849
    },
    {
        "name": "Сосье",
        "latitude": 57.40327,
        "longitude": 14.66244
    },
    {
        "name": "Скиллингарид",
        "latitude": 57.43044,
        "longitude": 14.09383
    },
    {
        "name": "Смоландские камни",
        "latitude": 57.16241,
        "longitude": 13.41212
    },
    {
        "name": "Стокарид",
        "latitude": 57.31737,
        "longitude": 14.59341
    },
    {
        "name": "Таберг",
        "latitude": 57.67722,
        "longitude": 14.08876
    },
    {
        "name": "Тенхульт",
        "latitude": 57.70761,
        "longitude": 14.32205
    },
    {
        "name": "Транос",
        "latitude": 58.03717,
        "longitude": 14.9782
    },
    {
        "name": "Шум люльки",
        "latitude": 57.49807,
        "longitude": 14.14842
    },
    {
        "name": "Вернамо",
        "latitude": 57.18604,
        "longitude": 14.04001
    },
    {
        "name": "Ветланда",
        "latitude": 57.42887,
        "longitude": 15.07762
    },
    {
        "name": "Вригстад",
        "latitude": 57.35,
        "longitude": 14.46667
    },
    {
        "name": "Якорная комната",
        "latitude": 57.69896,
        "longitude": 16.33407
    },
    {
        "name": "Бергквара",
        "latitude": 56.39063,
        "longitude": 16.07274
    },
    {
        "name": "Цветочная живопись",
        "latitude": 56.98333,
        "longitude": 16.33333
    },
    {
        "name": "Боргхольм",
        "latitude": 56.8793,
        "longitude": 16.65634
    },
    {
        "name": "Эммабода",
        "latitude": 56.63268,
        "longitude": 15.53648
    },
    {
        "name": "Паромный город",
        "latitude": 56.6499,
        "longitude": 16.46859
    },
    {
        "name": "Старый город",
        "latitude": 57.89485,
        "longitude": 16.40508
    },
    {
        "name": "Гуннебо",
        "latitude": 57.71667,
        "longitude": 16.53333
    },
    {
        "name": "Хогсби",
        "latitude": 57.16597,
        "longitude": 16.02562
    },
    {
        "name": "Хультсфред",
        "latitude": 57.48815,
        "longitude": 15.84357
    },
    {
        "name": "Кальмар",
        "latitude": 56.66157,
        "longitude": 16.36163
    },
    {
        "name": "Кристдала",
        "latitude": 57.4007,
        "longitude": 16.20496
    },
    {
        "name": "Линдсдейл",
        "latitude": 56.73333,
        "longitude": 16.3
    },
    {
        "name": "Юнгбюхольм",
        "latitude": 56.63333,
        "longitude": 16.16667
    },
    {
        "name": "Мишень фиолетовая",
        "latitude": 57.38773,
        "longitude": 15.80675
    },
    {
        "name": "Монстерос",
        "latitude": 57.04134,
        "longitude": 16.44463
    },
    {
        "name": "в Мербийон",
        "latitude": 56.5248,
        "longitude": 16.37877
    },
    {
        "name": "Нибро",
        "latitude": 56.74461,
        "longitude": 15.90714
    },
    {
        "name": "Оскарсхамн",
        "latitude": 57.26455,
        "longitude": 16.44837
    },
    {
        "name": "Повсюду",
        "latitude": 57.98856,
        "longitude": 16.3139
    },
    {
        "name": "Истер Бэй",
        "latitude": 57.16667,
        "longitude": 16.45
    },
    {
        "name": "Ринкабихольм",
        "latitude": 56.64972,
        "longitude": 16.26667
    },
    {
        "name": "Смедби",
        "latitude": 56.67413,
        "longitude": 16.2432
    },
    {
        "name": "Саут-Сэндби",
        "latitude": 56.56667,
        "longitude": 16.61667
    },
    {
        "name": "Южный Мы",
        "latitude": 57.73993,
        "longitude": 15.79391
    },
    {
        "name": "Сторебро",
        "latitude": 57.58333,
        "longitude": 15.85
    },
    {
        "name": "Лесоруб",
        "latitude": 56.96667,
        "longitude": 16.43333
    },
    {
        "name": "Четверговый соус",
        "latitude": 56.41251,
        "longitude": 15.99844
    },
    {
        "name": "Треугольник",
        "latitude": 56.7,
        "longitude": 16.11667
    },
    {
        "name": "Вестервик",
        "latitude": 57.7584,
        "longitude": 16.63733
    },
    {
        "name": "Виммербю",
        "latitude": 57.66588,
        "longitude": 15.85515
    },
    {
        "name": "Вирсерум",
        "latitude": 57.31667,
        "longitude": 15.58333
    },
    {
        "name": "Эльмхульт",
        "latitude": 56.55146,
        "longitude": 14.13827
    },
    {
        "name": "Одиннадцатый",
        "latitude": 56.89935,
        "longitude": 14.55559
    },
    {
        "name": "Оседа",
        "latitude": 57.1701,
        "longitude": 15.3443
    },
    {
        "name": "Браос",
        "latitude": 57.06667,
        "longitude": 15.05
    },
    {
        "name": "драгоценный камень",
        "latitude": 56.86753,
        "longitude": 14.64379
    },
    {
        "name": "Ховманторп",
        "latitude": 56.78685,
        "longitude": 15.14023
    },
    {
        "name": "Ингельстад",
        "latitude": 56.75,
        "longitude": 14.91667
    },
    {
        "name": "Лагань",
        "latitude": 56.91667,
        "longitude": 13.98333
    },
    {
        "name": "Нора ягненка",
        "latitude": 57.16667,
        "longitude": 14.58333
    },
    {
        "name": "Ленховда",
        "latitude": 57.0,
        "longitude": 15.28333
    },
    {
        "name": "Лессебо",
        "latitude": 56.75185,
        "longitude": 15.26969
    },
    {
        "name": "Юнгбю",
        "latitude": 56.83324,
        "longitude": 13.94082
    },
    {
        "name": "Маркарид",
        "latitude": 56.46135,
        "longitude": 13.59644
    },
    {
        "name": "Мохеда",
        "latitude": 57.0,
        "longitude": 14.56667
    },
    {
        "name": "Сгнивший",
        "latitude": 57.01667,
        "longitude": 14.9
    },
    {
        "name": "Очистить",
        "latitude": 56.46667,
        "longitude": 14.68333
    },
    {
        "name": "Мельница Стрёмснес",
        "latitude": 56.55,
        "longitude": 13.71667
    },
    {
        "name": "Тингрид",
        "latitude": 56.5247,
        "longitude": 14.97902
    },
    {
        "name": "Больше",
        "latitude": 56.87767,
        "longitude": 14.80906
    },
    {
        "name": "Висланда",
        "latitude": 56.78333,
        "longitude": 14.45
    },
    {
        "name": "Эльвсбин",
        "latitude": 65.67624,
        "longitude": 21.00162
    },
    {
        "name": "Полевой плуг",
        "latitude": 66.05173,
        "longitude": 17.88606
    },
    {
        "name": "Арвидсъяур",
        "latitude": 65.59033,
        "longitude": 19.16682
    },
    {
        "name": "Горный перешеек",
        "latitude": 65.57791,
        "longitude": 22.10844
    },
    {
        "name": "Бергсвикен",
        "latitude": 65.3,
        "longitude": 21.38333
    },
    {
        "name": "Бьорскатан",
        "latitude": 65.61373,
        "longitude": 22.17702
    },
    {
        "name": "Боден",
        "latitude": 65.82518,
        "longitude": 21.68864
    },
    {
        "name": "Печень",
        "latitude": 67.13387,
        "longitude": 20.65278
    },
    {
        "name": "Старый город",
        "latitude": 65.63931,
        "longitude": 22.01145
    },
    {
        "name": "Хапаранда",
        "latitude": 65.83549,
        "longitude": 24.13676
    },
    {
        "name": "Горт лосось",
        "latitude": 65.28188,
        "longitude": 21.40544
    },
    {
        "name": "Йокмокк",
        "latitude": 66.60665,
        "longitude": 19.82324
    },
    {
        "name": "Чашечка",
        "latitude": 65.85298,
        "longitude": 23.15645
    },
    {
        "name": "Кируна",
        "latitude": 67.85572,
        "longitude": 20.22513
    },
    {
        "name": "Лулео",
        "latitude": 65.58415,
        "longitude": 22.15465
    },
    {
        "name": "Мальберге",
        "latitude": 67.17529,
        "longitude": 20.65495
    },
    {
        "name": "Мариелунд",
        "latitude": 65.85307,
        "longitude": 24.10486
    },
    {
        "name": "Норрфьерден",
        "latitude": 65.41805,
        "longitude": 21.50151
    },
    {
        "name": "Верхняя чашечка",
        "latitude": 66.32754,
        "longitude": 22.84414
    },
    {
        "name": "Над Торнео",
        "latitude": 66.38778,
        "longitude": 23.65425
    },
    {
        "name": "Пайала",
        "latitude": 67.21284,
        "longitude": 23.36607
    },
    {
        "name": "Питео",
        "latitude": 65.31717,
        "longitude": 21.47944
    },
    {
        "name": "Ронео",
        "latitude": 65.85482,
        "longitude": 22.29126
    },
    {
        "name": "Рокнес",
        "latitude": 65.35,
        "longitude": 21.2
    },
    {
        "name": "Рольфа",
        "latitude": 65.85,
        "longitude": 23.11667
    },
    {
        "name": "Росвик",
        "latitude": 65.43333,
        "longitude": 21.7
    },
    {
        "name": "Вероятно",
        "latitude": 65.77002,
        "longitude": 21.73113
    },
    {
        "name": "Южный Сандербин",
        "latitude": 65.65983,
        "longitude": 21.94004
    },
    {
        "name": "Обычай",
        "latitude": 65.91243,
        "longitude": 22.65128
    },
    {
        "name": "Осбро",
        "latitude": 59.0,
        "longitude": 15.05
    },
    {
        "name": "Аскерсунд",
        "latitude": 58.87988,
        "longitude": 14.9023
    },
    {
        "name": "Дегерфорс",
        "latitude": 59.23797,
        "longitude": 14.43077
    },
    {
        "name": "Экеби-Олмби",
        "latitude": 59.26,
        "longitude": 15.33
    },
    {
        "name": "Феллингсбро",
        "latitude": 59.43333,
        "longitude": 15.58333
    },
    {
        "name": "Пятнадцатый",
        "latitude": 59.17375,
        "longitude": 14.87227
    },
    {
        "name": "Фрови",
        "latitude": 59.46667,
        "longitude": 15.36667
    },
    {
        "name": "Гарфиттан",
        "latitude": 59.30429,
        "longitude": 14.94623
    },
    {
        "name": "Проливное преступление",
        "latitude": 59.11667,
        "longitude": 15.2
    },
    {
        "name": "Хеллефорс",
        "latitude": 59.78388,
        "longitude": 14.52197
    },
    {
        "name": "Халльсберг",
        "latitude": 59.06463,
        "longitude": 15.10993
    },
    {
        "name": "Ховста",
        "latitude": 59.35,
        "longitude": 15.21667
    },
    {
        "name": "Карлскога",
        "latitude": 59.32667,
        "longitude": 14.52386
    },
    {
        "name": "Медная гора",
        "latitude": 59.87597,
        "longitude": 14.99436
    },
    {
        "name": "Кумла",
        "latitude": 59.1277,
        "longitude": 15.14341
    },
    {
        "name": "Лосось",
        "latitude": 58.9863,
        "longitude": 14.61904
    },
    {
        "name": "Линдесберг",
        "latitude": 59.59202,
        "longitude": 15.2304
    },
    {
        "name": "Нора",
        "latitude": 59.51926,
        "longitude": 15.03979
    },
    {
        "name": "Оденсбакен",
        "latitude": 59.16667,
        "longitude": 15.53333
    },
    {
        "name": "Эребру",
        "latitude": 59.27412,
        "longitude": 15.2066
    },
    {
        "name": "Полсбода",
        "latitude": 59.06565,
        "longitude": 15.33747
    },
    {
        "name": "Судомойка",
        "latitude": 59.13738,
        "longitude": 15.3394
    },
    {
        "name": "Стора",
        "latitude": 59.71409,
        "longitude": 15.13169
    },
    {
        "name": "зимний",
        "latitude": 59.25,
        "longitude": 14.95
    },
    {
        "name": "Оби",
        "latitude": 58.66667,
        "longitude": 16.18333
    },
    {
        "name": "Отвидаберг",
        "latitude": 58.20152,
        "longitude": 15.9977
    },
    {
        "name": "Берг",
        "latitude": 58.48831,
        "longitude": 15.52969
    },
    {
        "name": "Боренсберг",
        "latitude": 58.56667,
        "longitude": 15.28333
    },
    {
        "name": "Боксхольм",
        "latitude": 58.19719,
        "longitude": 15.05376
    },
    {
        "name": "Дубовый луг",
        "latitude": 58.46667,
        "longitude": 15.63333
    },
    {
        "name": "Тонкая нить",
        "latitude": 58.70578,
        "longitude": 15.76739
    },
    {
        "name": "Поганка",
        "latitude": 58.30145,
        "longitude": 15.87085
    },
    {
        "name": "Гусум",
        "latitude": 58.2688,
        "longitude": 16.49894
    },
    {
        "name": "Херрестад",
        "latitude": 58.38333,
        "longitude": 14.8
    },
    {
        "name": "Юрсла",
        "latitude": 58.66667,
        "longitude": 16.18333
    },
    {
        "name": "Кимстад",
        "latitude": 58.54967,
        "longitude": 15.96296
    },
    {
        "name": "что",
        "latitude": 57.98781,
        "longitude": 15.63303
    },
    {
        "name": "Крок",
        "latitude": 58.67231,
        "longitude": 16.36741
    },
    {
        "name": "Линдо",
        "latitude": 58.61667,
        "longitude": 16.25
    },
    {
        "name": "Лингем",
        "latitude": 58.43333,
        "longitude": 15.78333
    },
    {
        "name": "Линчепинг",
        "latitude": 58.41086,
        "longitude": 15.62157
    },
    {
        "name": "Юнгсбро",
        "latitude": 58.51667,
        "longitude": 15.5
    },
    {
        "name": "Рудная равнина",
        "latitude": 58.41102,
        "longitude": 15.51647
    },
    {
        "name": "Манторп",
        "latitude": 58.35,
        "longitude": 15.28333
    },
    {
        "name": "Мьёлбю",
        "latitude": 58.32595,
        "longitude": 15.12365
    },
    {
        "name": "Мотала",
        "latitude": 58.53706,
        "longitude": 15.03649
    },
    {
        "name": "Норчепинг",
        "latitude": 58.59419,
        "longitude": 16.1826
    },
    {
        "name": "Роковая куча",
        "latitude": 58.22949,
        "longitude": 14.65294
    },
    {
        "name": "Остербимо",
        "latitude": 57.82465,
        "longitude": 15.27357
    },
    {
        "name": "Раймефорса",
        "latitude": 58.13624,
        "longitude": 15.6865
    },
    {
        "name": "Очистить",
        "latitude": 58.66667,
        "longitude": 15.08333
    },
    {
        "name": "Скандал",
        "latitude": 58.39427,
        "longitude": 15.08659
    },
    {
        "name": "Резка лака",
        "latitude": 58.56667,
        "longitude": 15.9
    },
    {
        "name": "Сёдерчёпинг",
        "latitude": 58.48057,
        "longitude": 16.32221
    },
    {
        "name": "Стенсторп",
        "latitude": 58.48333,
        "longitude": 15.06667
    },
    {
        "name": "Стурефорс",
        "latitude": 58.33333,
        "longitude": 15.73333
    },
    {
        "name": "Свартинге",
        "latitude": 58.65507,
        "longitude": 16.02823
    },
    {
        "name": "Сосновый сарай",
        "latitude": 58.42521,
        "longitude": 15.68154
    },
    {
        "name": "Вадстоуны",
        "latitude": 58.44863,
        "longitude": 14.88969
    },
    {
        "name": "Вальдемарсвик",
        "latitude": 58.2031,
        "longitude": 16.60225
    },
    {
        "name": "Город викингов",
        "latitude": 58.38304,
        "longitude": 15.43201
    },
    {
        "name": "Охус",
        "latitude": 55.91667,
        "longitude": 14.28333
    },
    {
        "name": "Окарп",
        "latitude": 55.65396,
        "longitude": 13.11107
    },
    {
        "name": "Андерслов",
        "latitude": 55.43836,
        "longitude": 13.31966
    },
    {
        "name": "Энгельхольм",
        "latitude": 56.2428,
        "longitude": 12.86219
    },
    {
        "name": "Арлов",
        "latitude": 55.63248,
        "longitude": 13.07141
    },
    {
        "name": "Асмундторп",
        "latitude": 55.88333,
        "longitude": 12.93333
    },
    {
        "name": "Осторп",
        "latitude": 56.13566,
        "longitude": 12.9443
    },
    {
        "name": "Только",
        "latitude": 55.58155,
        "longitude": 13.17862
    },
    {
        "name": "Листья на носилках",
        "latitude": 56.0091,
        "longitude": 12.8058
    },
    {
        "name": "Бостад",
        "latitude": 56.42689,
        "longitude": 12.85339
    },
    {
        "name": "Биллберга",
        "latitude": 55.88333,
        "longitude": 13.0
    },
    {
        "name": "Биллешольм",
        "latitude": 56.05,
        "longitude": 13.0
    },
    {
        "name": "Бьярнум",
        "latitude": 56.29032,
        "longitude": 13.71128
    },
    {
        "name": "Бьярред",
        "latitude": 55.71667,
        "longitude": 13.01667
    },
    {
        "name": "Бьюв",
        "latitude": 56.08372,
        "longitude": 12.91914
    },
    {
        "name": "Блентарп",
        "latitude": 55.58333,
        "longitude": 13.6
    },
    {
        "name": "Броби",
        "latitude": 56.25521,
        "longitude": 14.07797
    },
    {
        "name": "Бромелла",
        "latitude": 56.07551,
        "longitude": 14.46958
    },
    {
        "name": "Пляж Бункефло",
        "latitude": 55.54478,
        "longitude": 12.92375
    },
    {
        "name": "Дэлби",
        "latitude": 55.66655,
        "longitude": 13.34976
    },
    {
        "name": "Тестовая гора",
        "latitude": 55.83333,
        "longitude": 14.08333
    },
    {
        "name": "Экеби",
        "latitude": 56.0,
        "longitude": 12.96667
    },
    {
        "name": "Желудевые листья",
        "latitude": 55.83928,
        "longitude": 13.30393
    },
    {
        "name": "Ферлов",
        "latitude": 56.06667,
        "longitude": 14.08333
    },
    {
        "name": "Фелькинге",
        "latitude": 56.04364,
        "longitude": 14.27562
    },
    {
        "name": "Потеря права выкупа",
        "latitude": 56.35,
        "longitude": 12.81667
    },
    {
        "name": "Сосновая роща",
        "latitude": 55.7738,
        "longitude": 13.09022
    },
    {
        "name": "Гантофта",
        "latitude": 55.98729,
        "longitude": 12.80482
    },
    {
        "name": "Гарснес",
        "latitude": 55.54949,
        "longitude": 14.17923
    },
    {
        "name": "Генарп",
        "latitude": 55.59907,
        "longitude": 13.3982
    },
    {
        "name": "Мерцающее поле",
        "latitude": 56.3,
        "longitude": 14.13333
    },
    {
        "name": "Мрачные листья",
        "latitude": 55.94091,
        "longitude": 12.80929
    },
    {
        "name": "Хельярп",
        "latitude": 55.85,
        "longitude": 12.91667
    },
    {
        "name": "Молоток",
        "latitude": 56.01667,
        "longitude": 14.21667
    },
    {
        "name": "Ханаски",
        "latitude": 56.16061,
        "longitude": 14.09307
    },
    {
        "name": "Хесслехольм",
        "latitude": 56.15905,
        "longitude": 13.76638
    },
    {
        "name": "Конское дерево",
        "latitude": 56.28468,
        "longitude": 13.93547
    },
    {
        "name": "Хельсингборг",
        "latitude": 56.05648,
        "longitude": 12.78718
    },
    {
        "name": "Хиттарп",
        "latitude": 56.1,
        "longitude": 12.63333
    },
    {
        "name": "Мозговой арп",
        "latitude": 56.31667,
        "longitude": 12.91667
    },
    {
        "name": "Сердечный крик",
        "latitude": 55.6688,
        "longitude": 13.13931
    },
    {
        "name": "Подтяжка бедер",
        "latitude": 55.80485,
        "longitude": 12.9797
    },
    {
        "name": "Хёганес",
        "latitude": 56.19971,
        "longitude": 12.55795
    },
    {
        "name": "в Хёкёпинг",
        "latitude": 55.49411,
        "longitude": 13.00782
    },
    {
        "name": "Хёльвикен",
        "latitude": 55.40982,
        "longitude": 12.9558
    },
    {
        "name": "Слышать",
        "latitude": 55.93444,
        "longitude": 13.5385
    },
    {
        "name": "Хирби",
        "latitude": 55.85238,
        "longitude": 13.66094
    },
    {
        "name": "Полки",
        "latitude": 56.1,
        "longitude": 12.85
    },
    {
        "name": "Джонсторп",
        "latitude": 56.2338,
        "longitude": 12.67184
    },
    {
        "name": "Когерёд",
        "latitude": 55.99976,
        "longitude": 13.08795
    },
    {
        "name": "Борец",
        "latitude": 55.79188,
        "longitude": 13.11021
    },
    {
        "name": "Крик плача",
        "latitude": 55.59416,
        "longitude": 13.24574
    },
    {
        "name": "Рок",
        "latitude": 56.13559,
        "longitude": 13.13086
    },
    {
        "name": "Книслинге",
        "latitude": 56.18333,
        "longitude": 14.08333
    },
    {
        "name": "Кёпингебро",
        "latitude": 55.45526,
        "longitude": 13.93453
    },
    {
        "name": "Кристианстад",
        "latitude": 56.03129,
        "longitude": 14.15242
    },
    {
        "name": "Квиддинг",
        "latitude": 56.13386,
        "longitude": 13.04678
    },
    {
        "name": "Национальная крона",
        "latitude": 55.8862,
        "longitude": 12.8588
    },
    {
        "name": "Пустошь Юнгбю",
        "latitude": 56.07437,
        "longitude": 13.2401
    },
    {
        "name": "Вересковые дома",
        "latitude": 55.39793,
        "longitude": 12.92486
    },
    {
        "name": "Лист красный",
        "latitude": 55.7761,
        "longitude": 13.52414
    },
    {
        "name": "В Лёддехопин",
        "latitude": 55.76667,
        "longitude": 13.01667
    },
    {
        "name": "Карман",
        "latitude": 55.67244,
        "longitude": 13.06849
    },
    {
        "name": "Зарплата сарай",
        "latitude": 56.4,
        "longitude": 14.31667
    },
    {
        "name": "Лунд",
        "latitude": 55.70584,
        "longitude": 13.19321
    },
    {
        "name": "Мальмё",
        "latitude": 55.60587,
        "longitude": 13.00073
    },
    {
        "name": "Марихольм",
        "latitude": 55.86667,
        "longitude": 13.15
    },
    {
        "name": "Мьорарп",
        "latitude": 56.05749,
        "longitude": 12.88018
    },
    {
        "name": "Ворк-Люнгбю",
        "latitude": 56.25,
        "longitude": 12.96667
    },
    {
        "name": "Ноздри",
        "latitude": 56.17693,
        "longitude": 14.49706
    },
    {
        "name": "Норра Осум",
        "latitude": 55.98333,
        "longitude": 14.15
    },
    {
        "name": "Островное поле",
        "latitude": 56.10412,
        "longitude": 12.7477
    },
    {
        "name": "Оннестад",
        "latitude": 56.05747,
        "longitude": 14.02233
    },
    {
        "name": "Оркельюнга",
        "latitude": 56.28338,
        "longitude": 13.27773
    },
    {
        "name": "Осби",
        "latitude": 56.38165,
        "longitude": 13.99364
    },
    {
        "name": "Восточный Юнгбю",
        "latitude": 56.19601,
        "longitude": 13.09199
    },
    {
        "name": "Окси",
        "latitude": 55.54014,
        "longitude": 13.09605
    },
    {
        "name": "На арп",
        "latitude": 56.03333,
        "longitude": 12.81667
    },
    {
        "name": "Персторп",
        "latitude": 56.13829,
        "longitude": 13.39476
    },
    {
        "name": "Рюдебек",
        "latitude": 55.96667,
        "longitude": 12.76667
    },
    {
        "name": "Рюдсгард",
        "latitude": 55.47285,
        "longitude": 13.58829
    },
    {
        "name": "Подушки сиденья",
        "latitude": 55.91667,
        "longitude": 13.55
    },
    {
        "name": "Саксторпсский лес",
        "latitude": 55.83208,
        "longitude": 12.94429
    },
    {
        "name": "Сиббхульт",
        "latitude": 56.26667,
        "longitude": 14.2
    },
    {
        "name": "Симрисхамн",
        "latitude": 55.55653,
        "longitude": 14.35037
    },
    {
        "name": "Морской житель",
        "latitude": 55.63135,
        "longitude": 13.70622
    },
    {
        "name": "Сканер с Фальстербо",
        "latitude": 55.4,
        "longitude": 12.85
    },
    {
        "name": "Счет",
        "latitude": 55.38333,
        "longitude": 13.05
    },
    {
        "name": "Шашлык",
        "latitude": 55.40633,
        "longitude": 13.07693
    },
    {
        "name": "Деформация диска",
        "latitude": 55.41667,
        "longitude": 13.56667
    },
    {
        "name": "Скуруп",
        "latitude": 55.47839,
        "longitude": 13.50186
    },
    {
        "name": "Порт стелса",
        "latitude": 55.34337,
        "longitude": 13.36989
    },
    {
        "name": "Саут-Сэндби",
        "latitude": 55.71677,
        "longitude": 13.34659
    },
    {
        "name": "Сёсдала",
        "latitude": 56.03992,
        "longitude": 13.67811
    },
    {
        "name": "Стаффансторп",
        "latitude": 55.64277,
        "longitude": 13.20638
    },
    {
        "name": "Стонгбю",
        "latitude": 55.7503,
        "longitude": 13.19797
    },
    {
        "name": "Стехаг",
        "latitude": 55.90188,
        "longitude": 13.39577
    },
    {
        "name": "Стрёвельсторп",
        "latitude": 56.16979,
        "longitude": 12.83925
    },
    {
        "name": "ласточкин хвост",
        "latitude": 55.9134,
        "longitude": 13.10762
    },
    {
        "name": "Сведала",
        "latitude": 55.50788,
        "longitude": 13.23515
    },
    {
        "name": "Теккоматорп",
        "latitude": 55.86667,
        "longitude": 13.08333
    },
    {
        "name": "Толларп",
        "latitude": 55.93333,
        "longitude": 13.98333
    },
    {
        "name": "Толларп1",
        "latitude": 56.16667,
        "longitude": 14.28333
    },
    {
        "name": "Томелилья",
        "latitude": 55.54293,
        "longitude": 13.9546
    },
    {
        "name": "Тореков",
        "latitude": 56.425,
        "longitude": 12.63333
    },
    {
        "name": "Торместорп",
        "latitude": 56.1135,
        "longitude": 13.74516
    },
    {
        "name": "Треллеборг",
        "latitude": 55.37514,
        "longitude": 13.15691
    },
    {
        "name": "тигель",
        "latitude": 55.51667,
        "longitude": 13.0
    },
    {
        "name": "Тайринг",
        "latitude": 56.16037,
        "longitude": 13.59811
    },
    {
        "name": "Валки",
        "latitude": 56.06279,
        "longitude": 14.54388
    },
    {
        "name": "Веб-красный",
        "latitude": 55.63333,
        "longitude": 13.48333
    },
    {
        "name": "Пляж Вейбю",
        "latitude": 56.31778,
        "longitude": 12.76722
    },
    {
        "name": "Велинге",
        "latitude": 55.47124,
        "longitude": 13.01971
    },
    {
        "name": "Бухта",
        "latitude": 56.15063,
        "longitude": 12.57429
    },
    {
        "name": "Виноградные листья",
        "latitude": 56.1,
        "longitude": 13.91667
    },
    {
        "name": "Виттьё",
        "latitude": 56.34366,
        "longitude": 13.66081
    },
    {
        "name": "Истад",
        "latitude": 55.42966,
        "longitude": 13.82041
    },
    {
        "name": "Штучная фабрика Окера",
        "latitude": 59.25,
        "longitude": 17.08333
    },
    {
        "name": "Трясогузка",
        "latitude": 59.27983,
        "longitude": 16.67896
    },
    {
        "name": "Арно",
        "latitude": 58.72675,
        "longitude": 17.02322
    },
    {
        "name": "Только",
        "latitude": 58.68333,
        "longitude": 17.06667
    },
    {
        "name": "Эскильстуна",
        "latitude": 59.36661,
        "longitude": 16.5077
    },
    {
        "name": "Флен",
        "latitude": 59.05834,
        "longitude": 16.58781
    },
    {
        "name": "Гнеста",
        "latitude": 59.04751,
        "longitude": 17.31191
    },
    {
        "name": "Хельбибрунн",
        "latitude": 59.39152,
        "longitude": 16.42229
    },
    {
        "name": "Хеллефорснес",
        "latitude": 59.15208,
        "longitude": 16.497
    },
    {
        "name": "Катринхольм",
        "latitude": 58.99587,
        "longitude": 16.20721
    },
    {
        "name": "Квикксунд",
        "latitude": 59.45099,
        "longitude": 16.32131
    },
    {
        "name": "Мальмчёпинг",
        "latitude": 59.13333,
        "longitude": 16.73333
    },
    {
        "name": "Мариефред",
        "latitude": 59.25963,
        "longitude": 17.223
    },
    {
        "name": "Нючёпинг",
        "latitude": 58.753,
        "longitude": 17.00788
    },
    {
        "name": "Ольсторп",
        "latitude": 58.81667,
        "longitude": 16.63333
    },
    {
        "name": "Окселёсунд",
        "latitude": 58.67057,
        "longitude": 17.10152
    },
    {
        "name": "Скогсторп",
        "latitude": 59.32472,
        "longitude": 16.48284
    },
    {
        "name": "Сталлархольмен",
        "latitude": 59.36667,
        "longitude": 17.2
    },
    {
        "name": "Стигматт",
        "latitude": 58.8,
        "longitude": 16.78333
    },
    {
        "name": "Странгнес",
        "latitude": 59.37741,
        "longitude": 17.03119
    },
    {
        "name": "Голодный",
        "latitude": 58.74273,
        "longitude": 16.86978
    },
    {
        "name": "Налить треску",
        "latitude": 59.41667,
        "longitude": 16.46667
    },
    {
        "name": "Долг",
        "latitude": 58.89621,
        "longitude": 17.54812
    },
    {
        "name": "Повозочное стадо",
        "latitude": 58.94587,
        "longitude": 17.48757
    },
    {
        "name": "Муниципалитет",
        "latitude": 59.01667,
        "longitude": 16.38333
    },
    {
        "name": "Виноградники",
        "latitude": 59.0433,
        "longitude": 15.87374
    },
    {
        "name": "По меньшей мере",
        "latitude": 59.41465,
        "longitude": 17.91398
    },
    {
        "name": "Окерсберга",
        "latitude": 59.47944,
        "longitude": 18.29967
    },
    {
        "name": "Алби",
        "latitude": 59.2335,
        "longitude": 17.8538
    },
    {
        "name": "Старший",
        "latitude": 59.96667,
        "longitude": 18.8
    },
    {
        "name": "Месить",
        "latitude": 59.26667,
        "longitude": 18.18333
    },
    {
        "name": "Арно",
        "latitude": 60.11667,
        "longitude": 18.63333
    },
    {
        "name": "Первый год",
        "latitude": 59.2978,
        "longitude": 18.0514
    },
    {
        "name": "Каменный молоток",
        "latitude": 59.38083,
        "longitude": 18.03427
    },
    {
        "name": "Боллмора",
        "latitude": 59.24196,
        "longitude": 18.22762
    },
    {
        "name": "Бу",
        "latitude": 59.33333,
        "longitude": 18.28333
    },
    {
        "name": "Бревик",
        "latitude": 59.35,
        "longitude": 18.2
    },
    {
        "name": "Братан",
        "latitude": 59.51667,
        "longitude": 17.63333
    },
    {
        "name": "Тормоз",
        "latitude": 59.34,
        "longitude": 17.94
    },
    {
        "name": "Хорошо",
        "latitude": 59.28,
        "longitude": 18.43
    },
    {
        "name": "Хорошо",
        "latitude": 59.51667,
        "longitude": 17.75
    },
    {
        "name": "Даларио",
        "latitude": 59.13306,
        "longitude": 18.40639
    },
    {
        "name": "Остров животных",
        "latitude": 59.32653,
        "longitude": 18.71152
    },
    {
        "name": "Дюрсхольм",
        "latitude": 59.39926,
        "longitude": 18.05619
    },
    {
        "name": "Окей",
        "latitude": 59.291,
        "longitude": 17.81212
    },
    {
        "name": "Энебюберг",
        "latitude": 59.43333,
        "longitude": 18.05
    },
    {
        "name": "Эриксберг",
        "latitude": 59.24241,
        "longitude": 17.81631
    },
    {
        "name": "Есть рыбу",
        "latitude": 59.29153,
        "longitude": 18.2549
    },
    {
        "name": "Пизда",
        "latitude": 59.24868,
        "longitude": 17.85991
    },
    {
        "name": "Старый город",
        "latitude": 59.32627,
        "longitude": 18.07251
    },
    {
        "name": "Густавсберг",
        "latitude": 59.32684,
        "longitude": 18.38975
    },
    {
        "name": "Халльставик",
        "latitude": 60.05,
        "longitude": 18.6
    },
    {
        "name": "Руки",
        "latitude": 59.16809,
        "longitude": 18.13796
    },
    {
        "name": "Ханинге",
        "latitude": 59.16775,
        "longitude": 18.14478
    },
    {
        "name": "Блин",
        "latitude": 59.32273,
        "longitude": 18.48675
    },
    {
        "name": "Это просто",
        "latitude": 59.01667,
        "longitude": 17.53333
    },
    {
        "name": "Худдинге",
        "latitude": 59.23705,
        "longitude": 17.98192
    },
    {
        "name": "Якобсберг",
        "latitude": 59.42268,
        "longitude": 17.83508
    },
    {
        "name": "Железо",
        "latitude": 59.09165,
        "longitude": 17.56615
    },
    {
        "name": "Земляной мост",
        "latitude": 59.14972,
        "longitude": 18.11667
    },
    {
        "name": "Киста",
        "latitude": 59.40316,
        "longitude": 17.94479
    },
    {
        "name": "Медная мать",
        "latitude": 59.33306,
        "longitude": 18.58306
    },
    {
        "name": "Мыс хека",
        "latitude": 59.35,
        "longitude": 18.28333
    },
    {
        "name": "Королевская кровать",
        "latitude": 59.47857,
        "longitude": 17.74834
    },
    {
        "name": "Кунгсхольмен",
        "latitude": 59.33183,
        "longitude": 18.04118
    },
    {
        "name": "Лонгвик",
        "latitude": 59.24583,
        "longitude": 18.51667
    },
    {
        "name": "Лидингё",
        "latitude": 59.36303,
        "longitude": 18.15096
    },
    {
        "name": "Линдхольмен",
        "latitude": 59.58333,
        "longitude": 18.1
    },
    {
        "name": "Мярста",
        "latitude": 59.62157,
        "longitude": 17.85476
    },
    {
        "name": "Мёльнбо",
        "latitude": 59.05,
        "longitude": 17.41667
    },
    {
        "name": "Мертнес",
        "latitude": 59.31862,
        "longitude": 18.44312
    },
    {
        "name": "Шея",
        "latitude": 59.31053,
        "longitude": 18.16372
    },
    {
        "name": "Норртелье",
        "latitude": 59.75799,
        "longitude": 18.70496
    },
    {
        "name": "Нюкварн",
        "latitude": 59.8,
        "longitude": 18.3
    },
    {
        "name": "Нюнесхамн",
        "latitude": 58.90337,
        "longitude": 17.94793
    },
    {
        "name": "Осмо",
        "latitude": 58.98333,
        "longitude": 17.9
    },
    {
        "name": "Эстермальм",
        "latitude": 59.33879,
        "longitude": 18.08487
    },
    {
        "name": "Першаген",
        "latitude": 59.15494,
        "longitude": 17.6534
    },
    {
        "name": "Росунда",
        "latitude": 59.36588,
        "longitude": 17.99569
    },
    {
        "name": "Остров путешествий",
        "latitude": 59.4291,
        "longitude": 18.33386
    },
    {
        "name": "Римбо",
        "latitude": 59.75,
        "longitude": 18.36667
    },
    {
        "name": "Риндё",
        "latitude": 59.39688,
        "longitude": 18.39434
    },
    {
        "name": "Рённинге",
        "latitude": 59.2,
        "longitude": 17.73333
    },
    {
        "name": "Розерсберг",
        "latitude": 59.58333,
        "longitude": 17.88333
    },
    {
        "name": "Ванны Соленого озера",
        "latitude": 59.28333,
        "longitude": 18.3
    },
    {
        "name": "Сегельторп",
        "latitude": 59.27597,
        "longitude": 17.93072
    },
    {
        "name": "Сигтуна",
        "latitude": 59.61731,
        "longitude": 17.72361
    },
    {
        "name": "Скандал",
        "latitude": 59.93333,
        "longitude": 18.48333
    },
    {
        "name": "Сёдермальм",
        "latitude": 59.31278,
        "longitude": 18.07577
    },
    {
        "name": "Седертелье",
        "latitude": 59.19554,
        "longitude": 17.62525
    },
    {
        "name": "Соллентуна",
        "latitude": 59.42804,
        "longitude": 17.95093
    },
    {
        "name": "Сольна",
        "latitude": 59.36004,
        "longitude": 18.00086
    },
    {
        "name": "Нос",
        "latitude": 59.28333,
        "longitude": 18.68333
    },
    {
        "name": "Каменный молоток",
        "latitude": 59.3344,
        "longitude": 17.68842
    },
    {
        "name": "Стокгольм",
        "latitude": 59.33258,
        "longitude": 18.0649
    },
    {
        "name": "Поток",
        "latitude": 59.28333,
        "longitude": 18.53333
    },
    {
        "name": "Сундбюберг",
        "latitude": 59.36128,
        "longitude": 17.97114
    },
    {
        "name": "Тенста",
        "latitude": 59.3939,
        "longitude": 17.90111
    },
    {
        "name": "Толлинге",
        "latitude": 59.2,
        "longitude": 17.9
    },
    {
        "name": "Могила",
        "latitude": 59.19858,
        "longitude": 17.83317
    },
    {
        "name": "Весбю в Упланде",
        "latitude": 59.51839,
        "longitude": 17.91128
    },
    {
        "name": "Валентина",
        "latitude": 59.53436,
        "longitude": 18.07758
    },
    {
        "name": "Ворбю",
        "latitude": 59.26671,
        "longitude": 17.88407
    },
    {
        "name": "Весна",
        "latitude": 59.16528,
        "longitude": 17.79722
    },
    {
        "name": "Васастан",
        "latitude": 59.34571,
        "longitude": 18.04985
    },
    {
        "name": "Ваксхольм",
        "latitude": 59.40225,
        "longitude": 18.35317
    },
    {
        "name": "Альсике",
        "latitude": 59.75324,
        "longitude": 17.77331
    },
    {
        "name": "Алунда",
        "latitude": 60.26667,
        "longitude": 18.4
    },
    {
        "name": "Эльвкарлебю",
        "latitude": 60.57081,
        "longitude": 17.44895
    },
    {
        "name": "Аннаберг",
        "latitude": 60.24167,
        "longitude": 18.41667
    },
    {
        "name": "Белинге",
        "latitude": 59.95,
        "longitude": 17.53333
    },
    {
        "name": "Балласт",
        "latitude": 59.5671,
        "longitude": 17.52781
    },
    {
        "name": "в Бьёрклин",
        "latitude": 60.03004,
        "longitude": 17.55203
    },
    {
        "name": "Энчепинг",
        "latitude": 59.63607,
        "longitude": 17.07768
    },
    {
        "name": "Старая Уппсала",
        "latitude": 59.89817,
        "longitude": 17.63386
    },
    {
        "name": "Гимо",
        "latitude": 60.17304,
        "longitude": 18.18507
    },
    {
        "name": "Гриль-таун",
        "latitude": 59.62603,
        "longitude": 17.25787
    },
    {
        "name": "Хеби",
        "latitude": 59.93815,
        "longitude": 16.86217
    },
    {
        "name": "Ирста",
        "latitude": 59.7,
        "longitude": 16.93333
    },
    {
        "name": "Карлхольмсбрук",
        "latitude": 60.52091,
        "longitude": 17.63152
    },
    {
        "name": "Нож",
        "latitude": 59.72564,
        "longitude": 17.78753
    },
    {
        "name": "Листовой сталактит",
        "latitude": 59.9574,
        "longitude": 17.57826
    },
    {
        "name": "Мариберг",
        "latitude": 60.23333,
        "longitude": 18.5
    },
    {
        "name": "Утренний подарок",
        "latitude": 59.93395,
        "longitude": 16.96353
    },
    {
        "name": "Дом Орби",
        "latitude": 60.22407,
        "longitude": 17.70138
    },
    {
        "name": "Эрегрунд",
        "latitude": 60.33333,
        "longitude": 18.43333
    },
    {
        "name": "Эрсуннский мост",
        "latitude": 59.73333,
        "longitude": 17.3
    },
    {
        "name": "Эстербибрюк",
        "latitude": 60.2,
        "longitude": 17.9
    },
    {
        "name": "Остервала",
        "latitude": 60.18333,
        "longitude": 17.18333
    },
    {
        "name": "Восточный Хаммар",
        "latitude": 60.25909,
        "longitude": 18.37408
    },
    {
        "name": "сок",
        "latitude": 59.81872,
        "longitude": 17.69958
    },
    {
        "name": "Режущая кромка пули",
        "latitude": 60.62507,
        "longitude": 17.41552
    },
    {
        "name": "Седерфорс",
        "latitude": 60.38333,
        "longitude": 17.23333
    },
    {
        "name": "Большой гнев",
        "latitude": 59.95933,
        "longitude": 17.70588
    },
    {
        "name": "Тернсё",
        "latitude": 60.15,
        "longitude": 16.93333
    },
    {
        "name": "Тьерп",
        "latitude": 60.34269,
        "longitude": 17.51812
    },
    {
        "name": "Уппсала",
        "latitude": 59.85882,
        "longitude": 17.63889
    },
    {
        "name": "Ваттхольм",
        "latitude": 60.01667,
        "longitude": 17.73333
    },
    {
        "name": "Противоположный",
        "latitude": 59.76191,
        "longitude": 12.36211
    },
    {
        "name": "Годовалый",
        "latitude": 59.39217,
        "longitude": 12.13336
    },
    {
        "name": "Арвика",
        "latitude": 59.65528,
        "longitude": 12.58518
    },
    {
        "name": "Пори",
        "latitude": 59.24122,
        "longitude": 14.24942
    },
    {
        "name": "Шарлоттенбург",
        "latitude": 59.88422,
        "longitude": 12.30398
    },
    {
        "name": "Это происходит",
        "latitude": 59.603,
        "longitude": 13.472
    },
    {
        "name": "Экс-Вестник",
        "latitude": 60.17275,
        "longitude": 13.49647
    },
    {
        "name": "Филипстад",
        "latitude": 59.71236,
        "longitude": 14.16831
    },
    {
        "name": "Форшага",
        "latitude": 59.52541,
        "longitude": 13.48127
    },
    {
        "name": "Отбросы",
        "latitude": 59.35141,
        "longitude": 13.11105
    },
    {
        "name": "Хагфорс",
        "latitude": 60.02378,
        "longitude": 13.67214
    },
    {
        "name": "Карлстад",
        "latitude": 59.3793,
        "longitude": 13.50357
    },
    {
        "name": "Кил",
        "latitude": 59.50234,
        "longitude": 13.31277
    },
    {
        "name": "Кристинехамн",
        "latitude": 59.30978,
        "longitude": 14.10808
    },
    {
        "name": "Molkom",
        "latitude": 59.60057,
        "longitude": 13.72115
    },
    {
        "name": "Мункфорс",
        "latitude": 59.83856,
        "longitude": 13.54361
    },
    {
        "name": "Роторп",
        "latitude": 59.40197,
        "longitude": 13.49144
    },
    {
        "name": "Сеффле",
        "latitude": 59.13229,
        "longitude": 12.92888
    },
    {
        "name": "Счет",
        "latitude": 59.43333,
        "longitude": 13.43333
    },
    {
        "name": "Налоговое болото",
        "latitude": 59.41208,
        "longitude": 13.67078
    },
    {
        "name": "Лесной зал",
        "latitude": 59.32324,
        "longitude": 13.46552
    },
    {
        "name": "Замковый мост",
        "latitude": 59.3227,
        "longitude": 13.10268
    },
    {
        "name": "Сторфорс",
        "latitude": 59.53183,
        "longitude": 14.27201
    },
    {
        "name": "Здоровый",
        "latitude": 59.83764,
        "longitude": 13.14302
    },
    {
        "name": "Токсфорс",
        "latitude": 59.50816,
        "longitude": 11.84431
    },
    {
        "name": "Торсби",
        "latitude": 60.13527,
        "longitude": 13.0082
    },
    {
        "name": "Вольберг",
        "latitude": 59.39145,
        "longitude": 13.18633
    },
    {
        "name": "Осел",
        "latitude": 64.16026,
        "longitude": 17.34762
    },
    {
        "name": "Обеспечить регресс",
        "latitude": 64.98333,
        "longitude": 21.06667
    },
    {
        "name": "Бьюрхольм",
        "latitude": 63.93027,
        "longitude": 19.21369
    },
    {
        "name": "Машина",
        "latitude": 64.86667,
        "longitude": 20.38333
    },
    {
        "name": "Офис",
        "latitude": 64.61667,
        "longitude": 21.2
    },
    {
        "name": "Клетка болотная",
        "latitude": 64.51667,
        "longitude": 20.65
    },
    {
        "name": "Деревня",
        "latitude": 64.95258,
        "longitude": 21.2058
    },
    {
        "name": "Доротея",
        "latitude": 64.26185,
        "longitude": 16.41306
    },
    {
        "name": "Эрсмарк",
        "latitude": 63.88333,
        "longitude": 20.31667
    },
    {
        "name": "Форсбака",
        "latitude": 64.76667,
        "longitude": 20.5
    },
    {
        "name": "Холмсунд",
        "latitude": 63.70602,
        "longitude": 20.36409
    },
    {
        "name": "Хёрнефорс",
        "latitude": 63.62312,
        "longitude": 19.90856
    },
    {
        "name": "Озеро",
        "latitude": 64.4,
        "longitude": 17.48333
    },
    {
        "name": "Клетка",
        "latitude": 64.83571,
        "longitude": 20.98453
    },
    {
        "name": "Длинная шлейка",
        "latitude": 64.81667,
        "longitude": 20.25
    },
    {
        "name": "Счастливая упряжь",
        "latitude": 64.59537,
        "longitude": 18.67351
    },
    {
        "name": "Мало",
        "latitude": 65.18501,
        "longitude": 18.74243
    },
    {
        "name": "Нордмалинг",
        "latitude": 63.56852,
        "longitude": 19.50244
    },
    {
        "name": "Норшья",
        "latitude": 64.91206,
        "longitude": 19.48153
    },
    {
        "name": "Оббола",
        "latitude": 63.7,
        "longitude": 20.31667
    },
    {
        "name": "Рёбек",
        "latitude": 63.80879,
        "longitude": 20.18901
    },
    {
        "name": "Робертсфорс",
        "latitude": 64.19324,
        "longitude": 20.84806
    },
    {
        "name": "просачивается",
        "latitude": 63.90383,
        "longitude": 20.55014
    },
    {
        "name": "Шеллефтео",
        "latitude": 64.75067,
        "longitude": 20.95279
    },
    {
        "name": "Шеллефтехамн",
        "latitude": 64.68333,
        "longitude": 21.23333
    },
    {
        "name": "Седерфорс",
        "latitude": 64.81667,
        "longitude": 18.05
    },
    {
        "name": "Сорселье",
        "latitude": 65.53484,
        "longitude": 17.53702
    },
    {
        "name": "Большой человек",
        "latitude": 65.0959,
        "longitude": 17.11731
    },
    {
        "name": "Сторвик",
        "latitude": 65.15,
        "longitude": 20.73333
    },
    {
        "name": "Тафтери",
        "latitude": 63.8397,
        "longitude": 20.47857
    },
    {
        "name": "Умео",
        "latitude": 63.82842,
        "longitude": 20.25972
    },
    {
        "name": "Расстроенный",
        "latitude": 64.71261,
        "longitude": 21.1658
    },
    {
        "name": "Друзья",
        "latitude": 63.90676,
        "longitude": 19.75712
    },
    {
        "name": "Веннесбю",
        "latitude": 63.91564,
        "longitude": 19.82438
    },
    {
        "name": "Бухта",
        "latitude": 64.72587,
        "longitude": 20.91548
    },
    {
        "name": "Вильгельмина",
        "latitude": 64.62417,
        "longitude": 16.65596
    },
    {
        "name": "Подгузник",
        "latitude": 64.20175,
        "longitude": 19.71945
    },
    {
        "name": "Пар",
        "latitude": 62.52495,
        "longitude": 15.65904
    },
    {
        "name": "Холм",
        "latitude": 63.36667,
        "longitude": 16.58333
    },
    {
        "name": "Бергефорсен",
        "latitude": 62.53074,
        "longitude": 17.38123
    },
    {
        "name": "Лучший",
        "latitude": 63.2,
        "longitude": 18.5
    },
    {
        "name": "Шаровая мельница",
        "latitude": 62.99777,
        "longitude": 17.67348
    },
    {
        "name": "Бредбин",
        "latitude": 63.44655,
        "longitude": 18.11019
    },
    {
        "name": "Заморозить",
        "latitude": 62.49855,
        "longitude": 16.17016
    },
    {
        "name": "Хернесанд",
        "latitude": 62.63228,
        "longitude": 17.93794
    },
    {
        "name": "Сумма дома",
        "latitude": 63.33333,
        "longitude": 19.16667
    },
    {
        "name": "Йоханнедал",
        "latitude": 62.43424,
        "longitude": 17.37273
    },
    {
        "name": "С Кёпманхолом",
        "latitude": 63.16667,
        "longitude": 18.56667
    },
    {
        "name": "Крамфорс",
        "latitude": 62.93161,
        "longitude": 17.77646
    },
    {
        "name": "Квисслеби",
        "latitude": 62.29361,
        "longitude": 17.375
    },
    {
        "name": "Длинная шлейка",
        "latitude": 63.18333,
        "longitude": 17.06667
    },
    {
        "name": "Матфорс",
        "latitude": 62.34864,
        "longitude": 17.03173
    },
    {
        "name": "Почечное шунтирование",
        "latitude": 62.26339,
        "longitude": 17.38354
    },
    {
        "name": "Нолби",
        "latitude": 62.2875,
        "longitude": 17.36917
    },
    {
        "name": "Эрншельдсвик",
        "latitude": 63.29091,
        "longitude": 18.71525
    },
    {
        "name": "Шотландский звук",
        "latitude": 62.29056,
        "longitude": 17.38694
    },
    {
        "name": "Соллефтео",
        "latitude": 63.16667,
        "longitude": 17.26667
    },
    {
        "name": "Сёракер",
        "latitude": 62.50561,
        "longitude": 17.51032
    },
    {
        "name": "Стоквик",
        "latitude": 62.33667,
        "longitude": 17.36583
    },
    {
        "name": "Сундсбрук",
        "latitude": 62.45806,
        "longitude": 17.34889
    },
    {
        "name": "Сундсвалль",
        "latitude": 62.39129,
        "longitude": 17.3063
    },
    {
        "name": "Время сырое",
        "latitude": 62.48654,
        "longitude": 17.32613
    },
    {
        "name": "Ви",
        "latitude": 62.43333,
        "longitude": 17.41667
    },
    {
        "name": "Арбога",
        "latitude": 59.39387,
        "longitude": 15.83882
    },
    {
        "name": "Баркарио",
        "latitude": 59.54935,
        "longitude": 16.5074
    },
    {
        "name": "Дингтуна",
        "latitude": 59.57279,
        "longitude": 16.38722
    },
    {
        "name": "Энхаген-Экбакен",
        "latitude": 59.56543,
        "longitude": 16.53045
    },
    {
        "name": "Самый справедливый",
        "latitude": 60.00418,
        "longitude": 15.79316
    },
    {
        "name": "Молоты Халста",
        "latitude": 59.61395,
        "longitude": 16.22846
    },
    {
        "name": "Хёкосен",
        "latitude": 59.66667,
        "longitude": 16.58333
    },
    {
        "name": "Ирста",
        "latitude": 59.6,
        "longitude": 16.7
    },
    {
        "name": "Кольбек",
        "latitude": 59.56516,
        "longitude": 16.23037
    },
    {
        "name": "Уголь",
        "latitude": 59.6,
        "longitude": 15.83333
    },
    {
        "name": "Покупка",
        "latitude": 59.51404,
        "longitude": 15.99255
    },
    {
        "name": "Кунгсёр",
        "latitude": 59.42245,
        "longitude": 16.09656
    },
    {
        "name": "Норберг",
        "latitude": 60.06505,
        "longitude": 15.92366
    },
    {
        "name": "Рамнес",
        "latitude": 59.76667,
        "longitude": 16.2
    },
    {
        "name": "Сала",
        "latitude": 59.91993,
        "longitude": 16.60655
    },
    {
        "name": "Гора сокровищ кожи",
        "latitude": 59.83028,
        "longitude": 15.69337
    },
    {
        "name": "Скултуна",
        "latitude": 59.71667,
        "longitude": 16.41667
    },
    {
        "name": "Сурский молот",
        "latitude": 59.70725,
        "longitude": 16.22188
    },
    {
        "name": "Спрятаться",
        "latitude": 59.68333,
        "longitude": 16.61667
    },
    {
        "name": "Вестерос",
        "latitude": 59.64914,
        "longitude": 16.56445
    },
    {
        "name": "Окарп",
        "latitude": 58.23333,
        "longitude": 13.65
    },
    {
        "name": "Алафорс",
        "latitude": 57.92579,
        "longitude": 12.07835
    },
    {
        "name": "Алинг соус",
        "latitude": 57.93033,
        "longitude": 12.53345
    },
    {
        "name": "Эльвенген",
        "latitude": 57.95872,
        "longitude": 12.1235
    },
    {
        "name": "Цель",
        "latitude": 59.051,
        "longitude": 12.70492
    },
    {
        "name": "Андален",
        "latitude": 57.70039,
        "longitude": 11.76136
    },
    {
        "name": "Андерсторп",
        "latitude": 58.88333,
        "longitude": 14.28333
    },
    {
        "name": "Возмущенный",
        "latitude": 57.78628,
        "longitude": 12.09852
    },
    {
        "name": "Аннелунд",
        "latitude": 57.98843,
        "longitude": 13.07483
    },
    {
        "name": "Аксвалль",
        "latitude": 58.38333,
        "longitude": 13.56667
    },
    {
        "name": "Бенгтсфорс",
        "latitude": 59.02912,
        "longitude": 12.23207
    },
    {
        "name": "Биллдал",
        "latitude": 57.56667,
        "longitude": 11.93333
    },
    {
        "name": "Биллингсфорс",
        "latitude": 58.98333,
        "longitude": 12.25
    },
    {
        "name": "Бьёрбохольм",
        "latitude": 57.87096,
        "longitude": 12.32546
    },
    {
        "name": "Остров Бьорк",
        "latitude": 57.73221,
        "longitude": 11.67916
    },
    {
        "name": "Бьорланд",
        "latitude": 57.76667,
        "longitude": 11.83333
    },
    {
        "name": "Боллебигд",
        "latitude": 57.66866,
        "longitude": 12.57272
    },
    {
        "name": "Борос",
        "latitude": 57.73783,
        "longitude": 12.94076
    },
    {
        "name": "Дух драки",
        "latitude": 58.56344,
        "longitude": 12.34923
    },
    {
        "name": "Брастад",
        "latitude": 58.38333,
        "longitude": 11.48333
    },
    {
        "name": "Далс Лонгед",
        "latitude": 58.92555,
        "longitude": 12.30865
    },
    {
        "name": "Дальшёфорс",
        "latitude": 57.71667,
        "longitude": 13.08333
    },
    {
        "name": "Дымка красная",
        "latitude": 57.92636,
        "longitude": 12.02598
    },
    {
        "name": "Остров Дон",
        "latitude": 57.6,
        "longitude": 11.79917
    },
    {
        "name": "Эд",
        "latitude": 58.91247,
        "longitude": 11.93308
    },
    {
        "name": "Без электричества",
        "latitude": 58.18333,
        "longitude": 11.46667
    },
    {
        "name": "Эриксбо",
        "latitude": 57.77141,
        "longitude": 12.04183
    },
    {
        "name": "Фальчёпинг",
        "latitude": 58.17347,
        "longitude": 13.55068
    },
    {
        "name": "Цветовой дух",
        "latitude": 58.56816,
        "longitude": 11.99235
    },
    {
        "name": "Флоби",
        "latitude": 58.13333,
        "longitude": 13.33333
    },
    {
        "name": "Святилище",
        "latitude": 57.82483,
        "longitude": 13.01064
    },
    {
        "name": "Фриц",
        "latitude": 57.55655,
        "longitude": 12.78457
    },
    {
        "name": "Сосновая роща",
        "latitude": 57.71667,
        "longitude": 12.13333
    },
    {
        "name": "Прогулочные лошади",
        "latitude": 57.7,
        "longitude": 13.01667
    },
    {
        "name": "Дворовый камень",
        "latitude": 57.8048,
        "longitude": 12.02883
    },
    {
        "name": "Получил",
        "latitude": 58.10617,
        "longitude": 12.15254
    },
    {
        "name": "Гетеборг",
        "latitude": 57.70716,
        "longitude": 11.96679
    },
    {
        "name": "Город Гетеборг",
        "latitude": 57.72288,
        "longitude": 11.94577
    },
    {
        "name": "Гете",
        "latitude": 58.52824,
        "longitude": 13.49458
    },
    {
        "name": "Полынь",
        "latitude": 57.83625,
        "longitude": 12.29954
    },
    {
        "name": "Грасторп",
        "latitude": 58.33219,
        "longitude": 12.68122
    },
    {
        "name": "Греббестад",
        "latitude": 58.70248,
        "longitude": 11.25738
    },
    {
        "name": "Золотой жезл",
        "latitude": 58.98615,
        "longitude": 14.09644
    },
    {
        "name": "Хаммер-Хилл",
        "latitude": 57.78049,
        "longitude": 12.03604
    },
    {
        "name": "Хенон",
        "latitude": 58.23848,
        "longitude": 11.67598
    },
    {
        "name": "Херрлунга",
        "latitude": 58.07739,
        "longitude": 13.02662
    },
    {
        "name": "Хиндос",
        "latitude": 57.70338,
        "longitude": 12.44657
    },
    {
        "name": "Привет",
        "latitude": 58.30133,
        "longitude": 14.28784
    },
    {
        "name": "Хьювик",
        "latitude": 57.70167,
        "longitude": 11.71639
    },
    {
        "name": "Хёнё",
        "latitude": 57.68972,
        "longitude": 11.64972
    },
    {
        "name": "в ужасе",
        "latitude": 57.35475,
        "longitude": 12.47777
    },
    {
        "name": "Где",
        "latitude": 58.85363,
        "longitude": 14.21914
    },
    {
        "name": "Хёвикснес",
        "latitude": 58.03333,
        "longitude": 11.76667
    },
    {
        "name": "Хуннебостранд",
        "latitude": 58.44127,
        "longitude": 11.3032
    },
    {
        "name": "внесенный",
        "latitude": 57.85989,
        "longitude": 12.45161
    },
    {
        "name": "Джонсторп",
        "latitude": 58.0,
        "longitude": 12.71667
    },
    {
        "name": "в Йорланде",
        "latitude": 57.9863,
        "longitude": 11.82943
    },
    {
        "name": "Келлби",
        "latitude": 58.50999,
        "longitude": 13.30582
    },
    {
        "name": "Сетка для капусты",
        "latitude": 57.60992,
        "longitude": 12.05106
    },
    {
        "name": "Карлсборг",
        "latitude": 58.53724,
        "longitude": 14.5047
    },
    {
        "name": "Щека",
        "latitude": 57.50728,
        "longitude": 12.69463
    },
    {
        "name": "Код",
        "latitude": 57.94263,
        "longitude": 11.85051
    },
    {
        "name": "Кинг Ривер",
        "latitude": 57.87096,
        "longitude": 11.98054
    },
    {
        "name": "Кунгсхамн",
        "latitude": 58.36305,
        "longitude": 11.25938
    },
    {
        "name": "Женское имя",
        "latitude": 58.3,
        "longitude": 13.18333
    },
    {
        "name": "Земельные ветеринары",
        "latitude": 57.68665,
        "longitude": 12.21169
    },
    {
        "name": "Длинный дом",
        "latitude": 57.6,
        "longitude": 13.23333
    },
    {
        "name": "Грязевая комната",
        "latitude": 57.77051,
        "longitude": 12.26904
    },
    {
        "name": "Лидчёпинг",
        "latitude": 58.50517,
        "longitude": 13.15765
    },
    {
        "name": "Маленькая Ода",
        "latitude": 58.13333,
        "longitude": 12.13333
    },
    {
        "name": "Клееный",
        "latitude": 57.53592,
        "longitude": 13.35566
    },
    {
        "name": "Линдоме",
        "latitude": 57.56667,
        "longitude": 12.08333
    },
    {
        "name": "вереск клин",
        "latitude": 58.22452,
        "longitude": 11.92014
    },
    {
        "name": "Свинцовый глаз",
        "latitude": 58.02994,
        "longitude": 12.15934
    },
    {
        "name": "Листва",
        "latitude": 57.81555,
        "longitude": 12.03861
    },
    {
        "name": "Легкая танкетка",
        "latitude": 58.27429,
        "longitude": 11.43576
    },
    {
        "name": "Крупнейшие компании",
        "latitude": 57.69195,
        "longitude": 11.91605
    },
    {
        "name": "Мариестад",
        "latitude": 58.70971,
        "longitude": 13.82367
    },
    {
        "name": "Меллеруд",
        "latitude": 58.69979,
        "longitude": 12.45312
    },
    {
        "name": "Мёллторп",
        "latitude": 58.5,
        "longitude": 14.4
    },
    {
        "name": "Мьёльндаль",
        "latitude": 57.6554,
        "longitude": 12.01378
    },
    {
        "name": "В Мёльнлик",
        "latitude": 57.65893,
        "longitude": 12.11792
    },
    {
        "name": "Мункедал",
        "latitude": 58.46634,
        "longitude": 11.67345
    },
    {
        "name": "Комариный нос",
        "latitude": 58.06176,
        "longitude": 11.74936
    },
    {
        "name": "Нольвик",
        "latitude": 57.775,
        "longitude": 11.83333
    },
    {
        "name": "Носский мост",
        "latitude": 58.18808,
        "longitude": 12.71599
    },
    {
        "name": "Окэрио",
        "latitude": 57.70814,
        "longitude": 11.65585
    },
    {
        "name": "Судьба",
        "latitude": 58.1,
        "longitude": 11.85
    },
    {
        "name": "Ойерсио",
        "latitude": 57.69882,
        "longitude": 12.13448
    },
    {
        "name": "Олофсторп",
        "latitude": 57.80444,
        "longitude": 12.17131
    },
    {
        "name": "Ольсторп",
        "latitude": 57.82277,
        "longitude": 12.27696
    },
    {
        "name": "Беспорядки",
        "latitude": 58.18025,
        "longitude": 11.63419
    },
    {
        "name": "Много",
        "latitude": 57.7395,
        "longitude": 12.10642
    },
    {
        "name": "Раннеберген",
        "latitude": 57.80236,
        "longitude": 12.07131
    },
    {
        "name": "Фоксленд",
        "latitude": 57.65338,
        "longitude": 12.49791
    },
    {
        "name": "Рённенг",
        "latitude": 57.93333,
        "longitude": 11.58333
    },
    {
        "name": "Как это",
        "latitude": 57.98333,
        "longitude": 12.21667
    },
    {
        "name": "Сандаред",
        "latitude": 57.70992,
        "longitude": 12.79238
    },
    {
        "name": "Садиться",
        "latitude": 57.54172,
        "longitude": 12.43429
    },
    {
        "name": "Сьомаркен",
        "latitude": 57.71533,
        "longitude": 12.83495
    },
    {
        "name": "Сюнторп",
        "latitude": 58.2,
        "longitude": 12.21667
    },
    {
        "name": "Толпа",
        "latitude": 58.38659,
        "longitude": 13.43836
    },
    {
        "name": "Скархамн",
        "latitude": 57.98665,
        "longitude": 11.55742
    },
    {
        "name": "Корабельная земля",
        "latitude": 57.98333,
        "longitude": 12.2
    },
    {
        "name": "В скиве",
        "latitude": 58.39118,
        "longitude": 13.84506
    },
    {
        "name": "Скулторп",
        "latitude": 58.35,
        "longitude": 13.83333
    },
    {
        "name": "Смог",
        "latitude": 58.35593,
        "longitude": 11.22411
    },
    {
        "name": "Соллебрунн",
        "latitude": 58.11667,
        "longitude": 12.53333
    },
    {
        "name": "Каменный холм",
        "latitude": 57.79476,
        "longitude": 12.31688
    },
    {
        "name": "Стенсторп",
        "latitude": 58.27254,
        "longitude": 13.71454
    },
    {
        "name": "Стенунгсунд",
        "latitude": 58.07046,
        "longitude": 11.8181
    },
    {
        "name": "Останавливаться",
        "latitude": 58.47802,
        "longitude": 13.86611
    },
    {
        "name": "Великий Хай",
        "latitude": 58.01667,
        "longitude": 11.83333
    },
    {
        "name": "Стрёмстад",
        "latitude": 58.93945,
        "longitude": 11.1712
    },
    {
        "name": "Антилопа",
        "latitude": 57.61639,
        "longitude": 11.78556
    },
    {
        "name": "Сюрте",
        "latitude": 57.82533,
        "longitude": 12.01604
    },
    {
        "name": "Лебединый звук",
        "latitude": 58.14292,
        "longitude": 11.81821
    },
    {
        "name": "Свенлюнга",
        "latitude": 57.49551,
        "longitude": 13.11078
    },
    {
        "name": "Танум тепло",
        "latitude": 58.72385,
        "longitude": 11.32587
    },
    {
        "name": "Тибро",
        "latitude": 58.42453,
        "longitude": 14.16162
    },
    {
        "name": "Тидахольм",
        "latitude": 58.18035,
        "longitude": 13.95824
    },
    {
        "name": "Воровской клин",
        "latitude": 57.9,
        "longitude": 11.73333
    },
    {
        "name": "Торебода",
        "latitude": 58.70739,
        "longitude": 14.12597
    },
    {
        "name": "Торсланда",
        "latitude": 57.72432,
        "longitude": 11.77013
    },
    {
        "name": "Транемо",
        "latitude": 57.48333,
        "longitude": 13.35
    },
    {
        "name": "Шляпа тролля",
        "latitude": 58.21208,
        "longitude": 12.35033
    },
    {
        "name": "Уддевалла",
        "latitude": 58.34784,
        "longitude": 11.9424
    },
    {
        "name": "Ульрисехамн",
        "latitude": 57.79159,
        "longitude": 13.41422
    },
    {
        "name": "Венерсборг",
        "latitude": 58.38075,
        "longitude": 12.3234
    },
    {
        "name": "Быть",
        "latitude": 58.26234,
        "longitude": 12.95413
    },
    {
        "name": "Варгорда",
        "latitude": 58.03706,
        "longitude": 12.80907
    },
    {
        "name": "оборотень",
        "latitude": 58.35599,
        "longitude": 12.3906
    },
    {
        "name": "Западная Фрелунда",
        "latitude": 57.64667,
        "longitude": 11.92944
    },
    {
        "name": "Победа",
        "latitude": 58.45,
        "longitude": 13.26667
    },
    {
        "name": "Вискафорс",
        "latitude": 57.62941,
        "longitude": 12.8489
    }
]