[
    {
        "name": "Тин Хилл",
        "latitude": 1.3294,
        "longitude": 103.8021
    },
    {
        "name": "Центр города Ядро",
        "latitude": 1.278,
        "longitude": 103.852
    },
    {
        "name": "Гейланг",
        "latitude": 1.3182,
        "longitude": 103.8871
    },
    {
        "name": "Калланг",
        "latitude": 1.3106,
        "longitude": 103.866
    },
    {
        "name": "Морской парад",
        "latitude": 1.303,
        "longitude": 103.9072
    },
    {
        "name": "Новена",
        "latitude": 1.3201,
        "longitude": 103.8439
    },
    {
        "name": "Орчард Роуд",
        "latitude": 1.3036,
        "longitude": 103.8318
    },
    {
        "name": "Аутрам",
        "latitude": 1.2819,
        "longitude": 103.839
    },
    {
        "name": "Рочор",
        "latitude": 1.3049,
        "longitude": 103.852
    },
    {
        "name": "Сингапур",
        "latitude": 1.28967,
        "longitude": 103.85007
    },
    {
        "name": "Танджонг Пагар",
        "latitude": 1.2764,
        "longitude": 103.8434
    },
    {
        "name": "Тоа Пайо",
        "latitude": 1.3354,
        "longitude": 103.8497
    },
    {
        "name": "Мо Кио",
        "latitude": 1.3698,
        "longitude": 103.8461
    },
    {
        "name": "Хуган",
        "latitude": 1.3736,
        "longitude": 103.8867
    },
    {
        "name": "Пунггол",
        "latitude": 1.4051,
        "longitude": 103.9023
    },
    {
        "name": "Сенгкан",
        "latitude": 1.3901,
        "longitude": 103.8952
    },
    {
        "name": "Серангун",
        "latitude": 1.3496,
        "longitude": 103.8737
    },
    {
        "name": "Сембаванг",
        "latitude": 1.4491,
        "longitude": 103.8201
    },
    {
        "name": "Вудлендс",
        "latitude": 1.43801,
        "longitude": 103.78877
    },
    {
        "name": "Ишунь",
        "latitude": 1.4293,
        "longitude": 103.8355
    },
    {
        "name": "Бедок",
        "latitude": 1.3236,
        "longitude": 103.9273
    },
    {
        "name": "Пасир Рис",
        "latitude": 1.3739,
        "longitude": 103.9493
    },
    {
        "name": "Тампины",
        "latitude": 1.3547,
        "longitude": 103.9437
    },
    {
        "name": "Букит Баток",
        "latitude": 1.3496,
        "longitude": 103.7528
    },
    {
        "name": "Лонг Хилл",
        "latitude": 1.3786,
        "longitude": 103.7626
    },
    {
        "name": "Джуронг Вест",
        "latitude": 1.3396,
        "longitude": 103.7073
    }
]