[
    {
        "name": "Айдовщина",
        "latitude": 45.88601,
        "longitude": 13.90946
    },
    {
        "name": "Проспекты",
        "latitude": 46.34408,
        "longitude": 15.99472
    },
    {
        "name": "Локавец",
        "latitude": 45.90167,
        "longitude": 13.87972
    },
    {
        "name": "Анкаран",
        "latitude": 45.57861,
        "longitude": 13.73611
    },
    {
        "name": "Бельтинчи",
        "latitude": 46.60528,
        "longitude": 16.24056
    },
    {
        "name": "Ганцы",
        "latitude": 46.6325,
        "longitude": 16.25111
    },
    {
        "name": "Липовцы",
        "latitude": 46.62833,
        "longitude": 16.22806
    },
    {
        "name": "Згорне Горье",
        "latitude": 46.37962,
        "longitude": 14.06937
    },
    {
        "name": "Бенедикт",
        "latitude": 46.60861,
        "longitude": 15.88833
    },
    {
        "name": "Бистрица возле Сотлы",
        "latitude": 46.05889,
        "longitude": 15.66417
    },
    {
        "name": "Блед",
        "latitude": 46.36917,
        "longitude": 14.11361
    },
    {
        "name": "Костаньевича на Крке",
        "latitude": 45.84611,
        "longitude": 15.42222
    },
    {
        "name": "Засыпка",
        "latitude": 46.39284,
        "longitude": 14.10869
    },
    {
        "name": "Нова Вас",
        "latitude": 45.77167,
        "longitude": 14.50583
    },
    {
        "name": "Бохиньска-Бистрица",
        "latitude": 46.27216,
        "longitude": 13.9535
    },
    {
        "name": "Драгометр",
        "latitude": 46.01667,
        "longitude": 14.38333
    },
    {
        "name": "Вход возле Брезовицы",
        "latitude": 46.01667,
        "longitude": 14.36667
    },
    {
        "name": "Черника",
        "latitude": 45.91583,
        "longitude": 14.36306
    },
    {
        "name": "Маколе",
        "latitude": 46.31722,
        "longitude": 15.66722
    },
    {
        "name": "Бовец",
        "latitude": 46.33808,
        "longitude": 13.55245
    },
    {
        "name": "Мирна",
        "latitude": 45.95528,
        "longitude": 15.06194
    },
    {
        "name": "Брасловче",
        "latitude": 46.28972,
        "longitude": 15.03889
    },
    {
        "name": "Добро",
        "latitude": 45.99639,
        "longitude": 13.52639
    },
    {
        "name": "мокрая нога",
        "latitude": 45.93417,
        "longitude": 15.14083
    },
    {
        "name": "Брежице",
        "latitude": 45.90333,
        "longitude": 15.59111
    },
    {
        "name": "поляки",
        "latitude": 46.31194,
        "longitude": 15.57917
    },
    {
        "name": "Брезовица недалеко от Любляны",
        "latitude": 46.03333,
        "longitude": 14.4
    },
    {
        "name": "Внутренняя Горица",
        "latitude": 45.9875,
        "longitude": 14.39889
    },
    {
        "name": "Муниципалитет Любляна-Вик-Рудник",
        "latitude": 46.03333,
        "longitude": 14.41667
    },
    {
        "name": "Речица вдоль Савиньи",
        "latitude": 46.31667,
        "longitude": 14.91667
    },
    {
        "name": "Внанье Горица",
        "latitude": 46.00722,
        "longitude": 14.42194
    },
    {
        "name": "Цанкова",
        "latitude": 46.72083,
        "longitude": 16.0225
    },
    {
        "name": "Церкле в Гореньско",
        "latitude": 46.25417,
        "longitude": 14.48861
    },
    {
        "name": "Церкница",
        "latitude": 45.79306,
        "longitude": 14.3625
    },
    {
        "name": "Рак",
        "latitude": 45.81333,
        "longitude": 14.31111
    },
    {
        "name": "Церковь",
        "latitude": 46.12556,
        "longitude": 13.98167
    },
    {
        "name": "Церковный человек",
        "latitude": 46.57056,
        "longitude": 15.94361
    },
    {
        "name": "Целье",
        "latitude": 46.23092,
        "longitude": 15.26044
    },
    {
        "name": "Любящий",
        "latitude": 46.25567,
        "longitude": 15.3243
    },
    {
        "name": "Трновле возле Целе",
        "latitude": 46.25667,
        "longitude": 15.29528
    },
    {
        "name": "Новый город",
        "latitude": 45.80397,
        "longitude": 15.16886
    },
    {
        "name": "Чреншовцы",
        "latitude": 46.55794,
        "longitude": 16.3041
    },
    {
        "name": "Черный в Каринтии",
        "latitude": 46.47045,
        "longitude": 14.85009
    },
    {
        "name": "Чрномель",
        "latitude": 45.57111,
        "longitude": 15.18889
    },
    {
        "name": "Разнорабочий",
        "latitude": 46.49254,
        "longitude": 15.87893
    },
    {
        "name": "Дивача",
        "latitude": 45.68472,
        "longitude": 13.97028
    },
    {
        "name": "Находится недалеко от Планины.",
        "latitude": 46.13747,
        "longitude": 15.39412
    },
    {
        "name": "Я понимаю",
        "latitude": 45.85,
        "longitude": 14.69417
    },
    {
        "name": "Хороший",
        "latitude": 46.3375,
        "longitude": 15.22639
    },
    {
        "name": "Доброва",
        "latitude": 46.0458,
        "longitude": 14.39186
    },
    {
        "name": "Кредитная карта",
        "latitude": 46.65139,
        "longitude": 16.3525
    },
    {
        "name": "Внизу возле Любляны",
        "latitude": 46.08861,
        "longitude": 14.60083
    },
    {
        "name": "Доленьске Топлице",
        "latitude": 45.75657,
        "longitude": 15.05917
    },
    {
        "name": "Доб",
        "latitude": 46.15194,
        "longitude": 14.62861
    },
    {
        "name": "Извини",
        "latitude": 46.13774,
        "longitude": 14.59371
    },
    {
        "name": "Радомле",
        "latitude": 46.17361,
        "longitude": 14.61222
    },
    {
        "name": "Для",
        "latitude": 46.15325,
        "longitude": 14.60741
    },
    {
        "name": "Дорнава",
        "latitude": 46.43667,
        "longitude": 15.95361
    },
    {
        "name": "Дравоград",
        "latitude": 46.58806,
        "longitude": 15.01917
    },
    {
        "name": "Нижний дуплекс",
        "latitude": 46.50306,
        "longitude": 15.74528
    },
    {
        "name": "Верхний Дуплекс",
        "latitude": 46.51361,
        "longitude": 15.72083
    },
    {
        "name": "Горенья Вас",
        "latitude": 46.10722,
        "longitude": 14.14806
    },
    {
        "name": "Камин",
        "latitude": 46.41472,
        "longitude": 16.01389
    },
    {
        "name": "Горня Радгона",
        "latitude": 46.67333,
        "longitude": 15.99222
    },
    {
        "name": "Верхний город",
        "latitude": 46.29528,
        "longitude": 14.80833
    },
    {
        "name": "Горни Петровцы",
        "latitude": 46.80528,
        "longitude": 16.2225
    },
    {
        "name": "Град",
        "latitude": 46.8,
        "longitude": 16.1
    },
    {
        "name": "Гросупле",
        "latitude": 45.95556,
        "longitude": 14.65889
    },
    {
        "name": "Шмарье-Сап",
        "latitude": 45.97618,
        "longitude": 14.61177
    },
    {
        "name": "Нижняя Хайдина",
        "latitude": 46.40889,
        "longitude": 15.84694
    },
    {
        "name": "Она хочет тебя",
        "latitude": 46.46667,
        "longitude": 15.66667
    },
    {
        "name": "Радизель",
        "latitude": 46.47444,
        "longitude": 15.65583
    },
    {
        "name": "Рогоза",
        "latitude": 46.5,
        "longitude": 15.68333
    },
    {
        "name": "Низкие потребности",
        "latitude": 46.5,
        "longitude": 15.65
    },
    {
        "name": "Ты идешь",
        "latitude": 46.82333,
        "longitude": 16.33417
    },
    {
        "name": "Хорьюл",
        "latitude": 46.02361,
        "longitude": 14.29917
    },
    {
        "name": "Внизу в Храстнике",
        "latitude": 46.14194,
        "longitude": 15.11278
    },
    {
        "name": "Дубовое дерево",
        "latitude": 46.14611,
        "longitude": 15.08139
    },
    {
        "name": "Козина",
        "latitude": 45.61,
        "longitude": 13.93556
    },
    {
        "name": "Идрия",
        "latitude": 46.00278,
        "longitude": 14.03056
    },
    {
        "name": "Нижняя Идрия",
        "latitude": 46.03194,
        "longitude": 14.02722
    },
    {
        "name": "ИГ",
        "latitude": 45.96028,
        "longitude": 14.52889
    },
    {
        "name": "Иванчна Горица",
        "latitude": 45.93833,
        "longitude": 14.80444
    },
    {
        "name": "Шентвид возле Стички",
        "latitude": 45.95004,
        "longitude": 14.84344
    },
    {
        "name": "Изола",
        "latitude": 45.53694,
        "longitude": 13.66194
    },
    {
        "name": "Клубника",
        "latitude": 45.52845,
        "longitude": 13.64721
    },
    {
        "name": "Груша",
        "latitude": 46.445,
        "longitude": 14.01778
    },
    {
        "name": "Есенице",
        "latitude": 46.43056,
        "longitude": 14.06694
    },
    {
        "name": "Каринтия Уайт",
        "latitude": 46.44913,
        "longitude": 14.11135
    },
    {
        "name": "Словенский Яворник",
        "latitude": 46.42611,
        "longitude": 14.08722
    },
    {
        "name": "Згорне Езерска",
        "latitude": 46.3941,
        "longitude": 14.50659
    },
    {
        "name": "Юршинцы",
        "latitude": 46.48472,
        "longitude": 15.97139
    },
    {
        "name": "Камень",
        "latitude": 46.22587,
        "longitude": 14.61207
    },
    {
        "name": "Отруби",
        "latitude": 46.23333,
        "longitude": 14.61667
    },
    {
        "name": "Отметка",
        "latitude": 46.19333,
        "longitude": 14.59667
    },
    {
        "name": "Доски",
        "latitude": 46.05307,
        "longitude": 13.61382
    },
    {
        "name": "Канал",
        "latitude": 46.08861,
        "longitude": 13.63972
    },
    {
        "name": "Кидричево",
        "latitude": 46.40361,
        "longitude": 15.79111
    },
    {
        "name": "Кобарид",
        "latitude": 46.24761,
        "longitude": 13.57907
    },
    {
        "name": "Марес",
        "latitude": 46.68472,
        "longitude": 16.39778
    },
    {
        "name": "Коттедж",
        "latitude": 45.64333,
        "longitude": 14.86333
    },
    {
        "name": "Приходить",
        "latitude": 45.81528,
        "longitude": 13.74833
    },
    {
        "name": "Команда",
        "latitude": 46.20484,
        "longitude": 14.53839
    },
    {
        "name": "Мосты",
        "latitude": 46.195,
        "longitude": 14.55139
    },
    {
        "name": "декан",
        "latitude": 45.54972,
        "longitude": 13.81361
    },
    {
        "name": "хорваты",
        "latitude": 45.58278,
        "longitude": 13.75667
    },
    {
        "name": "Покупатель",
        "latitude": 45.54694,
        "longitude": 13.72944
    },
    {
        "name": "Pobegi",
        "latitude": 45.53944,
        "longitude": 13.79611
    },
    {
        "name": "Добыча",
        "latitude": 45.54003,
        "longitude": 13.77607
    },
    {
        "name": "Нижняя епархия",
        "latitude": 45.57167,
        "longitude": 13.7925
    },
    {
        "name": "Св. Антон",
        "latitude": 45.52583,
        "longitude": 13.83194
    },
    {
        "name": "Церковь",
        "latitude": 45.50842,
        "longitude": 14.91005
    },
    {
        "name": "Козы",
        "latitude": 46.075,
        "longitude": 15.56028
    },
    {
        "name": "Бритоф",
        "latitude": 46.26024,
        "longitude": 14.39037
    },
    {
        "name": "Гольник",
        "latitude": 46.33333,
        "longitude": 14.33333
    },
    {
        "name": "Кокрица",
        "latitude": 46.27028,
        "longitude": 14.36111
    },
    {
        "name": "Крань",
        "latitude": 46.23887,
        "longitude": 14.35561
    },
    {
        "name": "Млака возле Краня",
        "latitude": 46.28333,
        "longitude": 14.35
    },
    {
        "name": "Згорне Битне",
        "latitude": 46.22,
        "longitude": 14.33667
    },
    {
        "name": "Краньска Гора",
        "latitude": 46.45689,
        "longitude": 13.77824
    },
    {
        "name": "Главная страница",
        "latitude": 46.42383,
        "longitude": 13.8752
    },
    {
        "name": "Крижевцы возле Лютомера",
        "latitude": 46.56833,
        "longitude": 16.13861
    },
    {
        "name": "Верхняя Кунгота",
        "latitude": 46.63917,
        "longitude": 15.61556
    },
    {
        "name": "Кузьма",
        "latitude": 46.83694,
        "longitude": 16.08333
    },
    {
        "name": "Ласка",
        "latitude": 46.15463,
        "longitude": 15.23555
    },
    {
        "name": "Ленарт на словенском языке. Гориция",
        "latitude": 46.57611,
        "longitude": 15.83139
    },
    {
        "name": "Лендава",
        "latitude": 46.56494,
        "longitude": 16.45091
    },
    {
        "name": "Литий",
        "latitude": 46.05861,
        "longitude": 14.8225
    },
    {
        "name": "Дравльский район",
        "latitude": 46.0729,
        "longitude": 14.44741
    },
    {
        "name": "Яршеский район",
        "latitude": 46.07345,
        "longitude": 14.55431
    },
    {
        "name": "Любляна",
        "latitude": 46.05108,
        "longitude": 14.50513
    },
    {
        "name": "Муниципалитет Любляна-Бежиград",
        "latitude": 46.08333,
        "longitude": 14.53333
    },
    {
        "name": "Муниципалитет Любляны-Центр",
        "latitude": 46.05,
        "longitude": 14.53333
    },
    {
        "name": "Муниципалитет Любляна-Мосте-Поле",
        "latitude": 46.06667,
        "longitude": 14.61667
    },
    {
        "name": "Рожникский район",
        "latitude": 46.05999,
        "longitude": 14.46779
    },
    {
        "name": "Шентвидский район",
        "latitude": 46.10559,
        "longitude": 14.43329
    },
    {
        "name": "Состроцкий район",
        "latitude": 46.04341,
        "longitude": 14.67293
    },
    {
        "name": "Трновский район",
        "latitude": 46.02412,
        "longitude": 14.48891
    },
    {
        "name": "Вичский район",
        "latitude": 46.00779,
        "longitude": 14.46968
    },
    {
        "name": "Прекрасно от Савиньи",
        "latitude": 46.34358,
        "longitude": 14.83377
    },
    {
        "name": "Теплосчетчик",
        "latitude": 46.52083,
        "longitude": 16.1975
    },
    {
        "name": "Логатек",
        "latitude": 45.91444,
        "longitude": 14.22583
    },
    {
        "name": "Leskova Dolina",
        "latitude": 45.62139,
        "longitude": 14.46056
    },
    {
        "name": "Гриб-Лошки Поток",
        "latitude": 45.70688,
        "longitude": 14.61674
    },
    {
        "name": "Ловренц на Погорье",
        "latitude": 46.54056,
        "longitude": 15.39306
    },
    {
        "name": "Они сияют",
        "latitude": 46.35611,
        "longitude": 14.74667
    },
    {
        "name": "Луковица возле Домжале",
        "latitude": 46.16988,
        "longitude": 14.69179
    },
    {
        "name": "Майшперк",
        "latitude": 46.35167,
        "longitude": 15.73361
    },
    {
        "name": "Брестерница",
        "latitude": 46.56972,
        "longitude": 15.575
    },
    {
        "name": "Камница",
        "latitude": 46.57444,
        "longitude": 15.61417
    },
    {
        "name": "Лимбус",
        "latitude": 46.55361,
        "longitude": 15.58361
    },
    {
        "name": "Марибор",
        "latitude": 46.55472,
        "longitude": 15.64667
    },
    {
        "name": "Пекари",
        "latitude": 46.54722,
        "longitude": 15.59556
    },
    {
        "name": "Разработка",
        "latitude": 46.51444,
        "longitude": 15.63611
    },
    {
        "name": "Марковци",
        "latitude": 46.39557,
        "longitude": 15.92831
    },
    {
        "name": "Медвежьи воды",
        "latitude": 46.1422,
        "longitude": 14.41114
    },
    {
        "name": "Муниципалитет [исторический] Любляна-Шишка",
        "latitude": 46.16667,
        "longitude": 14.43333
    },
    {
        "name": "Згорне Пирниче",
        "latitude": 46.14251,
        "longitude": 14.43158
    },
    {
        "name": "Менгеш",
        "latitude": 46.16694,
        "longitude": 14.575
    },
    {
        "name": "Пресерье возле Радомле",
        "latitude": 46.16911,
        "longitude": 14.59698
    },
    {
        "name": "Венчик",
        "latitude": 45.64722,
        "longitude": 15.31417
    },
    {
        "name": "Глазное яблоко",
        "latitude": 46.52139,
        "longitude": 14.85444
    },
    {
        "name": "Николая в Дравско Поле",
        "latitude": 46.50583,
        "longitude": 15.69722
    },
    {
        "name": "Растения",
        "latitude": 45.89444,
        "longitude": 13.63222
    },
    {
        "name": "Мира",
        "latitude": 45.89556,
        "longitude": 13.6075
    },
    {
        "name": "Мирна Пец",
        "latitude": 45.86028,
        "longitude": 15.08333
    },
    {
        "name": "Мысли",
        "latitude": 46.44141,
        "longitude": 15.20027
    },
    {
        "name": "Моравче",
        "latitude": 46.13694,
        "longitude": 14.745
    },
    {
        "name": "Моравске Топлице",
        "latitude": 46.68313,
        "longitude": 16.2208
    },
    {
        "name": "Мозырь",
        "latitude": 46.33944,
        "longitude": 14.96333
    },
    {
        "name": "Апачи",
        "latitude": 46.69722,
        "longitude": 15.91056
    },
    {
        "name": "Иллирийская Бистрица",
        "latitude": 45.56757,
        "longitude": 14.24571
    },
    {
        "name": "Крско",
        "latitude": 45.95915,
        "longitude": 15.49167
    },
    {
        "name": "Лесковец возле Кршко",
        "latitude": 45.93566,
        "longitude": 15.47184
    },
    {
        "name": "Сенова",
        "latitude": 46.02361,
        "longitude": 15.47694
    },
    {
        "name": "Лаврица",
        "latitude": 46.00002,
        "longitude": 14.5573
    },
    {
        "name": "Совок",
        "latitude": 45.98333,
        "longitude": 14.57667
    },
    {
        "name": "Баковцы",
        "latitude": 46.61889,
        "longitude": 16.15028
    },
    {
        "name": "Черновцы",
        "latitude": 46.66667,
        "longitude": 16.13333
    },
    {
        "name": "Круг",
        "latitude": 46.63806,
        "longitude": 16.14139
    },
    {
        "name": "Мурска Собота",
        "latitude": 46.6625,
        "longitude": 16.16639
    },
    {
        "name": "Ракикан",
        "latitude": 46.65167,
        "longitude": 16.20417
    },
    {
        "name": "Мута",
        "latitude": 46.61139,
        "longitude": 15.16611
    },
    {
        "name": "Случайно",
        "latitude": 46.27278,
        "longitude": 14.31722
    },
    {
        "name": "Назаряне",
        "latitude": 46.31757,
        "longitude": 14.94674
    },
    {
        "name": "Кромберк",
        "latitude": 45.96083,
        "longitude": 13.66556
    },
    {
        "name": "Новая Горица",
        "latitude": 45.95604,
        "longitude": 13.64837
    },
    {
        "name": "Чемпионат",
        "latitude": 45.89,
        "longitude": 13.71806
    },
    {
        "name": "Шемпы",
        "latitude": 45.93028,
        "longitude": 13.74361
    },
    {
        "name": "Солкан",
        "latitude": 45.97139,
        "longitude": 13.64944
    },
    {
        "name": "Изгои",
        "latitude": 46.58667,
        "longitude": 16.28028
    },
    {
        "name": "Щит",
        "latitude": 46.38778,
        "longitude": 15.44667
    },
    {
        "name": "Ормож",
        "latitude": 46.41139,
        "longitude": 16.15444
    },
    {
        "name": "Хулиган",
        "latitude": 45.52914,
        "longitude": 14.69838
    },
    {
        "name": "Поэт под Марибором",
        "latitude": 46.60694,
        "longitude": 15.67667
    },
    {
        "name": "Люсия",
        "latitude": 45.50526,
        "longitude": 13.6024
    },
    {
        "name": "Пиранья",
        "latitude": 45.52778,
        "longitude": 13.57056
    },
    {
        "name": "Порторож",
        "latitude": 45.51429,
        "longitude": 13.59206
    },
    {
        "name": "Добыча",
        "latitude": 45.49584,
        "longitude": 13.61466
    },
    {
        "name": "Пиво",
        "latitude": 45.68292,
        "longitude": 14.19588
    },
    {
        "name": "субчетверг",
        "latitude": 46.15694,
        "longitude": 15.59861
    },
    {
        "name": "Подчиненный",
        "latitude": 46.33528,
        "longitude": 15.88
    },
    {
        "name": "Низкорослый",
        "latitude": 46.58694,
        "longitude": 15.33056
    },
    {
        "name": "Она ползла",
        "latitude": 46.28333,
        "longitude": 15.06667
    },
    {
        "name": "Устойчивый",
        "latitude": 45.77435,
        "longitude": 14.21528
    },
    {
        "name": "Слишком жирный",
        "latitude": 46.23694,
        "longitude": 15.0925
    },
    {
        "name": "Лобби",
        "latitude": 46.3025,
        "longitude": 14.42306
    },
    {
        "name": "Проход",
        "latitude": 46.54694,
        "longitude": 14.92083
    },
    {
        "name": "Птуй",
        "latitude": 46.42005,
        "longitude": 15.87018
    },
    {
        "name": "Пукончи",
        "latitude": 46.70667,
        "longitude": 16.15639
    },
    {
        "name": "вперед",
        "latitude": 46.456,
        "longitude": 15.63007
    },
    {
        "name": "Море",
        "latitude": 46.44444,
        "longitude": 15.62139
    },
    {
        "name": "Утки",
        "latitude": 46.45194,
        "longitude": 15.68139
    },
    {
        "name": "Скорее",
        "latitude": 46.06806,
        "longitude": 15.18389
    },
    {
        "name": "Раденци",
        "latitude": 46.64201,
        "longitude": 16.03781
    },
    {
        "name": "Радлье вдоль реки Драва",
        "latitude": 46.61417,
        "longitude": 15.22639
    },
    {
        "name": "Леска",
        "latitude": 46.36111,
        "longitude": 14.15778
    },
    {
        "name": "Радовлица",
        "latitude": 46.34444,
        "longitude": 14.17444
    },
    {
        "name": "Котлы",
        "latitude": 46.52139,
        "longitude": 14.98694
    },
    {
        "name": "Даже в Каринтии",
        "latitude": 46.54306,
        "longitude": 14.96917
    },
    {
        "name": "Перекресток",
        "latitude": 46.52167,
        "longitude": 16.28111
    },
    {
        "name": "Он рычит",
        "latitude": 45.89,
        "longitude": 13.66861
    },
    {
        "name": "Волчья Драга",
        "latitude": 45.90694,
        "longitude": 13.6775
    },
    {
        "name": "Пруд",
        "latitude": 45.73861,
        "longitude": 14.7275
    },
    {
        "name": "Пруд в Погорье",
        "latitude": 46.535,
        "longitude": 15.27278
    },
    {
        "name": "Рогашка Слатина",
        "latitude": 46.2375,
        "longitude": 15.63972
    },
    {
        "name": "Рогашовцы",
        "latitude": 46.8,
        "longitude": 16.03333
    },
    {
        "name": "рогоносец",
        "latitude": 46.22944,
        "longitude": 15.70028
    },
    {
        "name": "Бистрица на реке Драва",
        "latitude": 46.55419,
        "longitude": 15.54855
    },
    {
        "name": "Они сносят",
        "latitude": 46.53944,
        "longitude": 15.51583
    },
    {
        "name": "Платки",
        "latitude": 46.825,
        "longitude": 16.29806
    },
    {
        "name": "Сельница вдоль реки Драва",
        "latitude": 46.55,
        "longitude": 15.495
    },
    {
        "name": "Семич",
        "latitude": 45.64611,
        "longitude": 15.18222
    },
    {
        "name": "Долина роз",
        "latitude": 45.94194,
        "longitude": 13.66779
    },
    {
        "name": "Шемпетер возле Горицы",
        "latitude": 45.9275,
        "longitude": 13.64111
    },
    {
        "name": "джакузи",
        "latitude": 45.9125,
        "longitude": 13.63417
    },
    {
        "name": "Дубовое дерево",
        "latitude": 46.21667,
        "longitude": 14.4
    },
    {
        "name": "Сенчур",
        "latitude": 46.24556,
        "longitude": 14.41972
    },
    {
        "name": "Сельница-об-Мур",
        "latitude": 46.68333,
        "longitude": 15.7
    },
    {
        "name": "Шентиль на словенском языке. Гориция",
        "latitude": 46.68167,
        "longitude": 15.64806
    },
    {
        "name": "Шентерней",
        "latitude": 45.84,
        "longitude": 15.33611
    },
    {
        "name": "Сентюр",
        "latitude": 46.21722,
        "longitude": 15.3975
    },
    {
        "name": "Шентруперт",
        "latitude": 45.97778,
        "longitude": 15.09556
    },
    {
        "name": "Севница",
        "latitude": 46.00778,
        "longitude": 15.31556
    },
    {
        "name": "Сежана",
        "latitude": 45.70924,
        "longitude": 13.87333
    },
    {
        "name": "Шотландец",
        "latitude": 45.90667,
        "longitude": 15.29139
    },
    {
        "name": "Епископ Лока",
        "latitude": 46.16551,
        "longitude": 14.30626
    },
    {
        "name": "Св. Призрак",
        "latitude": 46.18333,
        "longitude": 14.33333
    },
    {
        "name": "Место",
        "latitude": 46.50651,
        "longitude": 15.14424
    },
    {
        "name": "Умный",
        "latitude": 46.53417,
        "longitude": 15.07917
    },
    {
        "name": "Словень Градец",
        "latitude": 46.51028,
        "longitude": 15.08056
    },
    {
        "name": "Смарт в Словене Градаце",
        "latitude": 46.48944,
        "longitude": 15.10667
    },
    {
        "name": "Прага",
        "latitude": 46.39667,
        "longitude": 15.66
    },
    {
        "name": "Словенская Бистрица",
        "latitude": 46.39278,
        "longitude": 15.57444
    },
    {
        "name": "Верхняя Польша",
        "latitude": 46.42556,
        "longitude": 15.61222
    },
    {
        "name": "Словенская кавалерия",
        "latitude": 46.33667,
        "longitude": 15.42583
    },
    {
        "name": "Шмарье возле Елше",
        "latitude": 46.22722,
        "longitude": 15.51917
    },
    {
        "name": "Они улыбаются",
        "latitude": 45.88333,
        "longitude": 15.25
    },
    {
        "name": "Умный рядом с Пакой",
        "latitude": 46.33333,
        "longitude": 15.03333
    },
    {
        "name": "Смарт в Литии",
        "latitude": 46.04444,
        "longitude": 14.84417
    },
    {
        "name": "Товарищ",
        "latitude": 45.76111,
        "longitude": 14.63556
    },
    {
        "name": "Солчава",
        "latitude": 46.41944,
        "longitude": 14.69361
    },
    {
        "name": "Уровни",
        "latitude": 46.41413,
        "longitude": 15.06087
    },
    {
        "name": "Шостань",
        "latitude": 46.38,
        "longitude": 15.04861
    },
    {
        "name": "Топольшица",
        "latitude": 46.40028,
        "longitude": 15.02157
    },
    {
        "name": "Центр вдоль Дравы",
        "latitude": 46.39417,
        "longitude": 16.26806
    },
    {
        "name": "Родители",
        "latitude": 46.46583,
        "longitude": 15.76722
    },
    {
        "name": "Выкрикивать",
        "latitude": 46.22083,
        "longitude": 15.31389
    },
    {
        "name": "Сторожить",
        "latitude": 45.78,
        "longitude": 15.07278
    },
    {
        "name": "Св. Анна на словенском языке. Гориция",
        "latitude": 46.64917,
        "longitude": 15.84417
    },
    {
        "name": "Св. Троица на словенском языке. Гориция",
        "latitude": 46.57667,
        "longitude": 15.87694
    },
    {
        "name": "Витомарчи",
        "latitude": 46.5275,
        "longitude": 15.93944
    },
    {
        "name": "Святой Георгий возле Щавницы",
        "latitude": 46.5695,
        "longitude": 16.02347
    },
    {
        "name": "Сент-Томас",
        "latitude": 46.48417,
        "longitude": 16.08361
    },
    {
        "name": "Табор",
        "latitude": 46.23611,
        "longitude": 15.01833
    },
    {
        "name": "Тишина",
        "latitude": 46.65806,
        "longitude": 16.09167
    },
    {
        "name": "Толмин",
        "latitude": 46.18304,
        "longitude": 13.73321
    },
    {
        "name": "Трбовле",
        "latitude": 46.155,
        "longitude": 15.05333
    },
    {
        "name": "Требнье",
        "latitude": 45.90417,
        "longitude": 15.02167
    },
    {
        "name": "Деревня Трновска",
        "latitude": 46.52019,
        "longitude": 15.88657
    },
    {
        "name": "Бистрица возле Тржича",
        "latitude": 46.35472,
        "longitude": 14.29167
    },
    {
        "name": "Рынок",
        "latitude": 46.36357,
        "longitude": 14.31046
    },
    {
        "name": "Чрнучский район",
        "latitude": 46.11506,
        "longitude": 14.55371
    },
    {
        "name": "Трзин",
        "latitude": 46.13333,
        "longitude": 14.56667
    },
    {
        "name": "Турнир",
        "latitude": 46.62778,
        "longitude": 16.32028
    },
    {
        "name": "Велика Поляна",
        "latitude": 46.57194,
        "longitude": 16.34694
    },
    {
        "name": "Велики Лаще",
        "latitude": 45.83222,
        "longitude": 14.63639
    },
    {
        "name": "Верзей",
        "latitude": 46.58361,
        "longitude": 16.16528
    },
    {
        "name": "Я вижу это в Птуе",
        "latitude": 46.36861,
        "longitude": 15.90639
    },
    {
        "name": "Випава",
        "latitude": 45.84667,
        "longitude": 13.96306
    },
    {
        "name": "Добро пожаловать",
        "latitude": 46.38167,
        "longitude": 15.29583
    },
    {
        "name": "Водице",
        "latitude": 46.18987,
        "longitude": 14.49492
    },
    {
        "name": "Солдат",
        "latitude": 46.29333,
        "longitude": 15.30333
    },
    {
        "name": "Ворона",
        "latitude": 46.24389,
        "longitude": 14.95139
    },
    {
        "name": "Зеленый",
        "latitude": 45.95667,
        "longitude": 14.30583
    },
    {
        "name": "Врника",
        "latitude": 45.9635,
        "longitude": 14.29484
    },
    {
        "name": "Иностранец",
        "latitude": 46.59639,
        "longitude": 15.16722
    },
    {
        "name": "выделения",
        "latitude": 46.15,
        "longitude": 14.95
    },
    {
        "name": "Уксус",
        "latitude": 46.13911,
        "longitude": 14.96295
    },
    {
        "name": "Загорье вдоль Савы",
        "latitude": 46.13179,
        "longitude": 14.99694
    },
    {
        "name": "Наличные",
        "latitude": 46.27418,
        "longitude": 15.15186
    },
    {
        "name": "Шемпетер в Савине. Долины",
        "latitude": 46.25639,
        "longitude": 15.12194
    },
    {
        "name": "Забуковица",
        "latitude": 46.21408,
        "longitude": 15.15954
    },
    {
        "name": "Жалец",
        "latitude": 46.25151,
        "longitude": 15.16482
    },
    {
        "name": "Отклонять",
        "latitude": 46.39167,
        "longitude": 16.04972
    },
    {
        "name": "Железнодорожники",
        "latitude": 46.22482,
        "longitude": 14.17205
    },
    {
        "name": "Жнецы",
        "latitude": 46.27356,
        "longitude": 15.82658
    },
    {
        "name": "Жюри",
        "latitude": 46.04222,
        "longitude": 14.10722
    },
    {
        "name": "Жировница",
        "latitude": 46.40472,
        "longitude": 14.14
    },
    {
        "name": "Это падает",
        "latitude": 46.38222,
        "longitude": 15.37917
    },
    {
        "name": "Жужемберк",
        "latitude": 45.83389,
        "longitude": 14.92917
    }
]