[
    {
        "name": "Bansk\u00e1 Bystrica",
        "latitude": 48.73946,
        "longitude": 19.15349
    },
    {
        "name": "Bansk\u00e1 \u0160tiavnica",
        "latitude": 48.44858,
        "longitude": 18.91003
    },
    {
        "name": "Brezno",
        "latitude": 48.80431,
        "longitude": 19.63631
    },
    {
        "name": "\u010cierny Balog",
        "latitude": 48.74722,
        "longitude": 19.65125
    },
    {
        "name": "Detva",
        "latitude": 48.56082,
        "longitude": 19.41954
    },
    {
        "name": "Dudince",
        "latitude": 48.17135,
        "longitude": 18.88782
    },
    {
        "name": "Fi\u013eakovo",
        "latitude": 48.26757,
        "longitude": 19.82473
    },
    {
        "name": "Hri\u0148ov\u00e1",
        "latitude": 48.57787,
        "longitude": 19.52574
    },
    {
        "name": "Hrocho\u0165Slovakia",
        "latitude": 48.65567,
        "longitude": 19.31284
    },
    {
        "name": "Kov\u00e1\u010dov\u00e1",
        "latitude": 48.60148,
        "longitude": 19.10252
    },
    {
        "name": "Kremnica",
        "latitude": 48.70519,
        "longitude": 18.91834
    },
    {
        "name": "Krupina",
        "latitude": 48.3554,
        "longitude": 19.06474
    },
    {
        "name": "Lu\u010denec",
        "latitude": 48.33249,
        "longitude": 19.66708
    },
    {
        "name": "Nov\u00e1 Ba\u0148a",
        "latitude": 48.42305,
        "longitude": 18.64037
    },
    {
        "name": "Okres Bansk\u00e1 Bystrica",
        "latitude": 48.73333,
        "longitude": 19.15
    },
    {
        "name": "Okres Bansk\u00e1 \u0160tiavnica",
        "latitude": 48.44961,
        "longitude": 18.9082
    },
    {
        "name": "Okres Brezno",
        "latitude": 48.8,
        "longitude": 19.75
    },
    {
        "name": "Okres Detva",
        "latitude": 48.55985,
        "longitude": 19.42044
    },
    {
        "name": "Okres Krupina",
        "latitude": 48.35736,
        "longitude": 19.06334
    },
    {
        "name": "Okres Lu\u010denec",
        "latitude": 48.33333,
        "longitude": 19.66667
    },
    {
        "name": "Okres Polt\u00e1r",
        "latitude": 48.42895,
        "longitude": 19.79488
    },
    {
        "name": "Okres Rev\u00faca",
        "latitude": 48.683,
        "longitude": 20.11568
    },
    {
        "name": "Okres Ve\u013ek\u00fd Krt\u00ed\u0161",
        "latitude": 48.2,
        "longitude": 19.35
    },
    {
        "name": "Okres \u017darnovica",
        "latitude": 48.48438,
        "longitude": 18.72076
    },
    {
        "name": "Okres \u017diar nad Hronom",
        "latitude": 48.58333,
        "longitude": 18.86667
    },
    {
        "name": "Okres Zvolen",
        "latitude": 48.58333,
        "longitude": 19.13333
    },
    {
        "name": "Polt\u00e1r",
        "latitude": 48.43094,
        "longitude": 19.79408
    },
    {
        "name": "Rev\u00faca",
        "latitude": 48.68346,
        "longitude": 20.11734
    },
    {
        "name": "Rimavsk\u00e1 Sobota",
        "latitude": 48.38284,
        "longitude": 20.02239
    },
    {
        "name": "Sv\u00e4t\u00fd Anton",
        "latitude": 48.41923,
        "longitude": 18.9401
    },
    {
        "name": "Tisovec",
        "latitude": 48.67738,
        "longitude": 19.94364
    },
    {
        "name": "Ve\u013ek\u00fd Krt\u00ed\u0161",
        "latitude": 48.21059,
        "longitude": 19.35043
    },
    {
        "name": "\u017darnovica",
        "latitude": 48.48123,
        "longitude": 18.71565
    },
    {
        "name": "\u017diar nad Hronom",
        "latitude": 48.59184,
        "longitude": 18.84958
    },
    {
        "name": "Zvolen",
        "latitude": 48.57442,
        "longitude": 19.15324
    },
    {
        "name": "Bratislava",
        "latitude": 48.14816,
        "longitude": 17.10674
    },
    {
        "name": "Bratislava - Vajnory",
        "latitude": 48.20563,
        "longitude": 17.20759
    },
    {
        "name": "Dunajsk\u00e1 Lu\u017en\u00e1",
        "latitude": 48.08347,
        "longitude": 17.26072
    },
    {
        "name": "Ivanka pri Dunaji",
        "latitude": 48.18675,
        "longitude": 17.2554
    },
    {
        "name": "Malacky",
        "latitude": 48.43604,
        "longitude": 17.02188
    },
    {
        "name": "Marianka",
        "latitude": 48.24903,
        "longitude": 17.064
    },
    {
        "name": "Modra",
        "latitude": 48.33397,
        "longitude": 17.30711
    },
    {
        "name": "Okres Bratislava I",
        "latitude": 48.14653,
        "longitude": 17.10584
    },
    {
        "name": "Okres Bratislava II",
        "latitude": 48.1528,
        "longitude": 17.17764
    },
    {
        "name": "Okres Bratislava III",
        "latitude": 48.18543,
        "longitude": 17.1379
    },
    {
        "name": "Okres Bratislava IV",
        "latitude": 48.22787,
        "longitude": 16.99722
    },
    {
        "name": "Okres Bratislava V",
        "latitude": 48.11122,
        "longitude": 17.09444
    },
    {
        "name": "Okres Malacky",
        "latitude": 48.43458,
        "longitude": 17.02166
    },
    {
        "name": "Okres Pezinok",
        "latitude": 48.28785,
        "longitude": 17.26799
    },
    {
        "name": "Okres Senec",
        "latitude": 48.22187,
        "longitude": 17.40328
    },
    {
        "name": "Pezinok",
        "latitude": 48.28986,
        "longitude": 17.26664
    },
    {
        "name": "Senec",
        "latitude": 48.21951,
        "longitude": 17.40043
    },
    {
        "name": "Stupava",
        "latitude": 48.27474,
        "longitude": 17.03173
    },
    {
        "name": "Sv\u00e4t\u00fd Jur",
        "latitude": 48.25216,
        "longitude": 17.21539
    },
    {
        "name": "Vinosady",
        "latitude": 48.31142,
        "longitude": 17.29042
    },
    {
        "name": "\u010cierna nad Tisou",
        "latitude": 48.41704,
        "longitude": 22.08865
    },
    {
        "name": "Dob\u0161in\u00e1",
        "latitude": 48.82073,
        "longitude": 20.36988
    },
    {
        "name": "Gelnica",
        "latitude": 48.85584,
        "longitude": 20.93713
    },
    {
        "name": "Kave\u010dany",
        "latitude": 48.77592,
        "longitude": 21.20587
    },
    {
        "name": "Ko\u0161ice",
        "latitude": 48.71395,
        "longitude": 21.25808
    },
    {
        "name": "Ko\u0161ice I",
        "latitude": 48.72914,
        "longitude": 21.25004
    },
    {
        "name": "Ko\u0161ice II",
        "latitude": 48.69753,
        "longitude": 21.22273
    },
    {
        "name": "Ko\u0161ice III",
        "latitude": 48.73242,
        "longitude": 21.29047
    },
    {
        "name": "Ko\u0161ice IV",
        "latitude": 48.68691,
        "longitude": 21.2657
    },
    {
        "name": "Krompachy",
        "latitude": 48.91447,
        "longitude": 20.87514
    },
    {
        "name": "Medzev",
        "latitude": 48.70041,
        "longitude": 20.89367
    },
    {
        "name": "Michalovce",
        "latitude": 48.75434,
        "longitude": 21.9195
    },
    {
        "name": "Moldava nad Bodvou",
        "latitude": 48.61428,
        "longitude": 20.99957
    },
    {
        "name": "Okres Gelnica",
        "latitude": 48.85207,
        "longitude": 20.93385
    },
    {
        "name": "Okres Kosice-okolie",
        "latitude": 48.77897,
        "longitude": 21.41373
    },
    {
        "name": "Okres Michalovce",
        "latitude": 48.75,
        "longitude": 21.93333
    },
    {
        "name": "Okres Ro\u017e\u0148ava",
        "latitude": 48.66667,
        "longitude": 20.53333
    },
    {
        "name": "Okres Sobrance",
        "latitude": 48.74247,
        "longitude": 22.18197
    },
    {
        "name": "Okres Spi\u0161sk\u00e1 Nov\u00e1 Ves",
        "latitude": 48.95,
        "longitude": 20.56667
    },
    {
        "name": "Okres Trebi\u0161ov",
        "latitude": 48.63333,
        "longitude": 21.71667
    },
    {
        "name": "Ro\u017e\u0148ava",
        "latitude": 48.66009,
        "longitude": 20.53758
    },
    {
        "name": "Se\u010dovce",
        "latitude": 48.70074,
        "longitude": 21.66104
    },
    {
        "name": "Sobrance",
        "latitude": 48.74455,
        "longitude": 22.18136
    },
    {
        "name": "Spi\u0161sk\u00e1 Nov\u00e1 Ves",
        "latitude": 48.94464,
        "longitude": 20.56153
    },
    {
        "name": "Str\u00e1\u017eske",
        "latitude": 48.8735,
        "longitude": 21.83668
    },
    {
        "name": "Trebi\u0161ov",
        "latitude": 48.62858,
        "longitude": 21.71954
    },
    {
        "name": "Vinn\u00e9",
        "latitude": 48.80965,
        "longitude": 21.96757
    },
    {
        "name": "\u017dehra",
        "latitude": 48.9796,
        "longitude": 20.7917
    },
    {
        "name": "Hurbanovo",
        "latitude": 47.86984,
        "longitude": 18.19233
    },
    {
        "name": "Kol\u00e1rovo",
        "latitude": 47.92294,
        "longitude": 17.98467
    },
    {
        "name": "Kom\u00e1rno",
        "latitude": 47.76356,
        "longitude": 18.12263
    },
    {
        "name": "Levice",
        "latitude": 48.21563,
        "longitude": 18.60705
    },
    {
        "name": "Nitra",
        "latitude": 48.30763,
        "longitude": 18.08453
    },
    {
        "name": "Nov\u00e9 Z\u00e1mky",
        "latitude": 47.98544,
        "longitude": 18.16195
    },
    {
        "name": "Okres Kom\u00e1rno",
        "latitude": 47.76667,
        "longitude": 18.13333
    },
    {
        "name": "Okres Levice",
        "latitude": 48.21667,
        "longitude": 18.6
    },
    {
        "name": "Okres Nitra",
        "latitude": 48.31667,
        "longitude": 18.08333
    },
    {
        "name": "Okres Nov\u00e9 Z\u00e1mky",
        "latitude": 47.98333,
        "longitude": 18.16667
    },
    {
        "name": "Okres \u0160a\u013ea",
        "latitude": 48.1477,
        "longitude": 17.87306
    },
    {
        "name": "Okres Topo\u013e\u010dany",
        "latitude": 48.56667,
        "longitude": 18.18333
    },
    {
        "name": "Okres Zlat\u00e9 Moravce",
        "latitude": 48.38294,
        "longitude": 18.39842
    },
    {
        "name": "\u0160ahy",
        "latitude": 48.07408,
        "longitude": 18.94946
    },
    {
        "name": "\u0160a\u013ea",
        "latitude": 48.15127,
        "longitude": 17.88062
    },
    {
        "name": "\u0160t\u00farovo",
        "latitude": 47.79495,
        "longitude": 18.7175
    },
    {
        "name": "\u0160urany",
        "latitude": 48.08613,
        "longitude": 18.18447
    },
    {
        "name": "Svod\u00edn",
        "latitude": 47.91054,
        "longitude": 18.49967
    },
    {
        "name": "Tlma\u010de",
        "latitude": 48.28926,
        "longitude": 18.53152
    },
    {
        "name": "Topo\u013e\u010dany",
        "latitude": 48.56361,
        "longitude": 18.16712
    },
    {
        "name": "Vr\u00e1ble",
        "latitude": 48.24371,
        "longitude": 18.30846
    },
    {
        "name": "\u017deliezovce",
        "latitude": 48.05075,
        "longitude": 18.65421
    },
    {
        "name": "Zlat\u00e9 Moravce",
        "latitude": 48.38553,
        "longitude": 18.40063
    },
    {
        "name": "Bardejov",
        "latitude": 49.29175,
        "longitude": 21.27271
    },
    {
        "name": "Chlmec",
        "latitude": 48.88628,
        "longitude": 21.9393
    },
    {
        "name": "Giraltovce",
        "latitude": 49.11398,
        "longitude": 21.51731
    },
    {
        "name": "Humenn\u00e9",
        "latitude": 48.93707,
        "longitude": 21.91625
    },
    {
        "name": "Ke\u017emarok",
        "latitude": 49.13571,
        "longitude": 20.43352
    },
    {
        "name": "Levo\u010da",
        "latitude": 49.02173,
        "longitude": 20.59212
    },
    {
        "name": "Lipany",
        "latitude": 49.15376,
        "longitude": 20.96382
    },
    {
        "name": "\u013dubica",
        "latitude": 49.11667,
        "longitude": 20.45
    },
    {
        "name": "Medzilaborce",
        "latitude": 49.27195,
        "longitude": 21.90073
    },
    {
        "name": "Nov\u00e1 Lesn\u00e1",
        "latitude": 49.12253,
        "longitude": 20.26737
    },
    {
        "name": "Okres Bardejov",
        "latitude": 49.28333,
        "longitude": 21.28333
    },
    {
        "name": "Okres Humenn\u00e9",
        "latitude": 48.93333,
        "longitude": 21.91667
    },
    {
        "name": "Okres Ke\u017emarok",
        "latitude": 49.13593,
        "longitude": 20.42929
    },
    {
        "name": "Okres Levo\u010da",
        "latitude": 49.01986,
        "longitude": 20.57688
    },
    {
        "name": "Okres Medzilaborce",
        "latitude": 49.27062,
        "longitude": 21.902
    },
    {
        "name": "Okres Poprad",
        "latitude": 49.05,
        "longitude": 20.3
    },
    {
        "name": "Okres Pre\u0161ov",
        "latitude": 49.0,
        "longitude": 21.25
    },
    {
        "name": "Okres Sabinov",
        "latitude": 49.10115,
        "longitude": 21.09844
    },
    {
        "name": "Okres Snina",
        "latitude": 48.98579,
        "longitude": 22.15059
    },
    {
        "name": "Okres Star\u00e1 \u0139ubov\u0148a",
        "latitude": 49.3,
        "longitude": 20.7
    },
    {
        "name": "Okres Stropkov",
        "latitude": 49.20249,
        "longitude": 21.65025
    },
    {
        "name": "Okres Svidn\u00edk",
        "latitude": 49.3,
        "longitude": 21.56667
    },
    {
        "name": "Okres Vranov nad Top\u013eou",
        "latitude": 48.9,
        "longitude": 21.68333
    },
    {
        "name": "Podol\u00ednec",
        "latitude": 49.25869,
        "longitude": 20.536
    },
    {
        "name": "Poprad",
        "latitude": 49.06144,
        "longitude": 20.29798
    },
    {
        "name": "Pre\u0161ov",
        "latitude": 48.99839,
        "longitude": 21.23393
    },
    {
        "name": "Sabinov",
        "latitude": 49.10309,
        "longitude": 21.0988
    },
    {
        "name": "Snina",
        "latitude": 48.98857,
        "longitude": 22.15099
    },
    {
        "name": "Spi\u0161sk\u00e1 Bel\u00e1",
        "latitude": 49.18725,
        "longitude": 20.45948
    },
    {
        "name": "Spi\u0161sk\u00e9 Podhradie",
        "latitude": 49.00088,
        "longitude": 20.75307
    },
    {
        "name": "Star\u00e1 \u013dubov\u0148a",
        "latitude": 49.29859,
        "longitude": 20.6862
    },
    {
        "name": "\u0160trba",
        "latitude": 49.05913,
        "longitude": 20.07975
    },
    {
        "name": "Stropkov",
        "latitude": 49.20211,
        "longitude": 21.65216
    },
    {
        "name": "Svidn\u00edk",
        "latitude": 49.30819,
        "longitude": 21.5703
    },
    {
        "name": "Svit",
        "latitude": 49.06014,
        "longitude": 20.20695
    },
    {
        "name": "Vranov nad Top\u013eou",
        "latitude": 48.88836,
        "longitude": 21.68479
    },
    {
        "name": "Vrbov",
        "latitude": 49.08764,
        "longitude": 20.4253
    },
    {
        "name": "Vy\u0161n\u00e9 Ru\u017ebachy",
        "latitude": 49.30387,
        "longitude": 20.56558
    },
    {
        "name": "Vysok\u00e9 Tatry",
        "latitude": 49.13637,
        "longitude": 20.24386
    },
    {
        "name": "\u017ddiar",
        "latitude": 49.271,
        "longitude": 20.26239
    },
    {
        "name": "B\u00e1novce nad Bebravou",
        "latitude": 48.7213,
        "longitude": 18.25754
    },
    {
        "name": "Bojnice",
        "latitude": 48.78511,
        "longitude": 18.5864
    },
    {
        "name": "Brezov\u00e1 pod Bradlom",
        "latitude": 48.66349,
        "longitude": 17.53905
    },
    {
        "name": "\u010cachtice",
        "latitude": 48.71226,
        "longitude": 17.78704
    },
    {
        "name": "Dubnica nad V\u00e1hom",
        "latitude": 48.95981,
        "longitude": 18.16634
    },
    {
        "name": "Handlov\u00e1",
        "latitude": 48.7276,
        "longitude": 18.76012
    },
    {
        "name": "Ilava",
        "latitude": 48.99769,
        "longitude": 18.2353
    },
    {
        "name": "Lehota pod Vt\u00e1\u010dnikom",
        "latitude": 48.69138,
        "longitude": 18.59944
    },
    {
        "name": "Myjava",
        "latitude": 48.75876,
        "longitude": 17.56866
    },
    {
        "name": "Nem\u0161ov\u00e1",
        "latitude": 48.96702,
        "longitude": 18.11892
    },
    {
        "name": "Nov\u00e1 Dubnica",
        "latitude": 48.93479,
        "longitude": 18.14632
    },
    {
        "name": "Nov\u00e1ky",
        "latitude": 48.71106,
        "longitude": 18.53389
    },
    {
        "name": "Nov\u00e9 Mesto nad V\u00e1hom",
        "latitude": 48.75763,
        "longitude": 17.8309
    },
    {
        "name": "Okres B\u00e1novce nad Bebravou",
        "latitude": 48.71908,
        "longitude": 18.25773
    },
    {
        "name": "Okres Ilava",
        "latitude": 48.99641,
        "longitude": 18.23374
    },
    {
        "name": "Okres Myjava",
        "latitude": 48.75,
        "longitude": 17.58333
    },
    {
        "name": "Okres Nov\u00e9 Mesto nad V\u00e1hom",
        "latitude": 48.75466,
        "longitude": 17.83506
    },
    {
        "name": "Okres Partiz\u00e1nske",
        "latitude": 48.62613,
        "longitude": 18.37957
    },
    {
        "name": "Okres Pova\u017esk\u00e1 Bystrica",
        "latitude": 49.11667,
        "longitude": 18.45
    },
    {
        "name": "Okres Prievidza",
        "latitude": 48.76667,
        "longitude": 18.63333
    },
    {
        "name": "Okres P\u00fachov",
        "latitude": 49.12406,
        "longitude": 18.32477
    },
    {
        "name": "Okres Tren\u010d\u00edn",
        "latitude": 48.8952,
        "longitude": 18.04264
    },
    {
        "name": "Partiz\u00e1nske",
        "latitude": 48.62861,
        "longitude": 18.38455
    },
    {
        "name": "Pova\u017esk\u00e1 Bystrica",
        "latitude": 49.12153,
        "longitude": 18.42169
    },
    {
        "name": "Prievidza",
        "latitude": 48.77446,
        "longitude": 18.6275
    },
    {
        "name": "P\u00fachov",
        "latitude": 49.12494,
        "longitude": 18.32597
    },
    {
        "name": "Star\u00e1 Tur\u00e1",
        "latitude": 48.77721,
        "longitude": 17.69433
    },
    {
        "name": "Tren\u010dianske Teplice",
        "latitude": 48.91063,
        "longitude": 18.16691
    },
    {
        "name": "Tren\u010d\u00edn",
        "latitude": 48.89452,
        "longitude": 18.04436
    },
    {
        "name": "Dunajsk\u00e1 Streda",
        "latitude": 47.99268,
        "longitude": 17.61211
    },
    {
        "name": "Gab\u010d\u00edkovo",
        "latitude": 47.89211,
        "longitude": 17.57884
    },
    {
        "name": "Galanta",
        "latitude": 48.19001,
        "longitude": 17.72747
    },
    {
        "name": "Gbely",
        "latitude": 48.718,
        "longitude": 17.11628
    },
    {
        "name": "Hlohovec",
        "latitude": 48.43174,
        "longitude": 17.8031
    },
    {
        "name": "Hol\u00ed\u010d",
        "latitude": 48.81105,
        "longitude": 17.16238
    },
    {
        "name": "Leopoldov",
        "latitude": 48.44575,
        "longitude": 17.76458
    },
    {
        "name": "Okres Dunajsk\u00e1 Streda",
        "latitude": 47.99635,
        "longitude": 17.60937
    },
    {
        "name": "Okres Galanta",
        "latitude": 48.2,
        "longitude": 17.71667
    },
    {
        "name": "Okres Hlohovec",
        "latitude": 48.41667,
        "longitude": 17.75
    },
    {
        "name": "Okres Pie\u0161\u0165any",
        "latitude": 48.59064,
        "longitude": 17.82679
    },
    {
        "name": "Okres Senica",
        "latitude": 48.68333,
        "longitude": 17.36667
    },
    {
        "name": "Okres Skalica",
        "latitude": 48.75,
        "longitude": 17.16667
    },
    {
        "name": "Okres Trnava",
        "latitude": 48.36667,
        "longitude": 17.6
    },
    {
        "name": "Pie\u0161\u0165any",
        "latitude": 48.59479,
        "longitude": 17.82591
    },
    {
        "name": "\u0160amor\u00edn",
        "latitude": 48.03015,
        "longitude": 17.30972
    },
    {
        "name": "Senica",
        "latitude": 48.67922,
        "longitude": 17.36697
    },
    {
        "name": "Skalica",
        "latitude": 48.8449,
        "longitude": 17.22635
    },
    {
        "name": "Sl\u00e1dkovi\u010dovo",
        "latitude": 48.20137,
        "longitude": 17.63852
    },
    {
        "name": "Smolenice",
        "latitude": 48.50478,
        "longitude": 17.43067
    },
    {
        "name": "Trnava",
        "latitude": 48.37741,
        "longitude": 17.58723
    },
    {
        "name": "Ve\u013ek\u00fd Meder",
        "latitude": 47.85798,
        "longitude": 17.76884
    },
    {
        "name": "Vrbov\u00e9",
        "latitude": 48.61973,
        "longitude": 17.7226
    },
    {
        "name": "Byt\u010da",
        "latitude": 49.22404,
        "longitude": 18.55878
    },
    {
        "name": "\u010cadca",
        "latitude": 49.43503,
        "longitude": 18.78895
    },
    {
        "name": "Doln\u00fd Kub\u00edn",
        "latitude": 49.20983,
        "longitude": 19.30341
    },
    {
        "name": "Hybe",
        "latitude": 49.04439,
        "longitude": 19.82895
    },
    {
        "name": "Kras\u0148any",
        "latitude": 49.21491,
        "longitude": 18.88718
    },
    {
        "name": "Kysuck\u00e9 Nov\u00e9 Mesto",
        "latitude": 49.3,
        "longitude": 18.78333
    },
    {
        "name": "Liptovsk\u00fd Hr\u00e1dok",
        "latitude": 49.03962,
        "longitude": 19.72335
    },
    {
        "name": "Liptovsk\u00fd Mikul\u00e1\u0161",
        "latitude": 49.08061,
        "longitude": 19.62218
    },
    {
        "name": "L\u00fa\u010dky",
        "latitude": 49.12944,
        "longitude": 19.40228
    },
    {
        "name": "Martin",
        "latitude": 49.06651,
        "longitude": 18.92399
    },
    {
        "name": "N\u00e1mestovo",
        "latitude": 49.4079,
        "longitude": 19.48032
    },
    {
        "name": "Ni\u017en\u00e1",
        "latitude": 49.31046,
        "longitude": 19.52428
    },
    {
        "name": "Okres Byt\u010da",
        "latitude": 49.22267,
        "longitude": 18.55844
    },
    {
        "name": "Okres \u010cadca",
        "latitude": 49.43333,
        "longitude": 18.78333
    },
    {
        "name": "Okres Doln\u00fd Kub\u00edn",
        "latitude": 49.2,
        "longitude": 19.3
    },
    {
        "name": "Okres Kysuck\u00e9 Nov\u00e9 Mesto",
        "latitude": 49.30206,
        "longitude": 18.78603
    },
    {
        "name": "Okres Liptovsk\u00fd Mikul\u00e1\u0161",
        "latitude": 49.08333,
        "longitude": 19.61667
    },
    {
        "name": "Okres Martin",
        "latitude": 49.06667,
        "longitude": 18.93333
    },
    {
        "name": "Okres Namestovo",
        "latitude": 49.40651,
        "longitude": 19.4767
    },
    {
        "name": "Okres Ru\u017eomberok",
        "latitude": 49.07494,
        "longitude": 19.30083
    },
    {
        "name": "Okres Tur\u010dianske Teplice",
        "latitude": 48.86283,
        "longitude": 18.85759
    },
    {
        "name": "Okres Tvrdo\u0161\u00edn",
        "latitude": 49.33421,
        "longitude": 19.55461
    },
    {
        "name": "Okres \u017dilina",
        "latitude": 49.22303,
        "longitude": 18.74044
    },
    {
        "name": "Oravsk\u00e1 Lesn\u00e1",
        "latitude": 49.36672,
        "longitude": 19.18093
    },
    {
        "name": "Oravsk\u00fd Podz\u00e1mok",
        "latitude": 49.25939,
        "longitude": 19.3569
    },
    {
        "name": "Pribylina",
        "latitude": 49.0995,
        "longitude": 19.79427
    },
    {
        "name": "Rajec",
        "latitude": 49.08899,
        "longitude": 18.64007
    },
    {
        "name": "Ru\u017eomberok",
        "latitude": 49.0748,
        "longitude": 19.30751
    },
    {
        "name": "Terchov\u00e1",
        "latitude": 49.25895,
        "longitude": 19.02935
    },
    {
        "name": "Trsten\u00e1",
        "latitude": 49.36101,
        "longitude": 19.61249
    },
    {
        "name": "Tur\u010dianske Teplice",
        "latitude": 48.86225,
        "longitude": 18.86048
    },
    {
        "name": "Turzovka",
        "latitude": 49.40429,
        "longitude": 18.62258
    },
    {
        "name": "Tvrdo\u0161\u00edn",
        "latitude": 49.337,
        "longitude": 19.556
    },
    {
        "name": "Vr\u00fatky",
        "latitude": 49.11328,
        "longitude": 18.91714
    },
    {
        "name": "\u017dilina",
        "latitude": 49.22315,
        "longitude": 18.73941
    }
]