[
    {
        "name": "Булембу",
        "latitude": -25.96667,
        "longitude": 31.13333
    },
    {
        "name": "На крюке",
        "latitude": -26.31972,
        "longitude": 31.22222
    },
    {
        "name": "Подожди",
        "latitude": -26.46667,
        "longitude": 31.2
    },
    {
        "name": "Мбабане",
        "latitude": -26.31667,
        "longitude": 31.13333
    },
    {
        "name": "Нож",
        "latitude": -26.15728,
        "longitude": 31.16391
    },
    {
        "name": "Пик Пиггс",
        "latitude": -25.96082,
        "longitude": 31.24666
    },
    {
        "name": "Биг Бенд",
        "latitude": -26.81667,
        "longitude": 31.93333
    },
    {
        "name": "Дворкодвани Инхундла",
        "latitude": -26.45398,
        "longitude": 31.76456
    },
    {
        "name": "Ломашаша",
        "latitude": -26.06644,
        "longitude": 32.00768
    },
    {
        "name": "Мангровые заросли",
        "latitude": -26.03333,
        "longitude": 31.85
    },
    {
        "name": "Змея",
        "latitude": -27.03333,
        "longitude": 31.95
    },
    {
        "name": "Ставки",
        "latitude": -26.4525,
        "longitude": 31.94722
    },
    {
        "name": "Трава",
        "latitude": -25.98333,
        "longitude": 31.71667
    },
    {
        "name": "Сражайтесь друг с другом",
        "latitude": -26.07427,
        "longitude": 31.87672
    },
    {
        "name": "Бхунья",
        "latitude": -26.55,
        "longitude": 31.01667
    },
    {
        "name": "В свете",
        "latitude": -26.3875,
        "longitude": 31.52806
    },
    {
        "name": "Рано утром",
        "latitude": -26.48333,
        "longitude": 31.33333
    },
    {
        "name": "Малкерна",
        "latitude": -26.56667,
        "longitude": 31.18333
    },
    {
        "name": "Вода",
        "latitude": -26.49884,
        "longitude": 31.38004
    },
    {
        "name": "Манзини Юг",
        "latitude": -26.48333,
        "longitude": 31.36667
    },
    {
        "name": "Клеветник",
        "latitude": -26.45,
        "longitude": 31.01667
    },
    {
        "name": "Это волк",
        "latitude": -26.6999,
        "longitude": 31.28876
    },
    {
        "name": "Милый",
        "latitude": -26.635,
        "longitude": 31.22556
    },
    {
        "name": "Мы родные",
        "latitude": -26.6282,
        "longitude": 31.42021
    },
    {
        "name": "Ключ",
        "latitude": -26.97917,
        "longitude": 31.32444
    },
    {
        "name": "Часть",
        "latitude": -27.21667,
        "longitude": 31.61667
    },
    {
        "name": "Побег",
        "latitude": -26.88333,
        "longitude": 31.48333
    },
    {
        "name": "Он пророчествовал",
        "latitude": -27.31005,
        "longitude": 31.89198
    },
    {
        "name": "Матсанжени",
        "latitude": -27.21585,
        "longitude": 31.72309
    },
    {
        "name": "Ну давай же",
        "latitude": -27.03583,
        "longitude": 31.55111
    },
    {
        "name": "Организация",
        "latitude": -27.11222,
        "longitude": 31.19833
    },
    {
        "name": "Нквене",
        "latitude": -26.89778,
        "longitude": 31.24972
    },
    {
        "name": "Сигве Инхундла",
        "latitude": -27.05821,
        "longitude": 31.64543
    },
    {
        "name": "Прикрыть позицию",
        "latitude": -27.22746,
        "longitude": 31.33799
    }
]