[
    {
        "name": "Айлеу",
        "latitude": -8.72806,
        "longitude": 125.56639
    },
    {
        "name": "Лекидо",
        "latitude": -8.69139,
        "longitude": 125.63611
    },
    {
        "name": "Ремексио",
        "latitude": -8.61667,
        "longitude": 125.66667
    },
    {
        "name": "Айнаро",
        "latitude": -8.99241,
        "longitude": 125.50816
    },
    {
        "name": "Хато-Удо",
        "latitude": -9.12036,
        "longitude": 125.58935
    },
    {
        "name": "Багия",
        "latitude": -8.62787,
        "longitude": 126.65743
    },
    {
        "name": "Они рыдали",
        "latitude": -8.46667,
        "longitude": 126.45
    },
    {
        "name": "Холостяк",
        "latitude": -8.47572,
        "longitude": 126.45633
    },
    {
        "name": "От",
        "latitude": -8.47411,
        "longitude": 126.59228
    },
    {
        "name": "Квеликай",
        "latitude": -8.60135,
        "longitude": 126.55904
    },
    {
        "name": "Вемассе",
        "latitude": -8.51036,
        "longitude": 126.20823
    },
    {
        "name": "Иди спать",
        "latitude": -8.64306,
        "longitude": 126.37833
    },
    {
        "name": "Малийский",
        "latitude": -8.99167,
        "longitude": 125.21972
    },
    {
        "name": "Фатумеан",
        "latitude": -9.22917,
        "longitude": 125.03583
    },
    {
        "name": "Я хотел бы",
        "latitude": -9.28361,
        "longitude": 125.08944
    },
    {
        "name": "Маукатар",
        "latitude": -9.21772,
        "longitude": 125.22981
    },
    {
        "name": "Суай",
        "latitude": -9.3,
        "longitude": 125.25
    },
    {
        "name": "Тиломар",
        "latitude": -9.34182,
        "longitude": 125.10887
    },
    {
        "name": "Остров Атауро",
        "latitude": -8.26785,
        "longitude": 125.59699
    },
    {
        "name": "Царь Христос",
        "latitude": -8.52047,
        "longitude": 125.60837
    },
    {
        "name": "нет",
        "latitude": -8.55861,
        "longitude": 125.57361
    },
    {
        "name": "Метинаро",
        "latitude": -8.53007,
        "longitude": 125.74163
    },
    {
        "name": "Вилла Эрмера",
        "latitude": -8.75222,
        "longitude": 125.39694
    },
    {
        "name": "Глено",
        "latitude": -8.72389,
        "longitude": 125.43611
    },
    {
        "name": "Мы беспокойны",
        "latitude": -8.81667,
        "longitude": 125.31667
    },
    {
        "name": "Лейтенант",
        "latitude": -8.83444,
        "longitude": 125.42639
    },
    {
        "name": "Райлако",
        "latitude": -8.67237,
        "longitude": 125.42546
    },
    {
        "name": "Многие из нас",
        "latitude": -8.70917,
        "longitude": 126.82833
    },
    {
        "name": "Громкий",
        "latitude": -8.36514,
        "longitude": 126.90389
    },
    {
        "name": "Лоспалос",
        "latitude": -8.52167,
        "longitude": 126.99833
    },
    {
        "name": "Луро",
        "latitude": -8.54359,
        "longitude": 126.83003
    },
    {
        "name": "Тутуала",
        "latitude": -8.39597,
        "longitude": 127.25923
    },
    {
        "name": "Базартете",
        "latitude": -8.62464,
        "longitude": 125.38168
    },
    {
        "name": "Ликис",
        "latitude": -8.5875,
        "longitude": 125.34194
    },
    {
        "name": "Маубара",
        "latitude": -8.61194,
        "longitude": 125.20611
    },
    {
        "name": "Барик",
        "latitude": -8.85472,
        "longitude": 126.06556
    },
    {
        "name": "Лакло",
        "latitude": -8.55,
        "longitude": 125.91667
    },
    {
        "name": "Лаклабар",
        "latitude": -8.74975,
        "longitude": 125.91186
    },
    {
        "name": "Мысли",
        "latitude": -8.52207,
        "longitude": 126.01516
    },
    {
        "name": "Мысли",
        "latitude": -8.51139,
        "longitude": 126.01306
    },
    {
        "name": "Сойбад",
        "latitude": -8.86,
        "longitude": 125.94
    },
    {
        "name": "Увы",
        "latitude": -9.0273,
        "longitude": 125.7868
    },
    {
        "name": "Фатуберлиу",
        "latitude": -8.9479,
        "longitude": 125.86633
    },
    {
        "name": "Такой же",
        "latitude": -9.0,
        "longitude": 125.65
    },
    {
        "name": "Туристы",
        "latitude": -8.82371,
        "longitude": 125.70454
    },
    {
        "name": "Лаклута",
        "latitude": -8.8,
        "longitude": 126.13333
    },
    {
        "name": "кость",
        "latitude": -8.73477,
        "longitude": 126.38324
    },
    {
        "name": "Уатокарабау",
        "latitude": -8.75658,
        "longitude": 126.6806
    },
    {
        "name": "Уатолари",
        "latitude": -8.76277,
        "longitude": 126.57353
    },
    {
        "name": "Викеке",
        "latitude": -8.85908,
        "longitude": 126.36972
    }
]