[
    {
        "name": "Пангай",
        "latitude": -19.81468,
        "longitude": -174.35423
    },
    {
        "name": "'Охонуа",
        "latitude": -21.33333,
        "longitude": -174.95
    },
    {
        "name": "Хифифо",
        "latitude": -15.9544,
        "longitude": -173.79616
    },
    {
        "name": "Хавелулото",
        "latitude": -21.15216,
        "longitude": -175.21333
    },
    {
        "name": "Прирост",
        "latitude": -21.13333,
        "longitude": -175.06667
    },
    {
        "name": "Нукуалофа",
        "latitude": -21.13938,
        "longitude": -175.2018
    },
    {
        "name": "Вино",
        "latitude": -21.19292,
        "longitude": -175.17678
    },
    {
        "name": "Неиафу",
        "latitude": -18.6506,
        "longitude": -173.98404
    }
]