[
    {
        "name": "Lakatoro",
        "latitude": -16.09992,
        "longitude": 167.41636
    },
    {
        "name": "Norsup",
        "latitude": -16.06536,
        "longitude": 167.39714
    },
    {
        "name": "Luganville",
        "latitude": -15.51989,
        "longitude": 167.16235
    },
    {
        "name": "Port-Olry",
        "latitude": -15.04175,
        "longitude": 167.07265
    },
    {
        "name": "Port-Vila",
        "latitude": -17.73648,
        "longitude": 168.31366
    },
    {
        "name": "Isangel",
        "latitude": -19.54167,
        "longitude": 169.28167
    },
    {
        "name": "Sola",
        "latitude": -13.87611,
        "longitude": 167.55167
    }
]