[
    {
        "name": "Фашиотаута",
        "latitude": -13.81163,
        "longitude": -171.94063
    },
    {
        "name": "Похороны",
        "latitude": -13.82297,
        "longitude": -171.96127
    },
    {
        "name": "Трон",
        "latitude": -13.8217,
        "longitude": -171.95873
    },
    {
        "name": "Суббота",
        "latitude": -13.83535,
        "longitude": -171.97963
    },
    {
        "name": "Сельская местность",
        "latitude": -13.83183,
        "longitude": -172.03602
    },
    {
        "name": "Спальня",
        "latitude": -13.88695,
        "longitude": -171.58805
    },
    {
        "name": "Поощрение",
        "latitude": -13.97643,
        "longitude": -171.85781
    },
    {
        "name": "Убежище",
        "latitude": -13.87449,
        "longitude": -171.59857
    },
    {
        "name": "Замена",
        "latitude": -13.87504,
        "longitude": -171.64181
    },
    {
        "name": "Слезы",
        "latitude": -14.03208,
        "longitude": -171.64768
    },
    {
        "name": "Садиться",
        "latitude": -13.45132,
        "longitude": -172.40177
    },
    {
        "name": "Бедный",
        "latitude": -13.7736,
        "longitude": -172.38802
    },
    {
        "name": "Знать",
        "latitude": -13.75551,
        "longitude": -172.30698
    },
    {
        "name": "Тысячи",
        "latitude": -13.79726,
        "longitude": -171.85308
    },
    {
        "name": "Апиа",
        "latitude": -13.83333,
        "longitude": -171.76666
    },
    {
        "name": "Мне жаль",
        "latitude": -13.80044,
        "longitude": -171.8469
    },
    {
        "name": "Руки",
        "latitude": -13.86417,
        "longitude": -171.76126
    },
    {
        "name": "Зависимость",
        "latitude": -13.82678,
        "longitude": -171.79333
    },
    {
        "name": "Желтый",
        "latitude": -13.93375,
        "longitude": -171.53122
    },
    {
        "name": "задницы",
        "latitude": -13.51963,
        "longitude": -172.63784
    }
]