[
    {
        "name": "Ceyranbatan",
        "latitude": 40.54194,
        "longitude": 49.66073
    },
    {
        "name": "Digah",
        "latitude": 40.49257,
        "longitude": 49.87477
    },
    {
        "name": "Gyuzdek",
        "latitude": 40.37444,
        "longitude": 49.68194
    },
    {
        "name": "Khirdalan",
        "latitude": 40.44808,
        "longitude": 49.75502
    },
    {
        "name": "Qobu",
        "latitude": 40.40472,
        "longitude": 49.71306
    },
    {
        "name": "Saray",
        "latitude": 40.53299,
        "longitude": 49.71681
    },
    {
        "name": "A\u011fdam",
        "latitude": 39.99096,
        "longitude": 46.92736
    },
    {
        "name": "A\u011fda\u015f",
        "latitude": 40.64699,
        "longitude": 47.4738
    },
    {
        "name": "Agdzhabedy",
        "latitude": 40.05015,
        "longitude": 47.45937
    },
    {
        "name": "Av\u015far",
        "latitude": 39.97389,
        "longitude": 47.42389
    },
    {
        "name": "Aghstafa",
        "latitude": 41.11889,
        "longitude": 45.45389
    },
    {
        "name": "Salo\u011flu",
        "latitude": 41.27524,
        "longitude": 45.35293
    },
    {
        "name": "Vur\u011fun",
        "latitude": 41.09524,
        "longitude": 45.47111
    },
    {
        "name": "Aghsu",
        "latitude": 40.57028,
        "longitude": 48.40087
    },
    {
        "name": "Astara",
        "latitude": 38.45598,
        "longitude": 48.87498
    },
    {
        "name": "Kizhaba",
        "latitude": 38.53461,
        "longitude": 48.80546
    },
    {
        "name": "Amirdzhan",
        "latitude": 40.42639,
        "longitude": 49.98361
    },
    {
        "name": "Badamdar",
        "latitude": 40.34024,
        "longitude": 49.8045
    },
    {
        "name": "Bak\u0131xanov",
        "latitude": 40.41894,
        "longitude": 49.96693
    },
    {
        "name": "Baku",
        "latitude": 40.37767,
        "longitude": 49.89201
    },
    {
        "name": "Balakhani",
        "latitude": 40.46344,
        "longitude": 49.91893
    },
    {
        "name": "Bilajari",
        "latitude": 40.4444,
        "longitude": 49.80566
    },
    {
        "name": "Bilajer",
        "latitude": 40.56441,
        "longitude": 50.04002
    },
    {
        "name": "Binagadi",
        "latitude": 40.46602,
        "longitude": 49.82783
    },
    {
        "name": "Biny Selo",
        "latitude": 40.45076,
        "longitude": 50.08686
    },
    {
        "name": "Buzovna",
        "latitude": 40.51903,
        "longitude": 50.11438
    },
    {
        "name": "H\u00f6vsan",
        "latitude": 40.37444,
        "longitude": 50.08528
    },
    {
        "name": "Khodzhi-Gasan",
        "latitude": 40.41293,
        "longitude": 49.76904
    },
    {
        "name": "Korg\u00f6z",
        "latitude": 40.30446,
        "longitude": 49.6236
    },
    {
        "name": "L\u00f6kbatan",
        "latitude": 40.3256,
        "longitude": 49.73376
    },
    {
        "name": "Mardakan",
        "latitude": 40.49182,
        "longitude": 50.14292
    },
    {
        "name": "Ma\u015fta\u011fa",
        "latitude": 40.52983,
        "longitude": 50.00616
    },
    {
        "name": "Nardaran",
        "latitude": 40.55611,
        "longitude": 50.00556
    },
    {
        "name": "Nizami Rayonu",
        "latitude": 40.4097,
        "longitude": 49.91926
    },
    {
        "name": "Pirallah\u0131",
        "latitude": 40.47013,
        "longitude": 50.32476
    },
    {
        "name": "Puta",
        "latitude": 40.29667,
        "longitude": 49.66028
    },
    {
        "name": "Qala",
        "latitude": 40.44256,
        "longitude": 50.16759
    },
    {
        "name": "Qara\u00e7uxur",
        "latitude": 40.39667,
        "longitude": 49.97361
    },
    {
        "name": "Qobustan",
        "latitude": 40.08238,
        "longitude": 49.41205
    },
    {
        "name": "Ramana",
        "latitude": 40.44222,
        "longitude": 49.98056
    },
    {
        "name": "Sabun\u00e7u",
        "latitude": 40.4425,
        "longitude": 49.94806
    },
    {
        "name": "Sanqa\u00e7al",
        "latitude": 40.16991,
        "longitude": 49.46394
    },
    {
        "name": "T\u00fcrkan",
        "latitude": 40.3646,
        "longitude": 50.22075
    },
    {
        "name": "Yeni Suraxan\u0131",
        "latitude": 40.43026,
        "longitude": 50.03598
    },
    {
        "name": "Zabrat",
        "latitude": 40.47746,
        "longitude": 49.94174
    },
    {
        "name": "Zyrya",
        "latitude": 40.36613,
        "longitude": 50.29198
    },
    {
        "name": "Belokany",
        "latitude": 41.72626,
        "longitude": 46.40478
    },
    {
        "name": "Qabaq\u00e7\u00f6l",
        "latitude": 41.75259,
        "longitude": 46.27052
    },
    {
        "name": "Barda",
        "latitude": 40.37577,
        "longitude": 47.12619
    },
    {
        "name": "Samuxlu",
        "latitude": 40.50833,
        "longitude": 47.16917
    },
    {
        "name": "Beylagan",
        "latitude": 39.77556,
        "longitude": 47.61861
    },
    {
        "name": "Birinci A\u015f\u0131ql\u0131",
        "latitude": 39.81917,
        "longitude": 47.67944
    },
    {
        "name": "D\u00fcnyamal\u0131lar",
        "latitude": 39.77278,
        "longitude": 47.75889
    },
    {
        "name": "Orjonikidze",
        "latitude": 39.63571,
        "longitude": 47.71199
    },
    {
        "name": "Yuxar\u0131 Aran",
        "latitude": 39.73361,
        "longitude": 47.655
    },
    {
        "name": "Pushkino",
        "latitude": 39.45833,
        "longitude": 48.545
    },
    {
        "name": "Verkhniy Dashkesan",
        "latitude": 40.49357,
        "longitude": 46.07175
    },
    {
        "name": "Yukhary-Dashkesan",
        "latitude": 40.52393,
        "longitude": 46.08186
    },
    {
        "name": "Fizuli",
        "latitude": 39.60094,
        "longitude": 47.14529
    },
    {
        "name": "Horadiz",
        "latitude": 39.45015,
        "longitude": 47.33496
    },
    {
        "name": "Ganja",
        "latitude": 40.68278,
        "longitude": 46.36056
    },
    {
        "name": "Ar\u0131qdam",
        "latitude": 40.59313,
        "longitude": 45.799
    },
    {
        "name": "Ar\u0131q\u0131ran",
        "latitude": 40.53971,
        "longitude": 45.61414
    },
    {
        "name": "B\u00f6y\u00fck Qaramurad",
        "latitude": 40.57626,
        "longitude": 45.63727
    },
    {
        "name": "Kyadabek",
        "latitude": 40.57055,
        "longitude": 45.81229
    },
    {
        "name": "Novosaratovka",
        "latitude": 40.59811,
        "longitude": 45.60079
    },
    {
        "name": "Qobustan",
        "latitude": 40.5336,
        "longitude": 48.92819
    },
    {
        "name": "Goranboy",
        "latitude": 40.61028,
        "longitude": 46.78972
    },
    {
        "name": "Q\u0131z\u0131lhac\u0131l\u0131",
        "latitude": 40.57362,
        "longitude": 46.849
    },
    {
        "name": "Geoktschai",
        "latitude": 40.65055,
        "longitude": 47.74219
    },
    {
        "name": "Yelenendorf",
        "latitude": 40.58584,
        "longitude": 46.3189
    },
    {
        "name": "Hac\u0131qabul",
        "latitude": 40.03874,
        "longitude": 48.94286
    },
    {
        "name": "Mughan",
        "latitude": 40.09902,
        "longitude": 48.81886
    },
    {
        "name": "Imishli",
        "latitude": 39.87095,
        "longitude": 48.05995
    },
    {
        "name": "Basqal",
        "latitude": 40.7552,
        "longitude": 48.39104
    },
    {
        "name": "\u0130smay\u0131ll\u0131",
        "latitude": 40.78485,
        "longitude": 48.15141
    },
    {
        "name": "Jebrail",
        "latitude": 39.39917,
        "longitude": 47.02835
    },
    {
        "name": "Jalilabad",
        "latitude": 39.20963,
        "longitude": 48.49186
    },
    {
        "name": "Prishibinskoye",
        "latitude": 39.11998,
        "longitude": 48.59383
    },
    {
        "name": "Kerbakhiar",
        "latitude": 40.10984,
        "longitude": 46.04446
    },
    {
        "name": "Vank",
        "latitude": 40.05275,
        "longitude": 46.54419
    },
    {
        "name": "Xa\u00e7maz",
        "latitude": 41.46426,
        "longitude": 48.80565
    },
    {
        "name": "Xudat",
        "latitude": 41.63052,
        "longitude": 48.68161
    },
    {
        "name": "Alt\u0131a\u011fac",
        "latitude": 40.85785,
        "longitude": 48.9354
    },
    {
        "name": "Khyzy",
        "latitude": 40.90847,
        "longitude": 49.07481
    },
    {
        "name": "Kilyazi",
        "latitude": 40.87392,
        "longitude": 49.34376
    },
    {
        "name": "\u015euraabad",
        "latitude": 40.8199,
        "longitude": 49.46774
    },
    {
        "name": "Askyaran",
        "latitude": 39.9391,
        "longitude": 46.83161
    },
    {
        "name": "Xocal\u0131",
        "latitude": 39.91297,
        "longitude": 46.79028
    },
    {
        "name": "Kyurdarmir",
        "latitude": 40.34257,
        "longitude": 48.15649
    },
    {
        "name": "La\u00e7\u0131n",
        "latitude": 39.59881,
        "longitude": 46.55045
    },
    {
        "name": "Haftoni",
        "latitude": 38.76325,
        "longitude": 48.76223
    },
    {
        "name": "Lankaran",
        "latitude": 38.75428,
        "longitude": 48.85062
    },
    {
        "name": "Lerik",
        "latitude": 38.77388,
        "longitude": 48.41497
    },
    {
        "name": "Hadrut",
        "latitude": 39.52003,
        "longitude": 47.0319
    },
    {
        "name": "Novyy Karanlug",
        "latitude": 39.79496,
        "longitude": 47.1117
    },
    {
        "name": "Q\u0131rm\u0131z\u0131 Bazar",
        "latitude": 39.67669,
        "longitude": 46.95123
    },
    {
        "name": "Boradigah",
        "latitude": 38.93013,
        "longitude": 48.7092
    },
    {
        "name": "Masally",
        "latitude": 39.03532,
        "longitude": 48.6654
    },
    {
        "name": "Mingelchaur",
        "latitude": 40.76395,
        "longitude": 47.05953
    },
    {
        "name": "Cahri",
        "latitude": 39.34837,
        "longitude": 45.41557
    },
    {
        "name": "\u00c7alxanqala",
        "latitude": 39.44167,
        "longitude": 45.28333
    },
    {
        "name": "Culfa",
        "latitude": 38.95397,
        "longitude": 45.62961
    },
    {
        "name": "Deste",
        "latitude": 38.88375,
        "longitude": 45.90963
    },
    {
        "name": "Heydarabad",
        "latitude": 39.72286,
        "longitude": 44.84846
    },
    {
        "name": "Julfa Rayon",
        "latitude": 39.16667,
        "longitude": 45.66667
    },
    {
        "name": "Nakhchivan",
        "latitude": 39.20889,
        "longitude": 45.41222
    },
    {
        "name": "O\u011flanqala",
        "latitude": 39.58694,
        "longitude": 45.04611
    },
    {
        "name": "Ordubad",
        "latitude": 38.90961,
        "longitude": 46.02274
    },
    {
        "name": "Ordubad Rayon",
        "latitude": 39.08333,
        "longitude": 45.91667
    },
    {
        "name": "Q\u0131vraq",
        "latitude": 39.39939,
        "longitude": 45.11513
    },
    {
        "name": "\u015eahbuz",
        "latitude": 39.40722,
        "longitude": 45.57389
    },
    {
        "name": "Sedarak",
        "latitude": 39.71427,
        "longitude": 44.88455
    },
    {
        "name": "Shahbuz Rayon",
        "latitude": 39.41667,
        "longitude": 45.58333
    },
    {
        "name": "Sharur City",
        "latitude": 39.55298,
        "longitude": 44.97993
    },
    {
        "name": "Sumbatan-diza",
        "latitude": 38.94804,
        "longitude": 45.82572
    },
    {
        "name": "Tazakend",
        "latitude": 39.15459,
        "longitude": 45.44282
    },
    {
        "name": "Yayc\u0131",
        "latitude": 38.94052,
        "longitude": 45.73244
    },
    {
        "name": "Neft\u00e7ala",
        "latitude": 39.3768,
        "longitude": 49.247
    },
    {
        "name": "Severo-Vostotchnyi Bank",
        "latitude": 39.41117,
        "longitude": 49.24792
    },
    {
        "name": "Sovetabad",
        "latitude": 39.33667,
        "longitude": 49.21414
    },
    {
        "name": "X\u0131ll\u0131",
        "latitude": 39.43012,
        "longitude": 49.10166
    },
    {
        "name": "O\u011fuz",
        "latitude": 41.07128,
        "longitude": 47.46528
    },
    {
        "name": "Qutqashen",
        "latitude": 40.98247,
        "longitude": 47.84909
    },
    {
        "name": "\u00c7inarl\u0131",
        "latitude": 41.46965,
        "longitude": 46.91582
    },
    {
        "name": "Qax",
        "latitude": 41.41826,
        "longitude": 46.92043
    },
    {
        "name": "Qax \u0130ngiloy",
        "latitude": 41.42412,
        "longitude": 46.93859
    },
    {
        "name": "Qaxba\u015f",
        "latitude": 41.43254,
        "longitude": 46.9646
    },
    {
        "name": "Qazax",
        "latitude": 41.09246,
        "longitude": 45.36561
    },
    {
        "name": "Hac\u0131h\u00fcseynli",
        "latitude": 41.45639,
        "longitude": 48.64889
    },
    {
        "name": "Quba",
        "latitude": 41.36108,
        "longitude": 48.51341
    },
    {
        "name": "Qubadl\u0131",
        "latitude": 39.34441,
        "longitude": 46.58183
    },
    {
        "name": "Qusar",
        "latitude": 41.4275,
        "longitude": 48.4302
    },
    {
        "name": "Samur",
        "latitude": 41.63671,
        "longitude": 48.43028
    },
    {
        "name": "\u018fhm\u0259db\u0259yli",
        "latitude": 39.88074,
        "longitude": 48.39158
    },
    {
        "name": "Saatl\u0131",
        "latitude": 39.93214,
        "longitude": 48.36892
    },
    {
        "name": "Sabirabad",
        "latitude": 40.00869,
        "longitude": 48.47701
    },
    {
        "name": "Qara\u00e7ala",
        "latitude": 39.81614,
        "longitude": 48.93792
    },
    {
        "name": "Salyan",
        "latitude": 39.59621,
        "longitude": 48.98479
    },
    {
        "name": "Qarayeri",
        "latitude": 40.78674,
        "longitude": 46.31365
    },
    {
        "name": "Q\u0131rm\u0131z\u0131 Samux",
        "latitude": 40.93972,
        "longitude": 46.37889
    },
    {
        "name": "Samux",
        "latitude": 40.76485,
        "longitude": 46.40868
    },
    {
        "name": "Divichibazar",
        "latitude": 41.20117,
        "longitude": 48.98712
    },
    {
        "name": "Sheki",
        "latitude": 41.19194,
        "longitude": 47.17056
    },
    {
        "name": "Ba\u015f G\u00f6yn\u00fck",
        "latitude": 41.32582,
        "longitude": 47.11357
    },
    {
        "name": "Shamakhi",
        "latitude": 40.63141,
        "longitude": 48.64137
    },
    {
        "name": "Dolyar",
        "latitude": 40.86278,
        "longitude": 46.03493
    },
    {
        "name": "Dzagam",
        "latitude": 40.9033,
        "longitude": 45.88564
    },
    {
        "name": "Qas\u0131m \u0130smay\u0131lov",
        "latitude": 40.81243,
        "longitude": 46.25938
    },
    {
        "name": "Shamkhor",
        "latitude": 40.82975,
        "longitude": 46.0178
    },
    {
        "name": "\u015eirvan",
        "latitude": 39.93778,
        "longitude": 48.929
    },
    {
        "name": "Shushi",
        "latitude": 39.76006,
        "longitude": 46.74989
    },
    {
        "name": "Gilgil\u00e7ay",
        "latitude": 41.13932,
        "longitude": 49.09038
    },
    {
        "name": "Kyzyl-Burun",
        "latitude": 41.07811,
        "longitude": 49.11564
    },
    {
        "name": "Corat",
        "latitude": 40.57176,
        "longitude": 49.70509
    },
    {
        "name": "Hac\u0131 Zeynalabdin",
        "latitude": 40.62333,
        "longitude": 49.55861
    },
    {
        "name": "Sumqay\u0131t",
        "latitude": 40.58972,
        "longitude": 49.66861
    },
    {
        "name": "Martakert",
        "latitude": 40.21127,
        "longitude": 46.82135
    },
    {
        "name": "Terter",
        "latitude": 40.34201,
        "longitude": 46.93161
    },
    {
        "name": "\u00c7atax",
        "latitude": 40.72622,
        "longitude": 45.55919
    },
    {
        "name": "\u00c7obans\u0131\u011fnaq",
        "latitude": 40.75244,
        "longitude": 45.70645
    },
    {
        "name": "Dondar Qu\u015f\u00e7u",
        "latitude": 40.9539,
        "longitude": 45.61942
    },
    {
        "name": "Qaraxanl\u0131",
        "latitude": 41.04358,
        "longitude": 45.65527
    },
    {
        "name": "Tovuz",
        "latitude": 40.99249,
        "longitude": 45.62838
    },
    {
        "name": "Yan\u0131ql\u0131",
        "latitude": 40.8432,
        "longitude": 45.6803
    },
    {
        "name": "Ujar",
        "latitude": 40.51902,
        "longitude": 47.65423
    },
    {
        "name": "Yard\u0131ml\u0131",
        "latitude": 38.90771,
        "longitude": 48.24052
    },
    {
        "name": "Yevlakh",
        "latitude": 40.61832,
        "longitude": 47.15014
    },
    {
        "name": "Aran",
        "latitude": 40.62528,
        "longitude": 46.97556
    },
    {
        "name": "Qaramanl\u0131",
        "latitude": 40.48135,
        "longitude": 46.99339
    },
    {
        "name": "Mincivan",
        "latitude": 39.03023,
        "longitude": 46.72329
    },
    {
        "name": "Zangilan",
        "latitude": 39.08371,
        "longitude": 46.65988
    },
    {
        "name": "Aliabad",
        "latitude": 41.4829,
        "longitude": 46.63483
    },
    {
        "name": "Faldarl\u0131",
        "latitude": 41.46868,
        "longitude": 46.51579
    },
    {
        "name": "Mamrux",
        "latitude": 41.54243,
        "longitude": 46.767
    },
    {
        "name": "Qandax",
        "latitude": 41.47546,
        "longitude": 46.54128
    },
    {
        "name": "Zaqatala",
        "latitude": 41.6316,
        "longitude": 46.64479
    },
    {
        "name": "Zardob",
        "latitude": 40.2184,
        "longitude": 47.71214
    }
]