[
    {
        "name": "Br\u010dko",
        "latitude": 44.86995,
        "longitude": 18.81012
    },
    {
        "name": "Brka",
        "latitude": 44.82837,
        "longitude": 18.7242
    },
    {
        "name": "Banovi\u0107i",
        "latitude": 44.40596,
        "longitude": 18.52648
    },
    {
        "name": "Barice",
        "latitude": 44.54065,
        "longitude": 18.48069
    },
    {
        "name": "Biha\u0107",
        "latitude": 44.81694,
        "longitude": 15.87083
    },
    {
        "name": "Bijela",
        "latitude": 43.60871,
        "longitude": 17.95078
    },
    {
        "name": "Bila",
        "latitude": 43.78265,
        "longitude": 16.92676
    },
    {
        "name": "Blagaj",
        "latitude": 43.25892,
        "longitude": 17.88815
    },
    {
        "name": "Bosanska Krupa",
        "latitude": 44.8825,
        "longitude": 16.15139
    },
    {
        "name": "Bosanski Petrovac",
        "latitude": 44.55537,
        "longitude": 16.36897
    },
    {
        "name": "Bosansko Grahovo",
        "latitude": 44.17944,
        "longitude": 16.36389
    },
    {
        "name": "Breza",
        "latitude": 44.01862,
        "longitude": 18.26063
    },
    {
        "name": "Bugojno",
        "latitude": 44.05722,
        "longitude": 17.45083
    },
    {
        "name": "Busova\u010da",
        "latitude": 44.09769,
        "longitude": 17.8783
    },
    {
        "name": "Bu\u017eim",
        "latitude": 45.05361,
        "longitude": 16.03254
    },
    {
        "name": "\u010capljina",
        "latitude": 43.12139,
        "longitude": 17.68444
    },
    {
        "name": "Cazin",
        "latitude": 44.96694,
        "longitude": 15.94306
    },
    {
        "name": "\u010celi\u0107",
        "latitude": 44.72524,
        "longitude": 18.81474
    },
    {
        "name": "Cim",
        "latitude": 43.35401,
        "longitude": 17.78045
    },
    {
        "name": "\u010citluk",
        "latitude": 43.22861,
        "longitude": 17.70083
    },
    {
        "name": "\u0106orali\u0107i",
        "latitude": 45.00694,
        "longitude": 15.87194
    },
    {
        "name": "Crni\u0107i",
        "latitude": 43.13156,
        "longitude": 17.86452
    },
    {
        "name": "Divi\u010dani",
        "latitude": 44.36682,
        "longitude": 17.32678
    },
    {
        "name": "Dobrinje",
        "latitude": 44.05008,
        "longitude": 18.11958
    },
    {
        "name": "Domaljevac",
        "latitude": 45.0611,
        "longitude": 18.58612
    },
    {
        "name": "Donja Dubica",
        "latitude": 45.07559,
        "longitude": 18.41023
    },
    {
        "name": "Donja Mahala",
        "latitude": 45.04327,
        "longitude": 18.66996
    },
    {
        "name": "Donja Me\u0111i\u0111a",
        "latitude": 44.80235,
        "longitude": 18.40477
    },
    {
        "name": "Donji Vakuf",
        "latitude": 44.14361,
        "longitude": 17.4
    },
    {
        "name": "Dre\u017enica",
        "latitude": 43.52891,
        "longitude": 17.2812
    },
    {
        "name": "Drinovci",
        "latitude": 43.35454,
        "longitude": 17.32536
    },
    {
        "name": "Drvar",
        "latitude": 44.37389,
        "longitude": 16.38083
    },
    {
        "name": "Dubrave Donje",
        "latitude": 44.4806,
        "longitude": 18.69709
    },
    {
        "name": "Dubrave Gornje",
        "latitude": 44.47229,
        "longitude": 18.72685
    },
    {
        "name": "Dubravica",
        "latitude": 44.44131,
        "longitude": 18.11883
    },
    {
        "name": "Fojnica",
        "latitude": 43.95952,
        "longitude": 17.90288
    },
    {
        "name": "Glamo\u010d",
        "latitude": 44.04583,
        "longitude": 16.84861
    },
    {
        "name": "Gnojnica",
        "latitude": 44.62058,
        "longitude": 18.44684
    },
    {
        "name": "Gora\u017ede",
        "latitude": 43.66795,
        "longitude": 18.97564
    },
    {
        "name": "Gorica",
        "latitude": 43.41833,
        "longitude": 17.285
    },
    {
        "name": "Gornja Breza",
        "latitude": 44.03758,
        "longitude": 18.24564
    },
    {
        "name": "Gornja Koprivna",
        "latitude": 45.01091,
        "longitude": 15.95487
    },
    {
        "name": "Gornja Tuzla",
        "latitude": 44.55659,
        "longitude": 18.76159
    },
    {
        "name": "Gornje Mo\u0161tre",
        "latitude": 44.01911,
        "longitude": 18.15477
    },
    {
        "name": "Gornje \u017divinice",
        "latitude": 44.42921,
        "longitude": 18.61667
    },
    {
        "name": "Gornji Vakuf",
        "latitude": 43.93806,
        "longitude": 17.58833
    },
    {
        "name": "Gostovi\u0107i",
        "latitude": 44.41124,
        "longitude": 18.17029
    },
    {
        "name": "Gra\u010danica",
        "latitude": 43.73333,
        "longitude": 18.28333
    },
    {
        "name": "Grada\u010dac",
        "latitude": 44.87851,
        "longitude": 18.42764
    },
    {
        "name": "Gromiljak",
        "latitude": 43.96668,
        "longitude": 18.05504
    },
    {
        "name": "Grude",
        "latitude": 43.37208,
        "longitude": 17.41449
    },
    {
        "name": "Had\u017ei\u0107i",
        "latitude": 43.82222,
        "longitude": 18.20667
    },
    {
        "name": "Hercegova\u010dko-Neretvanski Kanton",
        "latitude": 43.45722,
        "longitude": 17.8125
    },
    {
        "name": "Hotonj",
        "latitude": 43.89341,
        "longitude": 18.37751
    },
    {
        "name": "Ili\u0107i",
        "latitude": 43.34765,
        "longitude": 17.76848
    },
    {
        "name": "Ilija\u0161",
        "latitude": 43.95128,
        "longitude": 18.27128
    },
    {
        "name": "Iza\u010di\u0107",
        "latitude": 44.87485,
        "longitude": 15.78256
    },
    {
        "name": "Jablanica",
        "latitude": 43.66028,
        "longitude": 17.76167
    },
    {
        "name": "Jajce",
        "latitude": 44.34203,
        "longitude": 17.27059
    },
    {
        "name": "Jelah",
        "latitude": 44.654,
        "longitude": 17.95897
    },
    {
        "name": "Jezerski",
        "latitude": 44.98172,
        "longitude": 16.09447
    },
    {
        "name": "Ka\u010duni",
        "latitude": 44.06433,
        "longitude": 17.93894
    },
    {
        "name": "Kakanj",
        "latitude": 44.13311,
        "longitude": 18.12292
    },
    {
        "name": "Kanton Sarajevo",
        "latitude": 43.84333,
        "longitude": 18.24222
    },
    {
        "name": "Karadaglije",
        "latitude": 44.57065,
        "longitude": 18.01775
    },
    {
        "name": "Kiseljak",
        "latitude": 44.48904,
        "longitude": 18.56982
    },
    {
        "name": "Kladanj",
        "latitude": 44.22669,
        "longitude": 18.69274
    },
    {
        "name": "Klju\u010d",
        "latitude": 44.53251,
        "longitude": 16.77682
    },
    {
        "name": "Kobilja Glava",
        "latitude": 43.88188,
        "longitude": 18.38864
    },
    {
        "name": "Ko\u010derin",
        "latitude": 43.39005,
        "longitude": 17.48552
    },
    {
        "name": "Konjic",
        "latitude": 43.65126,
        "longitude": 17.96082
    },
    {
        "name": "Kova\u010di",
        "latitude": 44.44874,
        "longitude": 18.20521
    },
    {
        "name": "Lije\u0161nica",
        "latitude": 44.49497,
        "longitude": 18.07644
    },
    {
        "name": "Livno",
        "latitude": 43.82695,
        "longitude": 17.00746
    },
    {
        "name": "Ljubu\u0161ki",
        "latitude": 43.19694,
        "longitude": 17.545
    },
    {
        "name": "Lokvine",
        "latitude": 44.20466,
        "longitude": 17.85665
    },
    {
        "name": "Lukavac",
        "latitude": 44.54245,
        "longitude": 18.52618
    },
    {
        "name": "Lukavica",
        "latitude": 44.76452,
        "longitude": 18.16887
    },
    {
        "name": "Maglaj",
        "latitude": 44.54771,
        "longitude": 18.10003
    },
    {
        "name": "Mahala",
        "latitude": 44.01194,
        "longitude": 18.25528
    },
    {
        "name": "Mala Kladu\u0161a",
        "latitude": 45.13443,
        "longitude": 15.85217
    },
    {
        "name": "Male\u0161i\u0107i",
        "latitude": 44.73824,
        "longitude": 18.27335
    },
    {
        "name": "Mionica",
        "latitude": 44.86646,
        "longitude": 18.46603
    },
    {
        "name": "Mostar",
        "latitude": 43.34333,
        "longitude": 17.80806
    },
    {
        "name": "Mramor",
        "latitude": 44.59234,
        "longitude": 18.56458
    },
    {
        "name": "Neum",
        "latitude": 42.92333,
        "longitude": 17.61556
    },
    {
        "name": "Novi \u0160eher",
        "latitude": 44.51031,
        "longitude": 18.02624
    },
    {
        "name": "Novi Travnik",
        "latitude": 44.17133,
        "longitude": 17.65816
    },
    {
        "name": "Od\u017eak",
        "latitude": 45.02461,
        "longitude": 18.32107
    },
    {
        "name": "Olovo",
        "latitude": 44.1277,
        "longitude": 18.58065
    },
    {
        "name": "Omanjska",
        "latitude": 44.69831,
        "longitude": 17.95757
    },
    {
        "name": "Orahovica Donja",
        "latitude": 44.65345,
        "longitude": 18.36951
    },
    {
        "name": "Ora\u0161ac",
        "latitude": 44.63039,
        "longitude": 16.07443
    },
    {
        "name": "Ora\u0161je",
        "latitude": 45.03366,
        "longitude": 18.69334
    },
    {
        "name": "Orguz",
        "latitude": 43.77414,
        "longitude": 16.86329
    },
    {
        "name": "Ostro\u017eac",
        "latitude": 44.90866,
        "longitude": 15.94045
    },
    {
        "name": "Otoka",
        "latitude": 44.96,
        "longitude": 16.17917
    },
    {
        "name": "Paji\u0107 Polje",
        "latitude": 43.97583,
        "longitude": 17.5275
    },
    {
        "name": "Pazari\u0107",
        "latitude": 43.78882,
        "longitude": 18.16049
    },
    {
        "name": "Pe\u0107i",
        "latitude": 44.63139,
        "longitude": 16.7825
    },
    {
        "name": "Pe\u0107igrad",
        "latitude": 45.05444,
        "longitude": 15.89694
    },
    {
        "name": "Pjani\u0107i",
        "latitude": 44.98568,
        "longitude": 15.82304
    },
    {
        "name": "Podhum",
        "latitude": 43.72295,
        "longitude": 16.99887
    },
    {
        "name": "Podzvizd",
        "latitude": 45.17417,
        "longitude": 15.87361
    },
    {
        "name": "Polje",
        "latitude": 43.88014,
        "longitude": 18.07452
    },
    {
        "name": "Polje-Bijela",
        "latitude": 43.63299,
        "longitude": 17.97216
    },
    {
        "name": "Potoci",
        "latitude": 43.40953,
        "longitude": 17.87855
    },
    {
        "name": "Prozor",
        "latitude": 43.82222,
        "longitude": 17.60917
    },
    {
        "name": "Pura\u010di\u0107",
        "latitude": 44.54562,
        "longitude": 18.47865
    },
    {
        "name": "Radi\u0161i\u0107i",
        "latitude": 43.22302,
        "longitude": 17.54056
    },
    {
        "name": "Rodo\u010d",
        "latitude": 43.31453,
        "longitude": 17.8029
    },
    {
        "name": "Rumboci",
        "latitude": 43.83154,
        "longitude": 17.50273
    },
    {
        "name": "Sanica",
        "latitude": 44.61354,
        "longitude": 16.64062
    },
    {
        "name": "Sanski Most",
        "latitude": 44.7667,
        "longitude": 16.667
    },
    {
        "name": "Sapna",
        "latitude": 44.5038,
        "longitude": 18.99818
    },
    {
        "name": "Sarajevo",
        "latitude": 43.84864,
        "longitude": 18.35644
    },
    {
        "name": "\u0160eri\u0107i",
        "latitude": 44.46674,
        "longitude": 18.5637
    },
    {
        "name": "\u0160iroki Brijeg",
        "latitude": 43.3829,
        "longitude": 17.59416
    },
    {
        "name": "Skokovi",
        "latitude": 45.03139,
        "longitude": 15.91444
    },
    {
        "name": "Sladna",
        "latitude": 44.72897,
        "longitude": 18.42575
    },
    {
        "name": "Solina",
        "latitude": 44.56226,
        "longitude": 18.69322
    },
    {
        "name": "Srebrenik",
        "latitude": 44.70819,
        "longitude": 18.48834
    },
    {
        "name": "Stijena",
        "latitude": 44.9363,
        "longitude": 16.02224
    },
    {
        "name": "Stjepan-Polje",
        "latitude": 44.71634,
        "longitude": 18.25783
    },
    {
        "name": "Stolac",
        "latitude": 43.084,
        "longitude": 17.95995
    },
    {
        "name": "\u0160turli\u0107",
        "latitude": 45.06389,
        "longitude": 15.77806
    },
    {
        "name": "\u0160umatac",
        "latitude": 45.09743,
        "longitude": 15.85818
    },
    {
        "name": "Tasov\u010di\u0107i",
        "latitude": 43.11333,
        "longitude": 17.72
    },
    {
        "name": "Te\u0161anj",
        "latitude": 44.61191,
        "longitude": 17.98552
    },
    {
        "name": "Te\u0161anjka",
        "latitude": 44.67228,
        "longitude": 18.01109
    },
    {
        "name": "Todorovo",
        "latitude": 45.08833,
        "longitude": 15.93083
    },
    {
        "name": "Toj\u0161i\u0107i",
        "latitude": 44.50133,
        "longitude": 18.78523
    },
    {
        "name": "Tomislavgrad",
        "latitude": 43.71849,
        "longitude": 17.22515
    },
    {
        "name": "Travnik",
        "latitude": 44.22637,
        "longitude": 17.66583
    },
    {
        "name": "Tr\u017ea\u010dka Ra\u0161tela",
        "latitude": 44.97597,
        "longitude": 15.78489
    },
    {
        "name": "Turbe",
        "latitude": 44.24352,
        "longitude": 17.57499
    },
    {
        "name": "Tuzla",
        "latitude": 44.53842,
        "longitude": 18.66709
    },
    {
        "name": "Ustikolina",
        "latitude": 43.58338,
        "longitude": 18.79106
    },
    {
        "name": "Vare\u0161",
        "latitude": 44.16444,
        "longitude": 18.32833
    },
    {
        "name": "Varo\u0161ka Rijeka",
        "latitude": 45.08936,
        "longitude": 16.01906
    },
    {
        "name": "Velagi\u0107i",
        "latitude": 44.55618,
        "longitude": 16.73349
    },
    {
        "name": "Velika Kladu\u0161a",
        "latitude": 45.18497,
        "longitude": 15.80579
    },
    {
        "name": "Vido\u0161i",
        "latitude": 43.77139,
        "longitude": 17.02833
    },
    {
        "name": "Visoko",
        "latitude": 43.98889,
        "longitude": 18.17806
    },
    {
        "name": "Vitez",
        "latitude": 44.15424,
        "longitude": 17.79009
    },
    {
        "name": "Vitina",
        "latitude": 43.2375,
        "longitude": 17.48389
    },
    {
        "name": "Vogo\u0161\u0107a",
        "latitude": 43.90225,
        "longitude": 18.34438
    },
    {
        "name": "Voljevac",
        "latitude": 43.87873,
        "longitude": 17.65861
    },
    {
        "name": "Vrnogra\u010d",
        "latitude": 45.16369,
        "longitude": 15.95444
    },
    {
        "name": "Vukovije Donje",
        "latitude": 44.46209,
        "longitude": 18.74941
    },
    {
        "name": "Zabri\u0161\u0107e",
        "latitude": 43.79224,
        "longitude": 16.94224
    },
    {
        "name": "Zavidovi\u0107i",
        "latitude": 44.44583,
        "longitude": 18.14972
    },
    {
        "name": "Zbori\u0161te",
        "latitude": 45.14593,
        "longitude": 16.01728
    },
    {
        "name": "\u017deljezno Polje",
        "latitude": 44.39875,
        "longitude": 17.94103
    },
    {
        "name": "Zenica",
        "latitude": 44.20169,
        "longitude": 17.90397
    },
    {
        "name": "\u017dep\u010de",
        "latitude": 44.42667,
        "longitude": 18.03778
    },
    {
        "name": "\u017divinice",
        "latitude": 44.44929,
        "longitude": 18.64978
    },
    {
        "name": "Balatun",
        "latitude": 44.86332,
        "longitude": 19.33931
    },
    {
        "name": "Banja Luka",
        "latitude": 44.77842,
        "longitude": 17.19386
    },
    {
        "name": "Bijeljina",
        "latitude": 44.76583,
        "longitude": 19.15083
    },
    {
        "name": "Bile\u0107a",
        "latitude": 42.87645,
        "longitude": 18.42967
    },
    {
        "name": "Blatnica",
        "latitude": 44.48677,
        "longitude": 17.82278
    },
    {
        "name": "Brod",
        "latitude": 45.13747,
        "longitude": 17.98722
    },
    {
        "name": "Bronzani Majdan",
        "latitude": 44.79237,
        "longitude": 16.94039
    },
    {
        "name": "\u010cajni\u010de",
        "latitude": 43.55712,
        "longitude": 19.07186
    },
    {
        "name": "\u010ce\u010dava",
        "latitude": 44.67961,
        "longitude": 17.7578
    },
    {
        "name": "\u010celinac",
        "latitude": 44.72453,
        "longitude": 17.32431
    },
    {
        "name": "Derventa",
        "latitude": 44.97839,
        "longitude": 17.90779
    },
    {
        "name": "Doboj",
        "latitude": 44.75944,
        "longitude": 18.065
    },
    {
        "name": "Dobrljin",
        "latitude": 45.15106,
        "longitude": 16.47869
    },
    {
        "name": "Dvorovi",
        "latitude": 44.80753,
        "longitude": 19.25999
    },
    {
        "name": "Fo\u010da",
        "latitude": 43.50646,
        "longitude": 18.77854
    },
    {
        "name": "Gacko",
        "latitude": 43.16722,
        "longitude": 18.53528
    },
    {
        "name": "Gradi\u0161ka",
        "latitude": 45.14484,
        "longitude": 17.25453
    },
    {
        "name": "Hiseti",
        "latitude": 44.76111,
        "longitude": 17.17944
    },
    {
        "name": "Isto\u010dni Mostar",
        "latitude": 43.42056,
        "longitude": 18.00833
    },
    {
        "name": "Janja",
        "latitude": 44.66554,
        "longitude": 19.24691
    },
    {
        "name": "Kalenderovci Donji",
        "latitude": 44.94673,
        "longitude": 17.83785
    },
    {
        "name": "Kne\u017eevo",
        "latitude": 44.49071,
        "longitude": 17.38161
    },
    {
        "name": "Kne\u017eica",
        "latitude": 45.10548,
        "longitude": 16.67668
    },
    {
        "name": "Koran",
        "latitude": 43.81038,
        "longitude": 18.56999
    },
    {
        "name": "Kostajnica",
        "latitude": 45.21956,
        "longitude": 16.53929
    },
    {
        "name": "Kotor Varo\u0161",
        "latitude": 44.61831,
        "longitude": 17.37204
    },
    {
        "name": "Kozarska Dubica",
        "latitude": 45.17667,
        "longitude": 16.80944
    },
    {
        "name": "Krupa na Vrbasu",
        "latitude": 44.61875,
        "longitude": 17.14351
    },
    {
        "name": "Lakta\u0161i",
        "latitude": 44.90857,
        "longitude": 17.30135
    },
    {
        "name": "Lamovita",
        "latitude": 44.92018,
        "longitude": 16.89933
    },
    {
        "name": "Ljubinje",
        "latitude": 42.9512,
        "longitude": 18.08702
    },
    {
        "name": "Lopare",
        "latitude": 44.63498,
        "longitude": 18.8434
    },
    {
        "name": "Maglajani",
        "latitude": 44.94975,
        "longitude": 17.35014
    },
    {
        "name": "Mari\u0107ka",
        "latitude": 44.86801,
        "longitude": 16.8551
    },
    {
        "name": "Maslovare",
        "latitude": 44.56594,
        "longitude": 17.53216
    },
    {
        "name": "Mejdan - Obili\u0107evo",
        "latitude": 44.76324,
        "longitude": 17.19012
    },
    {
        "name": "Mili\u0107i",
        "latitude": 44.17016,
        "longitude": 19.09195
    },
    {
        "name": "Modri\u010da",
        "latitude": 44.95444,
        "longitude": 18.30361
    },
    {
        "name": "Mrkonji\u0107 Grad",
        "latitude": 44.41729,
        "longitude": 17.08288
    },
    {
        "name": "Nevesinje",
        "latitude": 43.25861,
        "longitude": 18.11333
    },
    {
        "name": "Novi Grad",
        "latitude": 45.04643,
        "longitude": 16.37782
    },
    {
        "name": "Obudovac",
        "latitude": 44.95215,
        "longitude": 18.59869
    },
    {
        "name": "Omarska",
        "latitude": 44.8917,
        "longitude": 16.89814
    },
    {
        "name": "Op\u0161tina O\u0161tra Luka",
        "latitude": 44.73278,
        "longitude": 16.82861
    },
    {
        "name": "Op\u0161tina Vi\u0161egrad",
        "latitude": 43.72167,
        "longitude": 19.31361
    },
    {
        "name": "O\u0161tra Luka",
        "latitude": 44.99724,
        "longitude": 18.58464
    },
    {
        "name": "Pale",
        "latitude": 43.81664,
        "longitude": 18.56949
    },
    {
        "name": "Pelagi\u0107evo",
        "latitude": 44.90105,
        "longitude": 18.59185
    },
    {
        "name": "Petkovci",
        "latitude": 44.46849,
        "longitude": 19.07466
    },
    {
        "name": "Piskavica",
        "latitude": 44.86717,
        "longitude": 16.97464
    },
    {
        "name": "Podbrdo",
        "latitude": 44.44189,
        "longitude": 17.01495
    },
    {
        "name": "Popovi",
        "latitude": 44.76547,
        "longitude": 19.28667
    },
    {
        "name": "Pribini\u0107",
        "latitude": 44.6101,
        "longitude": 17.68981
    },
    {
        "name": "Priboj",
        "latitude": 44.60233,
        "longitude": 18.93165
    },
    {
        "name": "Prijedor",
        "latitude": 44.97991,
        "longitude": 16.71401
    },
    {
        "name": "Rogatica",
        "latitude": 43.79894,
        "longitude": 19.00363
    },
    {
        "name": "Rudo",
        "latitude": 43.61781,
        "longitude": 19.36719
    },
    {
        "name": "\u0160amac",
        "latitude": 45.05987,
        "longitude": 18.46756
    },
    {
        "name": "\u0160ekovi\u0107i",
        "latitude": 44.29896,
        "longitude": 18.85532
    },
    {
        "name": "\u0160ipovo",
        "latitude": 44.28237,
        "longitude": 17.08597
    },
    {
        "name": "Sokolac",
        "latitude": 43.93817,
        "longitude": 18.80079
    },
    {
        "name": "Srbac",
        "latitude": 45.0973,
        "longitude": 17.52331
    },
    {
        "name": "Srebrenica",
        "latitude": 44.10748,
        "longitude": 19.29669
    },
    {
        "name": "Stanari",
        "latitude": 44.74475,
        "longitude": 17.82714
    },
    {
        "name": "Starcevica",
        "latitude": 44.75708,
        "longitude": 17.21178
    },
    {
        "name": "Svodna",
        "latitude": 45.0377,
        "longitude": 16.54019
    },
    {
        "name": "Tesli\u0107",
        "latitude": 44.60639,
        "longitude": 17.85972
    },
    {
        "name": "Trebinje",
        "latitude": 42.71197,
        "longitude": 18.34362
    },
    {
        "name": "Trn",
        "latitude": 44.85829,
        "longitude": 17.23583
    },
    {
        "name": "Ugljevik",
        "latitude": 44.66361,
        "longitude": 19.02028
    },
    {
        "name": "Velika Obarska",
        "latitude": 44.80461,
        "longitude": 19.16183
    },
    {
        "name": "Vi\u0161egrad",
        "latitude": 43.7826,
        "longitude": 19.29256
    },
    {
        "name": "Vlasenica",
        "latitude": 44.18183,
        "longitude": 18.94096
    },
    {
        "name": "\u017divinice",
        "latitude": 44.54765,
        "longitude": 17.37357
    },
    {
        "name": "Zvornik",
        "latitude": 44.38605,
        "longitude": 19.10247
    }
]