[
    {
        "name": "Abidjan",
        "latitude": 5.30966,
        "longitude": -4.01266
    },
    {
        "name": "Abobo",
        "latitude": 5.41613,
        "longitude": -4.0159
    },
    {
        "name": "Anyama",
        "latitude": 5.49462,
        "longitude": -4.05183
    },
    {
        "name": "Bingerville",
        "latitude": 5.35581,
        "longitude": -3.88537
    },
    {
        "name": "Gb\u00f4kl\u00e9",
        "latitude": 4.95712,
        "longitude": -6.09372
    },
    {
        "name": "Nawa",
        "latitude": 5.80112,
        "longitude": -6.60313
    },
    {
        "name": "San-P\u00e9dro",
        "latitude": 4.76768,
        "longitude": -6.65033
    },
    {
        "name": "Sassandra",
        "latitude": 4.95384,
        "longitude": -6.08531
    },
    {
        "name": "Tabou",
        "latitude": 4.42295,
        "longitude": -7.3528
    },
    {
        "name": "Abengourou",
        "latitude": 6.72972,
        "longitude": -3.49639
    },
    {
        "name": "Aboisso",
        "latitude": 5.46779,
        "longitude": -3.20711
    },
    {
        "name": "Adiak\u00e9",
        "latitude": 5.28634,
        "longitude": -3.30403
    },
    {
        "name": "Agnibil\u00e9krou",
        "latitude": 7.13113,
        "longitude": -3.20415
    },
    {
        "name": "Ayam\u00e9",
        "latitude": 5.6052,
        "longitude": -3.15709
    },
    {
        "name": "Bonoua",
        "latitude": 5.27247,
        "longitude": -3.59625
    },
    {
        "name": "Grand-Bassam",
        "latitude": 5.2118,
        "longitude": -3.73884
    },
    {
        "name": "Ind\u00e9ni\u00e9-Djuablin",
        "latitude": 6.74434,
        "longitude": -3.494
    },
    {
        "name": "Sud-Como\u00e9",
        "latitude": 5.49961,
        "longitude": -3.2408
    },
    {
        "name": "Folon",
        "latitude": 9.81241,
        "longitude": -7.51894
    },
    {
        "name": "Kabadougou",
        "latitude": 9.60571,
        "longitude": -7.43774
    },
    {
        "name": "Odienn\u00e9",
        "latitude": 9.50511,
        "longitude": -7.56433
    },
    {
        "name": "Bangolo",
        "latitude": 7.01232,
        "longitude": -7.48639
    },
    {
        "name": "Biankouma",
        "latitude": 7.73909,
        "longitude": -7.61377
    },
    {
        "name": "Cavally",
        "latitude": 6.56343,
        "longitude": -7.92526
    },
    {
        "name": "Danan\u00e9",
        "latitude": 7.25957,
        "longitude": -8.15498
    },
    {
        "name": "Duekou\u00e9",
        "latitude": 6.74202,
        "longitude": -7.34918
    },
    {
        "name": "Gu\u00e9mon",
        "latitude": 7.093,
        "longitude": -7.17785
    },
    {
        "name": "Guiglo",
        "latitude": 6.54368,
        "longitude": -7.4935
    },
    {
        "name": "Man",
        "latitude": 7.41251,
        "longitude": -7.55383
    },
    {
        "name": "Tonkpi",
        "latitude": 7.56785,
        "longitude": -7.60941
    },
    {
        "name": "Toul\u00e9pleu Guer\u00e9",
        "latitude": 6.57395,
        "longitude": -8.42592
    },
    {
        "name": "Divo",
        "latitude": 5.83739,
        "longitude": -5.35723
    },
    {
        "name": "Gagnoa",
        "latitude": 6.13193,
        "longitude": -5.9506
    },
    {
        "name": "G\u00f4h",
        "latitude": 6.14459,
        "longitude": -5.92644
    },
    {
        "name": "Guib\u00e9roua",
        "latitude": 6.23869,
        "longitude": -6.17147
    },
    {
        "name": "Lakota",
        "latitude": 5.84752,
        "longitude": -5.682
    },
    {
        "name": "L\u00f4h-Djiboua",
        "latitude": 5.82483,
        "longitude": -5.47668
    },
    {
        "name": "Oum\u00e9",
        "latitude": 6.38309,
        "longitude": -5.41759
    },
    {
        "name": "Arrah",
        "latitude": 6.67342,
        "longitude": -3.96938
    },
    {
        "name": "B\u00e9lier",
        "latitude": 7.02582,
        "longitude": -5.06744
    },
    {
        "name": "Bocanda",
        "latitude": 7.06264,
        "longitude": -4.49948
    },
    {
        "name": "Bongouanou",
        "latitude": 6.65175,
        "longitude": -4.20406
    },
    {
        "name": "Daoukro",
        "latitude": 7.0591,
        "longitude": -3.9631
    },
    {
        "name": "Dimbokro",
        "latitude": 6.64678,
        "longitude": -4.70519
    },
    {
        "name": "Iffou",
        "latitude": 7.11509,
        "longitude": -3.95027
    },
    {
        "name": "Moronou",
        "latitude": 6.6683,
        "longitude": -4.13155
    },
    {
        "name": "N'Zi",
        "latitude": 6.82803,
        "longitude": -4.5813
    },
    {
        "name": "Toumodi",
        "latitude": 6.55799,
        "longitude": -5.01769
    },
    {
        "name": "Yamoussoukro",
        "latitude": 6.82055,
        "longitude": -5.27674
    },
    {
        "name": "Adzop\u00e9",
        "latitude": 6.10694,
        "longitude": -3.86194
    },
    {
        "name": "Affery",
        "latitude": 6.32035,
        "longitude": -3.95235
    },
    {
        "name": "Agboville",
        "latitude": 5.92801,
        "longitude": -4.21319
    },
    {
        "name": "Agn\u00e9by-Tiassa",
        "latitude": 5.79488,
        "longitude": -4.37187
    },
    {
        "name": "Akoup\u00e9",
        "latitude": 6.38423,
        "longitude": -3.88759
    },
    {
        "name": "Dabou",
        "latitude": 5.32556,
        "longitude": -4.37685
    },
    {
        "name": "Grand-Lahou",
        "latitude": 5.25068,
        "longitude": -5.00333
    },
    {
        "name": "Grands-Ponts",
        "latitude": 5.30487,
        "longitude": -4.39247
    },
    {
        "name": "Tiassal\u00e9",
        "latitude": 5.89839,
        "longitude": -4.82293
    },
    {
        "name": "Bouafl\u00e9",
        "latitude": 6.99041,
        "longitude": -5.7442
    },
    {
        "name": "Daloa",
        "latitude": 6.87735,
        "longitude": -6.45022
    },
    {
        "name": "Haut-Sassandra",
        "latitude": 6.66961,
        "longitude": -6.50116
    },
    {
        "name": "Issia",
        "latitude": 6.49224,
        "longitude": -6.58558
    },
    {
        "name": "Marahou\u00e9",
        "latitude": 7.03252,
        "longitude": -5.80215
    },
    {
        "name": "Vavoua",
        "latitude": 7.38194,
        "longitude": -6.47778
    },
    {
        "name": "Zu\u00e9noula",
        "latitude": 7.43027,
        "longitude": -6.05054
    },
    {
        "name": "B\u00e9oumi",
        "latitude": 7.67395,
        "longitude": -5.58085
    },
    {
        "name": "Botro",
        "latitude": 7.85249,
        "longitude": -5.31063
    },
    {
        "name": "Bouak\u00e9",
        "latitude": 7.69385,
        "longitude": -5.03031
    },
    {
        "name": "Dabakala",
        "latitude": 8.36321,
        "longitude": -4.42863
    },
    {
        "name": "Gb\u00eak\u00ea",
        "latitude": 7.70271,
        "longitude": -5.28511
    },
    {
        "name": "Hambol",
        "latitude": 8.30368,
        "longitude": -5.15396
    },
    {
        "name": "Katiola",
        "latitude": 8.13728,
        "longitude": -5.10095
    },
    {
        "name": "Sakassou",
        "latitude": 7.45462,
        "longitude": -5.29263
    },
    {
        "name": "Bafing",
        "latitude": 8.40611,
        "longitude": -7.58048
    },
    {
        "name": "B\u00e9r\u00e9",
        "latitude": 8.18952,
        "longitude": -6.17157
    },
    {
        "name": "Mankono",
        "latitude": 8.05861,
        "longitude": -6.18972
    },
    {
        "name": "S\u00e9gu\u00e9la",
        "latitude": 7.96111,
        "longitude": -6.67306
    },
    {
        "name": "Touba",
        "latitude": 8.28333,
        "longitude": -7.68333
    },
    {
        "name": "Worodougou",
        "latitude": 8.16482,
        "longitude": -6.66595
    },
    {
        "name": "Bondoukou",
        "latitude": 8.0402,
        "longitude": -2.80003
    },
    {
        "name": "Bouna",
        "latitude": 9.26927,
        "longitude": -2.9951
    },
    {
        "name": "Bounkani",
        "latitude": 9.47841,
        "longitude": -3.31238
    },
    {
        "name": "Gontougo",
        "latitude": 7.87132,
        "longitude": -3.07068
    },
    {
        "name": "Sinfra",
        "latitude": 6.62103,
        "longitude": -5.91144
    },
    {
        "name": "Tanda",
        "latitude": 7.80335,
        "longitude": -3.16832
    }
]