[
    {
        "name": "Alajuela",
        "latitude": 10.01625,
        "longitude": -84.21163
    },
    {
        "name": "Atenas",
        "latitude": 9.98333,
        "longitude": -84.38333
    },
    {
        "name": "Bijagua",
        "latitude": 10.73279,
        "longitude": -85.05676
    },
    {
        "name": "Carrillos",
        "latitude": 10.02918,
        "longitude": -84.27403
    },
    {
        "name": "Desamparados",
        "latitude": 9.94727,
        "longitude": -84.50626
    },
    {
        "name": "Esquipulas",
        "latitude": 10.05676,
        "longitude": -84.42337
    },
    {
        "name": "Grecia",
        "latitude": 10.06892,
        "longitude": -84.31458
    },
    {
        "name": "Guatuso",
        "latitude": 10.66667,
        "longitude": -84.83333
    },
    {
        "name": "La Fortuna",
        "latitude": 10.47089,
        "longitude": -84.64535
    },
    {
        "name": "Los Chiles",
        "latitude": 10.86667,
        "longitude": -84.66667
    },
    {
        "name": "Naranjo",
        "latitude": 10.11667,
        "longitude": -84.4
    },
    {
        "name": "Orotina",
        "latitude": 9.9,
        "longitude": -84.56667
    },
    {
        "name": "Palmares",
        "latitude": 10.03333,
        "longitude": -84.43333
    },
    {
        "name": "Pital",
        "latitude": 10.45056,
        "longitude": -84.27406
    },
    {
        "name": "Po\u00e1s",
        "latitude": 10.08333,
        "longitude": -84.23333
    },
    {
        "name": "Pocosol",
        "latitude": 10.36667,
        "longitude": -84.61667
    },
    {
        "name": "Quesada",
        "latitude": 10.32381,
        "longitude": -84.42714
    },
    {
        "name": "R\u00edo Segundo",
        "latitude": 10.24138,
        "longitude": -84.27933
    },
    {
        "name": "Sabanilla",
        "latitude": 10.07404,
        "longitude": -84.21551
    },
    {
        "name": "San Carlos",
        "latitude": 10.58333,
        "longitude": -84.41667
    },
    {
        "name": "San Jos\u00e9",
        "latitude": 10.95173,
        "longitude": -85.1361
    },
    {
        "name": "San Juan",
        "latitude": 10.10248,
        "longitude": -84.31694
    },
    {
        "name": "San Mateo",
        "latitude": 9.95,
        "longitude": -84.51667
    },
    {
        "name": "San Rafael",
        "latitude": 10.06403,
        "longitude": -84.47281
    },
    {
        "name": "San Ram\u00f3n",
        "latitude": 10.08718,
        "longitude": -84.47044
    },
    {
        "name": "Santiago",
        "latitude": 10.02275,
        "longitude": -84.4442
    },
    {
        "name": "Upala",
        "latitude": 10.85,
        "longitude": -85.16667
    },
    {
        "name": "Valverde Vega",
        "latitude": 10.18721,
        "longitude": -84.3029
    },
    {
        "name": "Zarcero",
        "latitude": 10.2,
        "longitude": -84.4
    },
    {
        "name": "Abangares",
        "latitude": 10.21667,
        "longitude": -85.0
    },
    {
        "name": "Bagaces",
        "latitude": 10.5,
        "longitude": -85.25
    },
    {
        "name": "Bel\u00e9n",
        "latitude": 10.40789,
        "longitude": -85.58836
    },
    {
        "name": "Ca\u00f1as",
        "latitude": 10.48005,
        "longitude": -85.11349
    },
    {
        "name": "Carrillo",
        "latitude": 10.41667,
        "longitude": -85.58333
    },
    {
        "name": "Fortuna",
        "latitude": 10.67384,
        "longitude": -85.19984
    },
    {
        "name": "Hojancha",
        "latitude": 9.96667,
        "longitude": -85.41667
    },
    {
        "name": "Juntas",
        "latitude": 10.28089,
        "longitude": -84.95951
    },
    {
        "name": "La Cruz",
        "latitude": 11.0,
        "longitude": -85.58333
    },
    {
        "name": "Liberia",
        "latitude": 10.63504,
        "longitude": -85.43772
    },
    {
        "name": "Nandayure",
        "latitude": 9.91667,
        "longitude": -85.28333
    },
    {
        "name": "Nicoya",
        "latitude": 10.08333,
        "longitude": -85.5
    },
    {
        "name": "S\u00e1mara",
        "latitude": 9.88147,
        "longitude": -85.52809
    },
    {
        "name": "Santa Cruz",
        "latitude": 10.25,
        "longitude": -85.66667
    },
    {
        "name": "Sardinal",
        "latitude": 10.51674,
        "longitude": -85.64748
    },
    {
        "name": "Tilar\u00e1n",
        "latitude": 10.45878,
        "longitude": -84.97513
    },
    {
        "name": "\u00c1ngeles",
        "latitude": 9.99591,
        "longitude": -84.05126
    },
    {
        "name": "Barva",
        "latitude": 10.08333,
        "longitude": -84.1
    },
    {
        "name": "Bel\u00e9n",
        "latitude": 9.98333,
        "longitude": -84.16667
    },
    {
        "name": "Flores",
        "latitude": 10.0,
        "longitude": -84.15
    },
    {
        "name": "Heredia",
        "latitude": 10.00236,
        "longitude": -84.11651
    },
    {
        "name": "La Asunci\u00f3n",
        "latitude": 9.97961,
        "longitude": -84.17281
    },
    {
        "name": "Llorente",
        "latitude": 9.99844,
        "longitude": -84.15448
    },
    {
        "name": "Mercedes",
        "latitude": 10.00695,
        "longitude": -84.13396
    },
    {
        "name": "San Antonio",
        "latitude": 9.98333,
        "longitude": -84.18333
    },
    {
        "name": "San Francisco",
        "latitude": 9.99299,
        "longitude": -84.12934
    },
    {
        "name": "San Isidro",
        "latitude": 10.03333,
        "longitude": -84.03333
    },
    {
        "name": "San Josecito",
        "latitude": 10.01667,
        "longitude": -84.1
    },
    {
        "name": "San Pablo",
        "latitude": 10.0,
        "longitude": -84.08333
    },
    {
        "name": "San Rafael",
        "latitude": 10.05,
        "longitude": -84.06667
    },
    {
        "name": "Santa B\u00e1rbara",
        "latitude": 10.08333,
        "longitude": -84.15
    },
    {
        "name": "Santo Domingo",
        "latitude": 10.06389,
        "longitude": -84.15499
    },
    {
        "name": "Sarapiqu\u00ed",
        "latitude": 10.5,
        "longitude": -84.0
    },
    {
        "name": "Bat\u00e1n",
        "latitude": 10.08354,
        "longitude": -83.33413
    },
    {
        "name": "Gu\u00e1cimo",
        "latitude": 10.2,
        "longitude": -83.66667
    },
    {
        "name": "Gu\u00e1piles",
        "latitude": 10.21682,
        "longitude": -83.78483
    },
    {
        "name": "Lim\u00f3n",
        "latitude": 9.99074,
        "longitude": -83.03596
    },
    {
        "name": "Matina",
        "latitude": 10.0,
        "longitude": -83.25
    },
    {
        "name": "Pococ\u00ed",
        "latitude": 10.5,
        "longitude": -83.63333
    },
    {
        "name": "Pocora",
        "latitude": 10.17185,
        "longitude": -83.60439
    },
    {
        "name": "Roxana",
        "latitude": 10.26712,
        "longitude": -83.7511
    },
    {
        "name": "Siquirres",
        "latitude": 10.11667,
        "longitude": -83.5
    },
    {
        "name": "Sixaola",
        "latitude": 9.52766,
        "longitude": -82.62185
    },
    {
        "name": "Talamanca",
        "latitude": 9.5,
        "longitude": -83.08333
    },
    {
        "name": "Alvarado",
        "latitude": 9.93333,
        "longitude": -83.8
    },
    {
        "name": "Cartago",
        "latitude": 9.86444,
        "longitude": -83.91944
    },
    {
        "name": "Concepci\u00f3n",
        "latitude": 9.93333,
        "longitude": -84.0
    },
    {
        "name": "Cot",
        "latitude": 9.89449,
        "longitude": -83.87302
    },
    {
        "name": "El Guarco",
        "latitude": 9.75,
        "longitude": -83.91667
    },
    {
        "name": "Jim\u00e9nez",
        "latitude": 9.75,
        "longitude": -83.68333
    },
    {
        "name": "La Suiza",
        "latitude": 9.85065,
        "longitude": -83.6169
    },
    {
        "name": "La Uni\u00f3n",
        "latitude": 9.91667,
        "longitude": -83.98333
    },
    {
        "name": "Oreamuno",
        "latitude": 10.0,
        "longitude": -83.83333
    },
    {
        "name": "Oros\u00ed",
        "latitude": 9.79617,
        "longitude": -83.85383
    },
    {
        "name": "Pacayas",
        "latitude": 9.80709,
        "longitude": -84.04764
    },
    {
        "name": "Para\u00edso",
        "latitude": 9.75,
        "longitude": -83.8
    },
    {
        "name": "Pejibaye",
        "latitude": 9.81135,
        "longitude": -83.70336
    },
    {
        "name": "San Diego",
        "latitude": 9.89898,
        "longitude": -84.00287
    },
    {
        "name": "Tobosi",
        "latitude": 9.83837,
        "longitude": -83.98391
    },
    {
        "name": "Tres R\u00edos",
        "latitude": 9.90644,
        "longitude": -83.9876
    },
    {
        "name": "Tucurrique",
        "latitude": 9.85336,
        "longitude": -83.72273
    },
    {
        "name": "Turrialba",
        "latitude": 9.8,
        "longitude": -83.53333
    },
    {
        "name": "Buenos Aires",
        "latitude": 9.11667,
        "longitude": -83.25
    },
    {
        "name": "Canoas",
        "latitude": 8.53305,
        "longitude": -82.83844
    },
    {
        "name": "Chacarita",
        "latitude": 9.98424,
        "longitude": -84.77892
    },
    {
        "name": "Ciudad Cort\u00e9s",
        "latitude": 8.95988,
        "longitude": -83.52381
    },
    {
        "name": "Corredor",
        "latitude": 8.64002,
        "longitude": -82.946
    },
    {
        "name": "Corredores",
        "latitude": 8.58333,
        "longitude": -82.91667
    },
    {
        "name": "Coto Brus",
        "latitude": 8.88333,
        "longitude": -82.96667
    },
    {
        "name": "Esparza",
        "latitude": 10.0,
        "longitude": -84.66667
    },
    {
        "name": "Garabito",
        "latitude": 9.61903,
        "longitude": -84.62013
    },
    {
        "name": "Golfito",
        "latitude": 8.6,
        "longitude": -83.12
    },
    {
        "name": "Jac\u00f3",
        "latitude": 9.61497,
        "longitude": -84.62975
    },
    {
        "name": "Miramar",
        "latitude": 10.0925,
        "longitude": -84.72978
    },
    {
        "name": "Montes de Oro",
        "latitude": 10.1,
        "longitude": -84.75
    },
    {
        "name": "Osa",
        "latitude": 8.83333,
        "longitude": -83.5
    },
    {
        "name": "Paquera",
        "latitude": 9.82005,
        "longitude": -84.93513
    },
    {
        "name": "Parrita",
        "latitude": 9.55,
        "longitude": -84.33333
    },
    {
        "name": "Puntarenas",
        "latitude": 9.97625,
        "longitude": -84.83836
    },
    {
        "name": "Quepos",
        "latitude": 9.43187,
        "longitude": -84.16141
    },
    {
        "name": "San Vito",
        "latitude": 8.82079,
        "longitude": -82.97092
    },
    {
        "name": "Acosta",
        "latitude": 9.8,
        "longitude": -84.2
    },
    {
        "name": "Alajuelita",
        "latitude": 9.9,
        "longitude": -84.1
    },
    {
        "name": "Aserr\u00ed",
        "latitude": 9.86667,
        "longitude": -84.1
    },
    {
        "name": "Calle Blancos",
        "latitude": 9.95,
        "longitude": -84.06667
    },
    {
        "name": "Colima",
        "latitude": 9.95091,
        "longitude": -84.08503
    },
    {
        "name": "Col\u00f3n",
        "latitude": 9.91491,
        "longitude": -84.2417
    },
    {
        "name": "Curridabat",
        "latitude": 9.91667,
        "longitude": -84.03333
    },
    {
        "name": "Daniel Flores",
        "latitude": 9.33554,
        "longitude": -83.6694
    },
    {
        "name": "Desamparados",
        "latitude": 9.9,
        "longitude": -84.06667
    },
    {
        "name": "Dota",
        "latitude": 9.65,
        "longitude": -83.95
    },
    {
        "name": "Escaz\u00fa",
        "latitude": 9.93333,
        "longitude": -84.13333
    },
    {
        "name": "Goicoechea",
        "latitude": 9.94848,
        "longitude": -84.06365
    },
    {
        "name": "Granadilla",
        "latitude": 9.93491,
        "longitude": -84.01688
    },
    {
        "name": "Guadalupe",
        "latitude": 9.94805,
        "longitude": -84.05665
    },
    {
        "name": "Ip\u00eds",
        "latitude": 9.96745,
        "longitude": -84.01326
    },
    {
        "name": "Le\u00f3n Cort\u00e9s",
        "latitude": 9.683,
        "longitude": -84.04781
    },
    {
        "name": "Mercedes",
        "latitude": 9.2627,
        "longitude": -83.58202
    },
    {
        "name": "Montes de Oca",
        "latitude": 9.9396,
        "longitude": -84.03013
    },
    {
        "name": "Mora",
        "latitude": 9.91667,
        "longitude": -84.25
    },
    {
        "name": "Moravia",
        "latitude": 10.04,
        "longitude": -84.0
    },
    {
        "name": "Palmichal",
        "latitude": 9.83778,
        "longitude": -84.20478
    },
    {
        "name": "Patarr\u00e1",
        "latitude": 9.88071,
        "longitude": -84.03501
    },
    {
        "name": "P\u00e9rez Zeled\u00f3n",
        "latitude": 9.35473,
        "longitude": -83.63484
    },
    {
        "name": "Puriscal",
        "latitude": 9.75,
        "longitude": -84.41667
    },
    {
        "name": "Purral",
        "latitude": 9.95808,
        "longitude": -84.0305
    },
    {
        "name": "Sabanilla",
        "latitude": 9.94522,
        "longitude": -84.03927
    },
    {
        "name": "Salitral",
        "latitude": 9.91163,
        "longitude": -84.17835
    },
    {
        "name": "Salitrillos",
        "latitude": 9.85259,
        "longitude": -84.09062
    },
    {
        "name": "San Felipe",
        "latitude": 9.90488,
        "longitude": -84.10551
    },
    {
        "name": "San Ignacio",
        "latitude": 9.79853,
        "longitude": -84.16173
    },
    {
        "name": "San Isidro",
        "latitude": 9.3674,
        "longitude": -83.69713
    },
    {
        "name": "San Jos\u00e9",
        "latitude": 9.93333,
        "longitude": -84.08333
    },
    {
        "name": "San Juan",
        "latitude": 9.95974,
        "longitude": -84.08165
    },
    {
        "name": "San Juan de Dios",
        "latitude": 9.8773,
        "longitude": -84.0847
    },
    {
        "name": "San Marcos",
        "latitude": 9.6601,
        "longitude": -84.02026
    },
    {
        "name": "San Miguel",
        "latitude": 9.87121,
        "longitude": -84.06084
    },
    {
        "name": "San Pedro",
        "latitude": 9.92829,
        "longitude": -84.05074
    },
    {
        "name": "San Rafael",
        "latitude": 9.92787,
        "longitude": -84.13722
    },
    {
        "name": "San Rafael Abajo",
        "latitude": 9.831,
        "longitude": -84.29008
    },
    {
        "name": "San Rafael Arriba",
        "latitude": 9.87556,
        "longitude": -84.07661
    },
    {
        "name": "San Vicente",
        "latitude": 9.96016,
        "longitude": -84.04762
    },
    {
        "name": "San Vicente de Moravia",
        "latitude": 9.96164,
        "longitude": -84.0488
    },
    {
        "name": "Santa Ana",
        "latitude": 9.9326,
        "longitude": -84.18255
    },
    {
        "name": "Santiago",
        "latitude": 9.84636,
        "longitude": -84.31428
    },
    {
        "name": "Tarraz\u00fa",
        "latitude": 9.65965,
        "longitude": -84.02138
    },
    {
        "name": "Tejar",
        "latitude": 9.74622,
        "longitude": -84.23368
    },
    {
        "name": "Tib\u00e1s",
        "latitude": 9.96667,
        "longitude": -84.08333
    },
    {
        "name": "Turrubares",
        "latitude": 9.75,
        "longitude": -84.5
    },
    {
        "name": "V\u00e1zquez de Coronado",
        "latitude": 10.06,
        "longitude": -84.0
    }
]