[
    {
        "name": "Eot Municipality",
        "latitude": 7.3854,
        "longitude": 151.7392
    },
    {
        "name": "Ettal Municipality",
        "latitude": 5.592,
        "longitude": 153.56
    },
    {
        "name": "Fananu Municipality",
        "latitude": 8.55811,
        "longitude": 151.90822
    },
    {
        "name": "Fanapanges Municipality",
        "latitude": 7.353,
        "longitude": 151.6676
    },
    {
        "name": "Fefen Municipality",
        "latitude": 7.353,
        "longitude": 151.831
    },
    {
        "name": "Fonoton Municipality",
        "latitude": 7.486,
        "longitude": 151.8794
    },
    {
        "name": "Houk Municipality",
        "latitude": 6.683,
        "longitude": 149.3
    },
    {
        "name": "Kuttu Municipality",
        "latitude": 5.453,
        "longitude": 153.456
    },
    {
        "name": "Lekinioch Municipality",
        "latitude": 5.507,
        "longitude": 153.819
    },
    {
        "name": "Losap Municipality",
        "latitude": 6.894,
        "longitude": 152.739
    },
    {
        "name": "Makur Municipality",
        "latitude": 8.985,
        "longitude": 150.126
    },
    {
        "name": "Moch Municipality",
        "latitude": 5.4918,
        "longitude": 153.5385
    },
    {
        "name": "Murilo",
        "latitude": 8.69242,
        "longitude": 152.33934
    },
    {
        "name": "Murilo Municipality",
        "latitude": 8.692,
        "longitude": 152.342
    },
    {
        "name": "Namoluk Municipality",
        "latitude": 5.915,
        "longitude": 153.136
    },
    {
        "name": "Nema",
        "latitude": 6.98922,
        "longitude": 152.57377
    },
    {
        "name": "Nema Municipality",
        "latitude": 6.993,
        "longitude": 152.574
    },
    {
        "name": "Nomwin Municipality",
        "latitude": 8.43,
        "longitude": 151.745
    },
    {
        "name": "Oneop Municipality",
        "latitude": 5.5066,
        "longitude": 153.709
    },
    {
        "name": "Onou Municipality",
        "latitude": 8.799,
        "longitude": 150.29
    },
    {
        "name": "Onoun Municipality",
        "latitude": 8.575,
        "longitude": 149.6855
    },
    {
        "name": "Paata-Tupunion Municipality",
        "latitude": 7.376,
        "longitude": 151.583
    },
    {
        "name": "Parem Municipality",
        "latitude": 7.362,
        "longitude": 151.789
    },
    {
        "name": "Piherarh Municipality",
        "latitude": 8.569,
        "longitude": 150.418
    },
    {
        "name": "Piis-Emwar Municipality",
        "latitude": 6.834,
        "longitude": 152.7
    },
    {
        "name": "Piis-Panewu Municipality",
        "latitude": 7.678,
        "longitude": 151.7634
    },
    {
        "name": "Pollap Municipality",
        "latitude": 7.63971,
        "longitude": 149.43011
    },
    {
        "name": "Polowat Municipality",
        "latitude": 7.355,
        "longitude": 149.182
    },
    {
        "name": "Pwene Municipality",
        "latitude": 7.337,
        "longitude": 151.584
    },
    {
        "name": "Ramanum Municipality",
        "latitude": 7.4135,
        "longitude": 151.6646
    },
    {
        "name": "Ruo Municipality",
        "latitude": 8.609,
        "longitude": 152.244
    },
    {
        "name": "Satowan Municipality",
        "latitude": 5.334,
        "longitude": 153.7365
    },
    {
        "name": "Siis Municipality",
        "latitude": 7.295,
        "longitude": 151.8246
    },
    {
        "name": "Ta Municipality",
        "latitude": 5.2842,
        "longitude": 153.6465
    },
    {
        "name": "Tamatam Municipality",
        "latitude": 7.53898,
        "longitude": 149.41175
    },
    {
        "name": "Tolensom Municipality",
        "latitude": 7.333,
        "longitude": 151.623
    },
    {
        "name": "Tonoas Municipality",
        "latitude": 7.381,
        "longitude": 151.89
    },
    {
        "name": "Udot-Fonuweisom Municipality",
        "latitude": 7.389,
        "longitude": 151.708
    },
    {
        "name": "Uman-Fonuweisom Municipality",
        "latitude": 7.299,
        "longitude": 151.877
    },
    {
        "name": "Unanu Municipality",
        "latitude": 8.75,
        "longitude": 150.3395
    },
    {
        "name": "Weno",
        "latitude": 7.44648,
        "longitude": 151.84135
    },
    {
        "name": "Weno Municipality",
        "latitude": 7.44,
        "longitude": 151.881
    },
    {
        "name": "Wonei Municipality",
        "latitude": 7.387,
        "longitude": 151.601
    },
    {
        "name": "Lelu Municipality",
        "latitude": 5.34865,
        "longitude": 163.01917
    },
    {
        "name": "Malem Municipality",
        "latitude": 5.27507,
        "longitude": 163.01685
    },
    {
        "name": "Tafunsak Municipality",
        "latitude": 5.34993,
        "longitude": 162.96965
    },
    {
        "name": "Tofol",
        "latitude": 5.32479,
        "longitude": 163.00781
    },
    {
        "name": "Utwe Municipality",
        "latitude": 5.27511,
        "longitude": 162.95617
    },
    {
        "name": "Kitti Municipality",
        "latitude": 6.8249,
        "longitude": 158.16081
    },
    {
        "name": "Kolonia",
        "latitude": 6.964,
        "longitude": 158.2062
    },
    {
        "name": "Kolonia Municipality",
        "latitude": 6.964,
        "longitude": 158.2058
    },
    {
        "name": "Kolonia Town",
        "latitude": 6.964,
        "longitude": 158.206
    },
    {
        "name": "Madolenihm Municipality",
        "latitude": 6.86759,
        "longitude": 158.31277
    },
    {
        "name": "Mokil Municipality",
        "latitude": 6.68916,
        "longitude": 159.7661
    },
    {
        "name": "Nett Municipality",
        "latitude": 6.95152,
        "longitude": 158.22437
    },
    {
        "name": "Ngatik",
        "latitude": 5.78849,
        "longitude": 157.15954
    },
    {
        "name": "Nukuoro Municipality",
        "latitude": 3.841,
        "longitude": 154.93
    },
    {
        "name": "Palikir - National Government Center",
        "latitude": 6.92477,
        "longitude": 158.16109
    },
    {
        "name": "Pingelap Municipality",
        "latitude": 6.20908,
        "longitude": 160.71033
    },
    {
        "name": "Sapwuahfik Municipality",
        "latitude": 5.815,
        "longitude": 157.28
    },
    {
        "name": "Sokehs Municipality",
        "latitude": 6.93273,
        "longitude": 158.1427
    },
    {
        "name": "U Municipality",
        "latitude": 6.94972,
        "longitude": 158.27361
    },
    {
        "name": "Colonia",
        "latitude": 9.51638,
        "longitude": 138.12167
    },
    {
        "name": "Dalipebinaw Municipality",
        "latitude": 9.52229,
        "longitude": 138.0854
    },
    {
        "name": "Fais",
        "latitude": 9.766,
        "longitude": 140.52
    },
    {
        "name": "Fais Municipality",
        "latitude": 9.766,
        "longitude": 140.519
    },
    {
        "name": "Fanif Municipality",
        "latitude": 9.56056,
        "longitude": 138.11333
    },
    {
        "name": "Faraulep Municipality",
        "latitude": 8.588,
        "longitude": 144.5065
    },
    {
        "name": "Gagil Municipality",
        "latitude": 9.54722,
        "longitude": 138.19028
    },
    {
        "name": "Gilman Municipality",
        "latitude": 9.44611,
        "longitude": 138.06389
    },
    {
        "name": "Kanifay Municipality",
        "latitude": 9.46735,
        "longitude": 138.05935
    },
    {
        "name": "Lamotrek Municipality",
        "latitude": 7.491,
        "longitude": 146.303
    },
    {
        "name": "Maap Municipality",
        "latitude": 9.58975,
        "longitude": 138.17119
    },
    {
        "name": "Ngulu Municipality",
        "latitude": 8.45,
        "longitude": 137.481
    },
    {
        "name": "Rull Municipality",
        "latitude": 9.50773,
        "longitude": 138.1154
    },
    {
        "name": "Rumung Municipality",
        "latitude": 9.62428,
        "longitude": 138.15745
    },
    {
        "name": "Satawal Municipality",
        "latitude": 7.382,
        "longitude": 147.0318
    },
    {
        "name": "Tomil Municipality",
        "latitude": 9.52517,
        "longitude": 138.15488
    },
    {
        "name": "Ulithi Municipality",
        "latitude": 9.9,
        "longitude": 139.6
    },
    {
        "name": "Weloy Municipality",
        "latitude": 9.52712,
        "longitude": 138.11909
    },
    {
        "name": "Woleai Municipality",
        "latitude": 7.345,
        "longitude": 143.857
    }
]