[
    {
        "name": "Abbey Wood",
        "latitude": 51.48688,
        "longitude": 0.10747
    },
    {
        "name": "Abbots Bromley",
        "latitude": 52.81705,
        "longitude": -1.87694
    },
    {
        "name": "Abbots Langley",
        "latitude": 51.70573,
        "longitude": -0.41757
    },
    {
        "name": "Abbotskerswell",
        "latitude": 50.50816,
        "longitude": -3.61342
    },
    {
        "name": "Abbotts Ann",
        "latitude": 51.19016,
        "longitude": -1.53234
    },
    {
        "name": "Aberford",
        "latitude": 53.82604,
        "longitude": -1.34231
    },
    {
        "name": "Abingdon",
        "latitude": 51.67109,
        "longitude": -1.28278
    },
    {
        "name": "Abram",
        "latitude": 53.50855,
        "longitude": -2.59266
    },
    {
        "name": "Abridge",
        "latitude": 51.6495,
        "longitude": 0.12033
    },
    {
        "name": "Accrington",
        "latitude": 53.75379,
        "longitude": -2.35863
    },
    {
        "name": "Acklington",
        "latitude": 55.3,
        "longitude": -1.63333
    },
    {
        "name": "Acle",
        "latitude": 52.63681,
        "longitude": 1.54757
    },
    {
        "name": "Acocks Green",
        "latitude": 52.45,
        "longitude": -1.81667
    },
    {
        "name": "Acomb",
        "latitude": 54.99229,
        "longitude": -2.11229
    },
    {
        "name": "Acton",
        "latitude": 51.50901,
        "longitude": -0.2762
    },
    {
        "name": "Adderbury",
        "latitude": 52.0169,
        "longitude": -1.31192
    },
    {
        "name": "Addingham",
        "latitude": 53.94452,
        "longitude": -1.88424
    },
    {
        "name": "Addlestone",
        "latitude": 51.37135,
        "longitude": -0.49353
    },
    {
        "name": "Adlington",
        "latitude": 53.61323,
        "longitude": -2.60676
    },
    {
        "name": "Adwick le Street",
        "latitude": 53.57077,
        "longitude": -1.18454
    },
    {
        "name": "Airmyn",
        "latitude": 53.72074,
        "longitude": -0.89959
    },
    {
        "name": "Albrighton",
        "latitude": 52.6364,
        "longitude": -2.27966
    },
    {
        "name": "Alcester",
        "latitude": 52.21667,
        "longitude": -1.86667
    },
    {
        "name": "Alconbury",
        "latitude": 52.369,
        "longitude": -0.26009
    },
    {
        "name": "Aldbourne",
        "latitude": 51.48098,
        "longitude": -1.61827
    },
    {
        "name": "Aldbrough",
        "latitude": 53.82893,
        "longitude": -0.11467
    },
    {
        "name": "Aldeburgh",
        "latitude": 52.15259,
        "longitude": 1.60124
    },
    {
        "name": "Alderbury",
        "latitude": 51.04354,
        "longitude": -1.73382
    },
    {
        "name": "Alderholt",
        "latitude": 50.91195,
        "longitude": -1.83083
    },
    {
        "name": "Alderley Edge",
        "latitude": 53.30393,
        "longitude": -2.23773
    },
    {
        "name": "Aldershot",
        "latitude": 51.24827,
        "longitude": -0.76389
    },
    {
        "name": "Aldford",
        "latitude": 53.12762,
        "longitude": -2.86812
    },
    {
        "name": "Aldridge",
        "latitude": 52.60549,
        "longitude": -1.91715
    },
    {
        "name": "Alford",
        "latitude": 53.25943,
        "longitude": 0.17625
    },
    {
        "name": "Alfreton",
        "latitude": 53.09766,
        "longitude": -1.38376
    },
    {
        "name": "Allhallows",
        "latitude": 51.46866,
        "longitude": 0.63686
    },
    {
        "name": "Almondsbury",
        "latitude": 51.55407,
        "longitude": -2.57114
    },
    {
        "name": "Alnwick",
        "latitude": 55.41318,
        "longitude": -1.70563
    },
    {
        "name": "Alresford",
        "latitude": 51.85389,
        "longitude": 1.00203
    },
    {
        "name": "Alrewas",
        "latitude": 52.73278,
        "longitude": -1.74968
    },
    {
        "name": "Alsager",
        "latitude": 53.09617,
        "longitude": -2.30649
    },
    {
        "name": "Alston",
        "latitude": 54.809,
        "longitude": -2.43931
    },
    {
        "name": "Althorne",
        "latitude": 51.65722,
        "longitude": 0.76085
    },
    {
        "name": "Alton",
        "latitude": 51.14931,
        "longitude": -0.97469
    },
    {
        "name": "Altrincham",
        "latitude": 53.38752,
        "longitude": -2.34848
    },
    {
        "name": "Alvechurch",
        "latitude": 52.35173,
        "longitude": -1.96531
    },
    {
        "name": "Alveley",
        "latitude": 52.45709,
        "longitude": -2.35434
    },
    {
        "name": "Alveston",
        "latitude": 51.58806,
        "longitude": -2.53139
    },
    {
        "name": "Amble",
        "latitude": 55.33333,
        "longitude": -1.58333
    },
    {
        "name": "Ambleside",
        "latitude": 54.43261,
        "longitude": -2.96167
    },
    {
        "name": "Ambrosden",
        "latitude": 51.87087,
        "longitude": -1.12129
    },
    {
        "name": "Amersham",
        "latitude": 51.66667,
        "longitude": -0.61667
    },
    {
        "name": "Amersham on the Hill",
        "latitude": 51.67468,
        "longitude": -0.60742
    },
    {
        "name": "Amesbury",
        "latitude": 51.17509,
        "longitude": -1.78064
    },
    {
        "name": "Ampthill",
        "latitude": 52.02694,
        "longitude": -0.49567
    },
    {
        "name": "Ancaster",
        "latitude": 52.98276,
        "longitude": -0.53593
    },
    {
        "name": "Andover",
        "latitude": 51.21135,
        "longitude": -1.49393
    },
    {
        "name": "Anna Valley",
        "latitude": 51.19317,
        "longitude": -1.50719
    },
    {
        "name": "Annfield Plain",
        "latitude": 54.85749,
        "longitude": -1.73827
    },
    {
        "name": "Anstey",
        "latitude": 52.67368,
        "longitude": -1.18841
    },
    {
        "name": "Appleby",
        "latitude": 53.62198,
        "longitude": -0.56612
    },
    {
        "name": "Appleby-in-Westmorland",
        "latitude": 54.57704,
        "longitude": -2.48978
    },
    {
        "name": "Appledore",
        "latitude": 51.05,
        "longitude": -4.2
    },
    {
        "name": "Appleton Thorn",
        "latitude": 53.35045,
        "longitude": -2.54488
    },
    {
        "name": "Appley Bridge",
        "latitude": 53.57781,
        "longitude": -2.7209
    },
    {
        "name": "Archway",
        "latitude": 51.56733,
        "longitude": -0.13415
    },
    {
        "name": "Ardingly",
        "latitude": 51.04865,
        "longitude": -0.07716
    },
    {
        "name": "Arlesey",
        "latitude": 52.00713,
        "longitude": -0.26565
    },
    {
        "name": "Armitage",
        "latitude": 52.74193,
        "longitude": -1.88266
    },
    {
        "name": "Armthorpe",
        "latitude": 53.53518,
        "longitude": -1.05341
    },
    {
        "name": "Arnold",
        "latitude": 53.0,
        "longitude": -1.13333
    },
    {
        "name": "Arnside",
        "latitude": 54.20179,
        "longitude": -2.83374
    },
    {
        "name": "Arundel",
        "latitude": 50.85423,
        "longitude": -0.55393
    },
    {
        "name": "Ascot",
        "latitude": 51.41082,
        "longitude": -0.6748
    },
    {
        "name": "Asfordby",
        "latitude": 52.76331,
        "longitude": -0.95856
    },
    {
        "name": "Ash",
        "latitude": 51.27883,
        "longitude": 1.27974
    },
    {
        "name": "Ashbourne",
        "latitude": 53.01667,
        "longitude": -1.73333
    },
    {
        "name": "Ashburton",
        "latitude": 50.51559,
        "longitude": -3.75572
    },
    {
        "name": "Ashby de la Zouch",
        "latitude": 52.74632,
        "longitude": -1.4732
    },
    {
        "name": "Ashford",
        "latitude": 51.14648,
        "longitude": 0.87376
    },
    {
        "name": "Ashill",
        "latitude": 52.60435,
        "longitude": 0.78574
    },
    {
        "name": "Ashington",
        "latitude": 55.17719,
        "longitude": -1.56412
    },
    {
        "name": "Ashtead",
        "latitude": 51.30873,
        "longitude": -0.29972
    },
    {
        "name": "Ashton in Makerfield",
        "latitude": 53.48333,
        "longitude": -2.65
    },
    {
        "name": "Ashton Keynes",
        "latitude": 51.64521,
        "longitude": -1.93232
    },
    {
        "name": "Ashton-under-Lyne",
        "latitude": 53.48876,
        "longitude": -2.0989
    },
    {
        "name": "Ashurst",
        "latitude": 50.93236,
        "longitude": -0.32375
    },
    {
        "name": "Ashwell",
        "latitude": 52.03866,
        "longitude": -0.15398
    },
    {
        "name": "Askam in Furness",
        "latitude": 54.18718,
        "longitude": -3.20467
    },
    {
        "name": "Askern",
        "latitude": 53.61639,
        "longitude": -1.15237
    },
    {
        "name": "Aslockton",
        "latitude": 52.95299,
        "longitude": -0.897
    },
    {
        "name": "Aspatria",
        "latitude": 54.76574,
        "longitude": -3.32783
    },
    {
        "name": "Aston",
        "latitude": 52.5,
        "longitude": -1.88333
    },
    {
        "name": "Aston Clinton",
        "latitude": 51.8002,
        "longitude": -0.7254
    },
    {
        "name": "Aston-on-Trent",
        "latitude": 52.86172,
        "longitude": -1.38642
    },
    {
        "name": "Astwood Bank",
        "latitude": 52.25993,
        "longitude": -1.93754
    },
    {
        "name": "Atherstone",
        "latitude": 52.57536,
        "longitude": -1.54693
    },
    {
        "name": "Atherton",
        "latitude": 53.52371,
        "longitude": -2.49354
    },
    {
        "name": "Attleborough",
        "latitude": 52.51779,
        "longitude": 1.01572
    },
    {
        "name": "Atworth",
        "latitude": 51.39234,
        "longitude": -2.19297
    },
    {
        "name": "Auckley",
        "latitude": 53.50386,
        "longitude": -1.02174
    },
    {
        "name": "Audlem",
        "latitude": 52.98956,
        "longitude": -2.50706
    },
    {
        "name": "Audley",
        "latitude": 53.05,
        "longitude": -2.3
    },
    {
        "name": "Aveley",
        "latitude": 51.49987,
        "longitude": 0.25174
    },
    {
        "name": "Avening",
        "latitude": 51.6801,
        "longitude": -2.16903
    },
    {
        "name": "Awsworth",
        "latitude": 52.98912,
        "longitude": -1.28354
    },
    {
        "name": "Axbridge",
        "latitude": 51.28466,
        "longitude": -2.82078
    },
    {
        "name": "Axminster",
        "latitude": 50.78259,
        "longitude": -2.99787
    },
    {
        "name": "Aylesbury",
        "latitude": 51.81665,
        "longitude": -0.81458
    },
    {
        "name": "Aylesford",
        "latitude": 51.30374,
        "longitude": 0.47936
    },
    {
        "name": "Aylesham",
        "latitude": 51.22539,
        "longitude": 1.20157
    },
    {
        "name": "Aylsham",
        "latitude": 52.79672,
        "longitude": 1.25107
    },
    {
        "name": "Babworth",
        "latitude": 53.31799,
        "longitude": -0.97583
    },
    {
        "name": "Backworth",
        "latitude": 55.04229,
        "longitude": -1.52779
    },
    {
        "name": "Bacton",
        "latitude": 52.26667,
        "longitude": 1.01667
    },
    {
        "name": "Bacup",
        "latitude": 53.70336,
        "longitude": -2.2007
    },
    {
        "name": "Badsey",
        "latitude": 52.08819,
        "longitude": -1.89925
    },
    {
        "name": "Badsworth",
        "latitude": 53.62876,
        "longitude": -1.30128
    },
    {
        "name": "Bagshot",
        "latitude": 51.36069,
        "longitude": -0.68802
    },
    {
        "name": "Bagworth",
        "latitude": 52.67265,
        "longitude": -1.34274
    },
    {
        "name": "Baildon",
        "latitude": 53.84711,
        "longitude": -1.78785
    },
    {
        "name": "Bakewell",
        "latitude": 53.21338,
        "longitude": -1.67481
    },
    {
        "name": "Balcombe",
        "latitude": 51.05726,
        "longitude": -0.1345
    },
    {
        "name": "Baldock",
        "latitude": 51.98781,
        "longitude": -0.18835
    },
    {
        "name": "Balsall Common",
        "latitude": 52.39186,
        "longitude": -1.6504
    },
    {
        "name": "Balsham",
        "latitude": 52.13238,
        "longitude": 0.31586
    },
    {
        "name": "Bamburgh",
        "latitude": 55.60652,
        "longitude": -1.71704
    },
    {
        "name": "Bampton",
        "latitude": 51.72634,
        "longitude": -1.54547
    },
    {
        "name": "Banbury",
        "latitude": 52.0632,
        "longitude": -1.34222
    },
    {
        "name": "Banham",
        "latitude": 52.4524,
        "longitude": 1.03683
    },
    {
        "name": "Banks",
        "latitude": 53.68333,
        "longitude": -2.91667
    },
    {
        "name": "Banstead",
        "latitude": 51.32233,
        "longitude": -0.20685
    },
    {
        "name": "Banwell",
        "latitude": 51.32894,
        "longitude": -2.86914
    },
    {
        "name": "Bar Hill",
        "latitude": 52.24899,
        "longitude": 0.02883
    },
    {
        "name": "Barbican",
        "latitude": 51.51988,
        "longitude": -0.09446
    },
    {
        "name": "Bardney",
        "latitude": 53.21005,
        "longitude": -0.32371
    },
    {
        "name": "Bardsey",
        "latitude": 53.88492,
        "longitude": -1.44539
    },
    {
        "name": "Barham",
        "latitude": 51.2057,
        "longitude": 1.15734
    },
    {
        "name": "Barking",
        "latitude": 51.53333,
        "longitude": 0.08333
    },
    {
        "name": "Barkisland",
        "latitude": 53.67614,
        "longitude": -1.9184
    },
    {
        "name": "Barlaston",
        "latitude": 52.942,
        "longitude": -2.1705
    },
    {
        "name": "Barlborough",
        "latitude": 53.28795,
        "longitude": -1.28815
    },
    {
        "name": "Barlby",
        "latitude": 53.79964,
        "longitude": -1.04061
    },
    {
        "name": "Barlestone",
        "latitude": 52.64718,
        "longitude": -1.37013
    },
    {
        "name": "Barmby on the Marsh",
        "latitude": 53.74896,
        "longitude": -0.95607
    },
    {
        "name": "Barnack",
        "latitude": 52.63181,
        "longitude": -0.40821
    },
    {
        "name": "Barnard Castle",
        "latitude": 54.5415,
        "longitude": -1.919
    },
    {
        "name": "Barnburgh",
        "latitude": 53.52408,
        "longitude": -1.273
    },
    {
        "name": "Barnet",
        "latitude": 51.65,
        "longitude": -0.2
    },
    {
        "name": "Barnetby le Wold",
        "latitude": 53.5748,
        "longitude": -0.40607
    },
    {
        "name": "Barnham",
        "latitude": 50.8312,
        "longitude": -0.63789
    },
    {
        "name": "Barnoldswick",
        "latitude": 53.91711,
        "longitude": -2.18705
    },
    {
        "name": "Barnsbury",
        "latitude": 51.54067,
        "longitude": -0.11675
    },
    {
        "name": "Barnsley",
        "latitude": 53.53333,
        "longitude": -1.5
    },
    {
        "name": "Barnstaple",
        "latitude": 51.08022,
        "longitude": -4.05808
    },
    {
        "name": "Barnt Green",
        "latitude": 52.35902,
        "longitude": -2.00715
    },
    {
        "name": "Barnwood",
        "latitude": 51.86393,
        "longitude": -2.20087
    },
    {
        "name": "Barrow in Furness",
        "latitude": 54.11094,
        "longitude": -3.22758
    },
    {
        "name": "Barrow upon Humber",
        "latitude": 53.6755,
        "longitude": -0.38062
    },
    {
        "name": "Barrow upon Soar",
        "latitude": 52.75178,
        "longitude": -1.14601
    },
    {
        "name": "Barrowby",
        "latitude": 52.91636,
        "longitude": -0.69094
    },
    {
        "name": "Barrowford",
        "latitude": 53.8465,
        "longitude": -2.21838
    },
    {
        "name": "Bartley Green",
        "latitude": 52.43532,
        "longitude": -1.99707
    },
    {
        "name": "Barton under Needwood",
        "latitude": 52.76268,
        "longitude": -1.724
    },
    {
        "name": "Barton upon Humber",
        "latitude": 53.68915,
        "longitude": -0.44377
    },
    {
        "name": "Barton-le-Clay",
        "latitude": 51.96598,
        "longitude": -0.42731
    },
    {
        "name": "Baschurch",
        "latitude": 52.78848,
        "longitude": -2.85284
    },
    {
        "name": "Basford",
        "latitude": 52.96667,
        "longitude": -1.18333
    },
    {
        "name": "Basildon",
        "latitude": 51.56844,
        "longitude": 0.45782
    },
    {
        "name": "Basingstoke",
        "latitude": 51.26249,
        "longitude": -1.08708
    },
    {
        "name": "Baslow",
        "latitude": 53.24811,
        "longitude": -1.62246
    },
    {
        "name": "Bassingbourn",
        "latitude": 52.07821,
        "longitude": -0.0539
    },
    {
        "name": "Bassingham",
        "latitude": 53.12881,
        "longitude": -0.63765
    },
    {
        "name": "Baston",
        "latitude": 52.71311,
        "longitude": -0.35173
    },
    {
        "name": "Bath",
        "latitude": 51.3751,
        "longitude": -2.36172
    },
    {
        "name": "Bath and North East Somerset",
        "latitude": 51.33333,
        "longitude": -2.5
    },
    {
        "name": "Batley",
        "latitude": 53.70291,
        "longitude": -1.6337
    },
    {
        "name": "Battersea",
        "latitude": 51.47475,
        "longitude": -0.15547
    },
    {
        "name": "Battle",
        "latitude": 50.91732,
        "longitude": 0.48417
    },
    {
        "name": "Bawtry",
        "latitude": 53.43146,
        "longitude": -1.01878
    },
    {
        "name": "Bay Horse",
        "latitude": 53.96867,
        "longitude": -2.77603
    },
    {
        "name": "Bayston Hill",
        "latitude": 52.6755,
        "longitude": -2.76156
    },
    {
        "name": "Bayswater",
        "latitude": 51.51116,
        "longitude": -0.18426
    },
    {
        "name": "Beaconsfield",
        "latitude": 51.61219,
        "longitude": -0.64732
    },
    {
        "name": "Beadnell",
        "latitude": 55.5567,
        "longitude": -1.6325
    },
    {
        "name": "Beaminster",
        "latitude": 50.809,
        "longitude": -2.7391
    },
    {
        "name": "Bebington",
        "latitude": 53.35,
        "longitude": -3.01667
    },
    {
        "name": "Beccles",
        "latitude": 52.45936,
        "longitude": 1.56465
    },
    {
        "name": "Beckenham",
        "latitude": 51.40878,
        "longitude": -0.02526
    },
    {
        "name": "Beckingham",
        "latitude": 53.4,
        "longitude": -0.83333
    },
    {
        "name": "Becontree",
        "latitude": 51.5529,
        "longitude": 0.129
    },
    {
        "name": "Bedale",
        "latitude": 54.28811,
        "longitude": -1.59181
    },
    {
        "name": "Bedford",
        "latitude": 52.18831,
        "longitude": -0.45316
    },
    {
        "name": "Bedlington",
        "latitude": 55.13061,
        "longitude": -1.59319
    },
    {
        "name": "Bedworth",
        "latitude": 52.4791,
        "longitude": -1.46909
    },
    {
        "name": "Beeford",
        "latitude": 53.96999,
        "longitude": -0.28913
    },
    {
        "name": "Beighton",
        "latitude": 53.33333,
        "longitude": -1.33333
    },
    {
        "name": "Belbroughton",
        "latitude": 52.39177,
        "longitude": -2.11884
    },
    {
        "name": "Belford",
        "latitude": 55.6,
        "longitude": -1.83333
    },
    {
        "name": "Bellingham",
        "latitude": 55.14464,
        "longitude": -2.25383
    },
    {
        "name": "Belmont",
        "latitude": 52.04272,
        "longitude": -2.74169
    },
    {
        "name": "Belper",
        "latitude": 53.0233,
        "longitude": -1.48119
    },
    {
        "name": "Belsize Park",
        "latitude": 51.54767,
        "longitude": -0.17228
    },
    {
        "name": "Belton",
        "latitude": 53.55,
        "longitude": -0.81667
    },
    {
        "name": "Belvedere",
        "latitude": 51.49114,
        "longitude": 0.15136
    },
    {
        "name": "Bembridge",
        "latitude": 50.68634,
        "longitude": -1.08275
    },
    {
        "name": "Bempton",
        "latitude": 54.13036,
        "longitude": -0.17853
    },
    {
        "name": "Benson",
        "latitude": 51.62073,
        "longitude": -1.10979
    },
    {
        "name": "Bentley",
        "latitude": 53.53333,
        "longitude": -1.15
    },
    {
        "name": "Benwell",
        "latitude": 54.97296,
        "longitude": -1.66926
    },
    {
        "name": "Bere Alston",
        "latitude": 50.48233,
        "longitude": -4.19034
    },
    {
        "name": "Bere Regis",
        "latitude": 50.75371,
        "longitude": -2.21553
    },
    {
        "name": "Berkeley",
        "latitude": 51.69111,
        "longitude": -2.45917
    },
    {
        "name": "Berkhamsted",
        "latitude": 51.7604,
        "longitude": -0.56528
    },
    {
        "name": "Berwick-Upon-Tweed",
        "latitude": 55.76536,
        "longitude": -2.01186
    },
    {
        "name": "Bethnal Green",
        "latitude": 51.52718,
        "longitude": -0.06109
    },
    {
        "name": "Betley",
        "latitude": 53.03439,
        "longitude": -2.36865
    },
    {
        "name": "Beverley",
        "latitude": 53.84587,
        "longitude": -0.42332
    },
    {
        "name": "Bewbush",
        "latitude": 51.10329,
        "longitude": -0.22312
    },
    {
        "name": "Bewdley",
        "latitude": 52.3757,
        "longitude": -2.31833
    },
    {
        "name": "Bexhill-on-Sea",
        "latitude": 50.85023,
        "longitude": 0.47095
    },
    {
        "name": "Bexley",
        "latitude": 51.44162,
        "longitude": 0.14866
    },
    {
        "name": "Bicester",
        "latitude": 51.89998,
        "longitude": -1.15357
    },
    {
        "name": "Bicknacre",
        "latitude": 51.69403,
        "longitude": 0.58519
    },
    {
        "name": "Bicton",
        "latitude": 52.72829,
        "longitude": -2.81649
    },
    {
        "name": "Biddenden",
        "latitude": 51.11489,
        "longitude": 0.63819
    },
    {
        "name": "Biddestone",
        "latitude": 51.46083,
        "longitude": -2.19833
    },
    {
        "name": "Biddulph",
        "latitude": 53.11724,
        "longitude": -2.17584
    },
    {
        "name": "Bideford",
        "latitude": 51.01678,
        "longitude": -4.20832
    },
    {
        "name": "Bidford-on-Avon",
        "latitude": 52.16964,
        "longitude": -1.85955
    },
    {
        "name": "Biggin Hill",
        "latitude": 51.31329,
        "longitude": 0.03433
    },
    {
        "name": "Biggleswade",
        "latitude": 52.08652,
        "longitude": -0.26493
    },
    {
        "name": "Bildeston",
        "latitude": 52.10658,
        "longitude": 0.90916
    },
    {
        "name": "Billericay",
        "latitude": 51.62867,
        "longitude": 0.41963
    },
    {
        "name": "Billingborough",
        "latitude": 52.89384,
        "longitude": -0.34186
    },
    {
        "name": "Billinge",
        "latitude": 53.49795,
        "longitude": -2.7081
    },
    {
        "name": "Billingham",
        "latitude": 54.58881,
        "longitude": -1.29034
    },
    {
        "name": "Billinghay",
        "latitude": 53.07959,
        "longitude": -0.27689
    },
    {
        "name": "Billingshurst",
        "latitude": 51.02312,
        "longitude": -0.45359
    },
    {
        "name": "Billington",
        "latitude": 53.8157,
        "longitude": -2.4236
    },
    {
        "name": "Bilsdale",
        "latitude": 54.37356,
        "longitude": -1.11923
    },
    {
        "name": "Bilsthorpe",
        "latitude": 53.14024,
        "longitude": -1.03392
    },
    {
        "name": "Bilston",
        "latitude": 52.56568,
        "longitude": -2.07367
    },
    {
        "name": "Bingham",
        "latitude": 52.94978,
        "longitude": -0.95907
    },
    {
        "name": "Bingley",
        "latitude": 53.84861,
        "longitude": -1.83857
    },
    {
        "name": "Birchington-on-Sea",
        "latitude": 51.37575,
        "longitude": 1.3048
    },
    {
        "name": "Bircotes",
        "latitude": 53.41933,
        "longitude": -1.04905
    },
    {
        "name": "Birdham",
        "latitude": 50.79606,
        "longitude": -0.83067
    },
    {
        "name": "Birdwell",
        "latitude": 53.51398,
        "longitude": -1.47929
    },
    {
        "name": "Birkenhead",
        "latitude": 53.39337,
        "longitude": -3.01479
    },
    {
        "name": "Birmingham",
        "latitude": 52.48142,
        "longitude": -1.89983
    },
    {
        "name": "Bishop Auckland",
        "latitude": 54.65554,
        "longitude": -1.67706
    },
    {
        "name": "Bishop Middleham",
        "latitude": 54.67778,
        "longitude": -1.48826
    },
    {
        "name": "Bishop Sutton",
        "latitude": 51.33444,
        "longitude": -2.59472
    },
    {
        "name": "Bishop's Castle",
        "latitude": 52.49208,
        "longitude": -3.0021
    },
    {
        "name": "Bishops Cleeve",
        "latitude": 51.94749,
        "longitude": -2.06277
    },
    {
        "name": "Bishops Lydeard",
        "latitude": 51.05917,
        "longitude": -3.18778
    },
    {
        "name": "Bishops Stortford",
        "latitude": 51.87113,
        "longitude": 0.15868
    },
    {
        "name": "Bishops Waltham",
        "latitude": 50.95595,
        "longitude": -1.21476
    },
    {
        "name": "Bishopsteignton",
        "latitude": 50.55193,
        "longitude": -3.53852
    },
    {
        "name": "Bishopstoke",
        "latitude": 50.96643,
        "longitude": -1.32832
    },
    {
        "name": "Bishopstone",
        "latitude": 51.5513,
        "longitude": -1.64701
    },
    {
        "name": "Bishopsworth",
        "latitude": 51.41479,
        "longitude": -2.6208
    },
    {
        "name": "Bishopthorpe",
        "latitude": 53.9191,
        "longitude": -1.09915
    },
    {
        "name": "Bishopton",
        "latitude": 54.58333,
        "longitude": -1.43333
    },
    {
        "name": "Bitton",
        "latitude": 51.42479,
        "longitude": -2.45965
    },
    {
        "name": "Blaby",
        "latitude": 52.57577,
        "longitude": -1.16403
    },
    {
        "name": "Black Notley",
        "latitude": 51.85301,
        "longitude": 0.56846
    },
    {
        "name": "Blackburn",
        "latitude": 53.75,
        "longitude": -2.48333
    },
    {
        "name": "Blackburn with Darwen",
        "latitude": 53.66667,
        "longitude": -2.46667
    },
    {
        "name": "Blackheath",
        "latitude": 51.4647,
        "longitude": 0.0079
    },
    {
        "name": "Blackley",
        "latitude": 53.51765,
        "longitude": -2.21443
    },
    {
        "name": "Blackmoorfoot",
        "latitude": 53.61423,
        "longitude": -1.85588
    },
    {
        "name": "Blackpool",
        "latitude": 53.81667,
        "longitude": -3.05
    },
    {
        "name": "Blackrod",
        "latitude": 53.59229,
        "longitude": -2.58026
    },
    {
        "name": "Blackwell",
        "latitude": 53.11667,
        "longitude": -1.33333
    },
    {
        "name": "Blacon",
        "latitude": 53.20832,
        "longitude": -2.9253
    },
    {
        "name": "Blagdon",
        "latitude": 51.32688,
        "longitude": -2.71731
    },
    {
        "name": "Blandford Forum",
        "latitude": 50.86073,
        "longitude": -2.16174
    },
    {
        "name": "Blaydon-on-Tyne",
        "latitude": 54.96461,
        "longitude": -1.71392
    },
    {
        "name": "Bleadon",
        "latitude": 51.30861,
        "longitude": -2.9475
    },
    {
        "name": "Blean",
        "latitude": 51.30679,
        "longitude": 1.04301
    },
    {
        "name": "Bletchingley",
        "latitude": 51.24059,
        "longitude": -0.10038
    },
    {
        "name": "Bletchley",
        "latitude": 51.99334,
        "longitude": -0.73471
    },
    {
        "name": "Blewbury",
        "latitude": 51.5688,
        "longitude": -1.23261
    },
    {
        "name": "Blidworth",
        "latitude": 53.09849,
        "longitude": -1.11689
    },
    {
        "name": "Blindley Heath",
        "latitude": 51.19344,
        "longitude": -0.05116
    },
    {
        "name": "Blisworth",
        "latitude": 52.17498,
        "longitude": -0.94131
    },
    {
        "name": "Blockley",
        "latitude": 52.0122,
        "longitude": -1.76268
    },
    {
        "name": "Bloxham",
        "latitude": 52.02039,
        "longitude": -1.37321
    },
    {
        "name": "Bloxwich",
        "latitude": 52.61806,
        "longitude": -2.00431
    },
    {
        "name": "Blunham",
        "latitude": 52.14695,
        "longitude": -0.32178
    },
    {
        "name": "Bluntisham",
        "latitude": 52.35479,
        "longitude": 0.00854
    },
    {
        "name": "Blyth",
        "latitude": 55.12708,
        "longitude": -1.50856
    },
    {
        "name": "Blyton",
        "latitude": 53.44384,
        "longitude": -0.71753
    },
    {
        "name": "Bodle Street",
        "latitude": 50.91299,
        "longitude": 0.34332
    },
    {
        "name": "Bodmin",
        "latitude": 50.47151,
        "longitude": -4.7243
    },
    {
        "name": "Bognor Regis",
        "latitude": 50.78206,
        "longitude": -0.67978
    },
    {
        "name": "Bollington",
        "latitude": 53.29446,
        "longitude": -2.10963
    },
    {
        "name": "Bolsover",
        "latitude": 53.22846,
        "longitude": -1.29204
    },
    {
        "name": "Bolton",
        "latitude": 53.58333,
        "longitude": -2.43333
    },
    {
        "name": "Bolton le Sands",
        "latitude": 54.09632,
        "longitude": -2.80017
    },
    {
        "name": "Bolton upon Dearne",
        "latitude": 53.51667,
        "longitude": -1.31667
    },
    {
        "name": "Boosbeck",
        "latitude": 54.54265,
        "longitude": -0.98139
    },
    {
        "name": "Bootle",
        "latitude": 53.46667,
        "longitude": -3.01667
    },
    {
        "name": "Bordon",
        "latitude": 51.11357,
        "longitude": -0.86245
    },
    {
        "name": "Boreham",
        "latitude": 51.75955,
        "longitude": 0.54116
    },
    {
        "name": "Borehamwood",
        "latitude": 51.65468,
        "longitude": -0.27762
    },
    {
        "name": "Borough Green",
        "latitude": 51.29158,
        "longitude": 0.30478
    },
    {
        "name": "Borough of Bolton",
        "latitude": 53.58333,
        "longitude": -2.5
    },
    {
        "name": "Borough of Bury",
        "latitude": 53.58333,
        "longitude": -2.33333
    },
    {
        "name": "Borough of Halton",
        "latitude": 53.33333,
        "longitude": -2.75
    },
    {
        "name": "Borough of North Tyneside",
        "latitude": 55.03333,
        "longitude": -1.5
    },
    {
        "name": "Borough of Oldham",
        "latitude": 53.55,
        "longitude": -2.08333
    },
    {
        "name": "Borough of Rochdale",
        "latitude": 53.58333,
        "longitude": -2.16667
    },
    {
        "name": "Borough of Stockport",
        "latitude": 53.41667,
        "longitude": -2.16667
    },
    {
        "name": "Borough of Swindon",
        "latitude": 51.58333,
        "longitude": -1.75
    },
    {
        "name": "Borough of Tameside",
        "latitude": 53.5,
        "longitude": -2.08333
    },
    {
        "name": "Borough of Thurrock",
        "latitude": 51.5,
        "longitude": 0.41667
    },
    {
        "name": "Borough of Torbay",
        "latitude": 50.4516,
        "longitude": -3.55785
    },
    {
        "name": "Borough of Wigan",
        "latitude": 53.5,
        "longitude": -2.58333
    },
    {
        "name": "Boroughbridge",
        "latitude": 54.0895,
        "longitude": -1.4011
    },
    {
        "name": "Borrowash",
        "latitude": 52.90673,
        "longitude": -1.38411
    },
    {
        "name": "Bosham",
        "latitude": 50.83088,
        "longitude": -0.85384
    },
    {
        "name": "Boston",
        "latitude": 52.97633,
        "longitude": -0.02664
    },
    {
        "name": "Boston Spa",
        "latitude": 53.90419,
        "longitude": -1.34523
    },
    {
        "name": "Botesdale",
        "latitude": 52.34216,
        "longitude": 1.00405
    },
    {
        "name": "Botley",
        "latitude": 50.91433,
        "longitude": -1.26984
    },
    {
        "name": "Bottesford",
        "latitude": 52.94131,
        "longitude": -0.8006
    },
    {
        "name": "Bottisham",
        "latitude": 52.2228,
        "longitude": 0.25878
    },
    {
        "name": "Boughton",
        "latitude": 53.2,
        "longitude": -0.98333
    },
    {
        "name": "Bourne",
        "latitude": 52.76667,
        "longitude": -0.38333
    },
    {
        "name": "Bourne End",
        "latitude": 51.57622,
        "longitude": -0.71291
    },
    {
        "name": "Bournemouth",
        "latitude": 50.71918,
        "longitude": -1.87806
    },
    {
        "name": "Bourton",
        "latitude": 51.07444,
        "longitude": -2.32778
    },
    {
        "name": "Bourton on the Water",
        "latitude": 51.88584,
        "longitude": -1.75492
    },
    {
        "name": "Bovey Tracey",
        "latitude": 50.59259,
        "longitude": -3.67543
    },
    {
        "name": "Bovingdon",
        "latitude": 51.72312,
        "longitude": -0.5367
    },
    {
        "name": "Bovington Camp",
        "latitude": 50.69782,
        "longitude": -2.23506
    },
    {
        "name": "Bow",
        "latitude": 50.8,
        "longitude": -3.81667
    },
    {
        "name": "Bow Brickhill",
        "latitude": 52.0028,
        "longitude": -0.68064
    },
    {
        "name": "Bowburn",
        "latitude": 54.7385,
        "longitude": -1.52521
    },
    {
        "name": "Bowdon",
        "latitude": 53.37644,
        "longitude": -2.36532
    },
    {
        "name": "Bowthorpe",
        "latitude": 52.63884,
        "longitude": 1.21885
    },
    {
        "name": "Box",
        "latitude": 51.41472,
        "longitude": -2.24556
    },
    {
        "name": "Boxgrove",
        "latitude": 50.85884,
        "longitude": -0.7136
    },
    {
        "name": "Boxted",
        "latitude": 51.94878,
        "longitude": 0.91002
    },
    {
        "name": "Bozeat",
        "latitude": 52.2227,
        "longitude": -0.67326
    },
    {
        "name": "Bracebridge Heath",
        "latitude": 53.19647,
        "longitude": -0.53421
    },
    {
        "name": "Brackley",
        "latitude": 52.03333,
        "longitude": -1.15
    },
    {
        "name": "Bracknell",
        "latitude": 51.41363,
        "longitude": -0.75054
    },
    {
        "name": "Bracknell Forest",
        "latitude": 51.41667,
        "longitude": -0.75
    },
    {
        "name": "Bradfield",
        "latitude": 51.44914,
        "longitude": -1.13082
    },
    {
        "name": "Bradford",
        "latitude": 53.83333,
        "longitude": -1.83333
    },
    {
        "name": "Bradford-on-Avon",
        "latitude": 51.34772,
        "longitude": -2.25065
    },
    {
        "name": "Brading",
        "latitude": 50.6799,
        "longitude": -1.14571
    },
    {
        "name": "Bradley Cross",
        "latitude": 51.27488,
        "longitude": -2.76256
    },
    {
        "name": "Bradninch",
        "latitude": 50.82491,
        "longitude": -3.42465
    },
    {
        "name": "Bradwell",
        "latitude": 52.57353,
        "longitude": 1.69979
    },
    {
        "name": "Braintree",
        "latitude": 51.87819,
        "longitude": 0.55292
    },
    {
        "name": "Bramford",
        "latitude": 52.07631,
        "longitude": 1.09687
    },
    {
        "name": "Bramhall",
        "latitude": 53.35801,
        "longitude": -2.16539
    },
    {
        "name": "Bramham",
        "latitude": 53.88118,
        "longitude": -1.35452
    },
    {
        "name": "Bramhope",
        "latitude": 53.88489,
        "longitude": -1.61641
    },
    {
        "name": "Bramley",
        "latitude": 51.32677,
        "longitude": -1.05938
    },
    {
        "name": "Brampton",
        "latitude": 52.32039,
        "longitude": -0.22007
    },
    {
        "name": "Brandesburton",
        "latitude": 53.9111,
        "longitude": -0.30122
    },
    {
        "name": "Brandon",
        "latitude": 54.75,
        "longitude": -1.61667
    },
    {
        "name": "Bransgore",
        "latitude": 50.78153,
        "longitude": -1.73771
    },
    {
        "name": "Branston",
        "latitude": 53.19544,
        "longitude": -0.47482
    },
    {
        "name": "Bratton",
        "latitude": 51.27056,
        "longitude": -2.12444
    },
    {
        "name": "Braunston",
        "latitude": 52.28979,
        "longitude": -1.20266
    },
    {
        "name": "Braunton",
        "latitude": 51.10847,
        "longitude": -4.16131
    },
    {
        "name": "Brayton",
        "latitude": 53.7651,
        "longitude": -1.08921
    },
    {
        "name": "Bream",
        "latitude": 51.74822,
        "longitude": -2.57747
    },
    {
        "name": "Bredbury",
        "latitude": 53.41667,
        "longitude": -2.11667
    },
    {
        "name": "Bredon",
        "latitude": 52.03008,
        "longitude": -2.11671
    },
    {
        "name": "Brenchley",
        "latitude": 51.15141,
        "longitude": 0.39825
    },
    {
        "name": "Brent",
        "latitude": 51.55306,
        "longitude": -0.3023
    },
    {
        "name": "Brent Knoll",
        "latitude": 51.25219,
        "longitude": -2.95744
    },
    {
        "name": "Brentford",
        "latitude": 51.48619,
        "longitude": -0.3083
    },
    {
        "name": "Brentwood",
        "latitude": 51.62127,
        "longitude": 0.30556
    },
    {
        "name": "Brewood",
        "latitude": 52.67712,
        "longitude": -2.17414
    },
    {
        "name": "Bridge",
        "latitude": 51.24513,
        "longitude": 1.1264
    },
    {
        "name": "Bridgnorth",
        "latitude": 52.53661,
        "longitude": -2.42033
    },
    {
        "name": "Bridgwater",
        "latitude": 51.12837,
        "longitude": -3.00356
    },
    {
        "name": "Bridlington",
        "latitude": 54.08306,
        "longitude": -0.19192
    },
    {
        "name": "Bridport",
        "latitude": 50.7338,
        "longitude": -2.75831
    },
    {
        "name": "Brierfield",
        "latitude": 53.82468,
        "longitude": -2.23415
    },
    {
        "name": "Brierley Hill",
        "latitude": 52.48173,
        "longitude": -2.12139
    },
    {
        "name": "Brigg",
        "latitude": 53.55201,
        "longitude": -0.49214
    },
    {
        "name": "Brighouse",
        "latitude": 53.70322,
        "longitude": -1.78428
    },
    {
        "name": "Brighstone",
        "latitude": 50.64263,
        "longitude": -1.39479
    },
    {
        "name": "Brightlingsea",
        "latitude": 51.81164,
        "longitude": 1.02336
    },
    {
        "name": "Brighton",
        "latitude": 50.82838,
        "longitude": -0.13947
    },
    {
        "name": "Brighton and Hove",
        "latitude": 50.83333,
        "longitude": -0.13333
    },
    {
        "name": "Brigstock",
        "latitude": 52.45775,
        "longitude": -0.60834
    },
    {
        "name": "Brill",
        "latitude": 51.81667,
        "longitude": -1.05
    },
    {
        "name": "Brimscombe",
        "latitude": 51.71973,
        "longitude": -2.18553
    },
    {
        "name": "Brinklow",
        "latitude": 52.41091,
        "longitude": -1.364
    },
    {
        "name": "Brinscall",
        "latitude": 53.689,
        "longitude": -2.57208
    },
    {
        "name": "Bristol",
        "latitude": 51.45523,
        "longitude": -2.59665
    },
    {
        "name": "Briston",
        "latitude": 52.85369,
        "longitude": 1.05899
    },
    {
        "name": "Brixham",
        "latitude": 50.39431,
        "longitude": -3.51585
    },
    {
        "name": "Brixton",
        "latitude": 51.46593,
        "longitude": -0.10652
    },
    {
        "name": "Brixton Hill",
        "latitude": 51.45213,
        "longitude": -0.123
    },
    {
        "name": "Brixworth",
        "latitude": 52.32912,
        "longitude": -0.9035
    },
    {
        "name": "Broad Blunsdon",
        "latitude": 51.61339,
        "longitude": -1.7787
    },
    {
        "name": "Broadfield",
        "latitude": 51.09714,
        "longitude": -0.20664
    },
    {
        "name": "Broadstairs",
        "latitude": 51.35908,
        "longitude": 1.43938
    },
    {
        "name": "Broadstone",
        "latitude": 50.75717,
        "longitude": -1.99406
    },
    {
        "name": "Broadwater",
        "latitude": 50.82887,
        "longitude": -0.37594
    },
    {
        "name": "Broadway",
        "latitude": 52.03825,
        "longitude": -1.86079
    },
    {
        "name": "Brockenhurst",
        "latitude": 50.81936,
        "longitude": -1.57303
    },
    {
        "name": "Brockley",
        "latitude": 51.4,
        "longitude": -2.76667
    },
    {
        "name": "Bromborough",
        "latitude": 53.3485,
        "longitude": -2.97935
    },
    {
        "name": "Bromham",
        "latitude": 52.14508,
        "longitude": -0.52906
    },
    {
        "name": "Brompton",
        "latitude": 54.36015,
        "longitude": -1.42422
    },
    {
        "name": "Bromsgrove",
        "latitude": 52.33574,
        "longitude": -2.05983
    },
    {
        "name": "Bromyard",
        "latitude": 52.19019,
        "longitude": -2.50875
    },
    {
        "name": "Brooke",
        "latitude": 52.54175,
        "longitude": 1.37076
    },
    {
        "name": "Broseley",
        "latitude": 52.61321,
        "longitude": -2.48269
    },
    {
        "name": "Brotton",
        "latitude": 54.56661,
        "longitude": -0.93929
    },
    {
        "name": "Brough",
        "latitude": 53.72861,
        "longitude": -0.57215
    },
    {
        "name": "Broughton",
        "latitude": 53.56667,
        "longitude": -0.55
    },
    {
        "name": "Broughton Astley",
        "latitude": 52.52787,
        "longitude": -1.21768
    },
    {
        "name": "Brownhills",
        "latitude": 52.63333,
        "longitude": -1.93333
    },
    {
        "name": "Broxbourne",
        "latitude": 51.74712,
        "longitude": -0.01923
    },
    {
        "name": "Brundall",
        "latitude": 52.62426,
        "longitude": 1.43509
    },
    {
        "name": "Bruton",
        "latitude": 51.1125,
        "longitude": -2.45278
    },
    {
        "name": "Bubwith",
        "latitude": 53.81905,
        "longitude": -0.91968
    },
    {
        "name": "Buckden",
        "latitude": 52.29415,
        "longitude": -0.24912
    },
    {
        "name": "Buckfastleigh",
        "latitude": 50.48132,
        "longitude": -3.77913
    },
    {
        "name": "Buckhurst Hill",
        "latitude": 51.62409,
        "longitude": 0.03262
    },
    {
        "name": "Buckingham",
        "latitude": 51.99968,
        "longitude": -0.98779
    },
    {
        "name": "Buckinghamshire",
        "latitude": 51.75,
        "longitude": -0.75
    },
    {
        "name": "Bucknell",
        "latitude": 52.35997,
        "longitude": -2.95066
    },
    {
        "name": "Bude",
        "latitude": 50.82435,
        "longitude": -4.5413
    },
    {
        "name": "Budleigh Salterton",
        "latitude": 50.62983,
        "longitude": -3.32181
    },
    {
        "name": "Bugbrooke",
        "latitude": 52.21006,
        "longitude": -1.01304
    },
    {
        "name": "Bugle",
        "latitude": 50.39577,
        "longitude": -4.79334
    },
    {
        "name": "Bulford",
        "latitude": 51.1893,
        "longitude": -1.76009
    },
    {
        "name": "Bulkington",
        "latitude": 51.32361,
        "longitude": -2.08361
    },
    {
        "name": "Bulphan",
        "latitude": 51.54612,
        "longitude": 0.36066
    },
    {
        "name": "Bunbury",
        "latitude": 53.11559,
        "longitude": -2.65151
    },
    {
        "name": "Bungay",
        "latitude": 52.45434,
        "longitude": 1.43818
    },
    {
        "name": "Buntingford",
        "latitude": 51.94612,
        "longitude": -0.01841
    },
    {
        "name": "Burbage",
        "latitude": 51.35184,
        "longitude": -1.67087
    },
    {
        "name": "Bures Saint Mary",
        "latitude": 51.9724,
        "longitude": 0.77488
    },
    {
        "name": "Burford",
        "latitude": 51.80915,
        "longitude": -1.63628
    },
    {
        "name": "Burgess Hill",
        "latitude": 50.95843,
        "longitude": -0.13287
    },
    {
        "name": "Burgh le Marsh",
        "latitude": 53.16158,
        "longitude": 0.24484
    },
    {
        "name": "Burham",
        "latitude": 51.33243,
        "longitude": 0.47833
    },
    {
        "name": "Burley",
        "latitude": 50.828,
        "longitude": -1.69977
    },
    {
        "name": "Burley in Wharfedale",
        "latitude": 53.9102,
        "longitude": -1.75798
    },
    {
        "name": "Burnage",
        "latitude": 53.43265,
        "longitude": -2.19967
    },
    {
        "name": "Burneside",
        "latitude": 54.35271,
        "longitude": -2.76151
    },
    {
        "name": "Burngreave",
        "latitude": 53.39302,
        "longitude": -1.45789
    },
    {
        "name": "Burnham-on-Crouch",
        "latitude": 51.63272,
        "longitude": 0.81488
    },
    {
        "name": "Burnham-on-Sea",
        "latitude": 51.23862,
        "longitude": -2.9978
    },
    {
        "name": "Burniston",
        "latitude": 54.32385,
        "longitude": -0.44813
    },
    {
        "name": "Burnley",
        "latitude": 53.8,
        "longitude": -2.23333
    },
    {
        "name": "Burnopfield",
        "latitude": 54.90624,
        "longitude": -1.72486
    },
    {
        "name": "Burntwood",
        "latitude": 52.68075,
        "longitude": -1.92759
    },
    {
        "name": "Burringham",
        "latitude": 53.57402,
        "longitude": -0.73957
    },
    {
        "name": "Burrington",
        "latitude": 51.32884,
        "longitude": -2.74868
    },
    {
        "name": "Burscough",
        "latitude": 53.5964,
        "longitude": -2.83972
    },
    {
        "name": "Bursledon",
        "latitude": 50.88658,
        "longitude": -1.31596
    },
    {
        "name": "Burstwick",
        "latitude": 53.73211,
        "longitude": -0.13956
    },
    {
        "name": "Burton",
        "latitude": 53.26667,
        "longitude": -0.56667
    },
    {
        "name": "Burton Joyce",
        "latitude": 52.98825,
        "longitude": -1.03407
    },
    {
        "name": "Burton Latimer",
        "latitude": 52.36368,
        "longitude": -0.67853
    },
    {
        "name": "Burton on the Wolds",
        "latitude": 52.78574,
        "longitude": -1.12988
    },
    {
        "name": "Burton Pidsea",
        "latitude": 53.76327,
        "longitude": -0.10703
    },
    {
        "name": "Burton upon Stather",
        "latitude": 53.64911,
        "longitude": -0.68453
    },
    {
        "name": "Burton upon Trent",
        "latitude": 52.80728,
        "longitude": -1.64263
    },
    {
        "name": "Burtonwood",
        "latitude": 53.42948,
        "longitude": -2.65852
    },
    {
        "name": "Burwash",
        "latitude": 50.99755,
        "longitude": 0.38504
    },
    {
        "name": "Burwell",
        "latitude": 52.27632,
        "longitude": 0.32732
    },
    {
        "name": "Bury",
        "latitude": 53.6,
        "longitude": -2.3
    },
    {
        "name": "Bury St Edmunds",
        "latitude": 52.2463,
        "longitude": 0.71111
    },
    {
        "name": "Bushey",
        "latitude": 51.64316,
        "longitude": -0.36053
    },
    {
        "name": "Butterwick",
        "latitude": 52.98333,
        "longitude": 0.06667
    },
    {
        "name": "Buxted",
        "latitude": 50.99003,
        "longitude": 0.13441
    },
    {
        "name": "Buxton",
        "latitude": 53.25741,
        "longitude": -1.90982
    },
    {
        "name": "Byfield",
        "latitude": 52.17546,
        "longitude": -1.24566
    },
    {
        "name": "Byram",
        "latitude": 53.72394,
        "longitude": -1.26128
    },
    {
        "name": "Caddington",
        "latitude": 51.86621,
        "longitude": -0.45679
    },
    {
        "name": "Cadnam",
        "latitude": 50.92047,
        "longitude": -1.5797
    },
    {
        "name": "Caister-on-Sea",
        "latitude": 52.64809,
        "longitude": 1.72648
    },
    {
        "name": "Caistor",
        "latitude": 53.49673,
        "longitude": -0.31538
    },
    {
        "name": "Calcot",
        "latitude": 51.44058,
        "longitude": -1.05091
    },
    {
        "name": "Calderdale",
        "latitude": 53.7,
        "longitude": -2.0
    },
    {
        "name": "Callington",
        "latitude": 50.50147,
        "longitude": -4.31314
    },
    {
        "name": "Calne",
        "latitude": 51.43879,
        "longitude": -2.00571
    },
    {
        "name": "Calverton",
        "latitude": 53.03728,
        "longitude": -1.08263
    },
    {
        "name": "Camber",
        "latitude": 50.93473,
        "longitude": 0.79848
    },
    {
        "name": "Camberley",
        "latitude": 51.33705,
        "longitude": -0.74261
    },
    {
        "name": "Camblesforth",
        "latitude": 53.7268,
        "longitude": -1.01998
    },
    {
        "name": "Camborne",
        "latitude": 50.21306,
        "longitude": -5.29731
    },
    {
        "name": "Cambourne",
        "latitude": 52.22115,
        "longitude": -0.07025
    },
    {
        "name": "Cambridge",
        "latitude": 52.2,
        "longitude": 0.11667
    },
    {
        "name": "Cambridgeshire",
        "latitude": 52.33333,
        "longitude": 0.08333
    },
    {
        "name": "Camden Town",
        "latitude": 51.54057,
        "longitude": -0.14334
    },
    {
        "name": "Cameley",
        "latitude": 51.31616,
        "longitude": -2.56079
    },
    {
        "name": "Camelford",
        "latitude": 50.62185,
        "longitude": -4.67963
    },
    {
        "name": "Campsall",
        "latitude": 53.61917,
        "longitude": -1.18002
    },
    {
        "name": "Canary Wharf",
        "latitude": 51.50519,
        "longitude": -0.02085
    },
    {
        "name": "Canewdon",
        "latitude": 51.61759,
        "longitude": 0.74458
    },
    {
        "name": "Canford Heath",
        "latitude": 50.751,
        "longitude": -1.96862
    },
    {
        "name": "Cannock",
        "latitude": 52.69045,
        "longitude": -2.03085
    },
    {
        "name": "Canterbury",
        "latitude": 51.27904,
        "longitude": 1.07992
    },
    {
        "name": "Canvey Island",
        "latitude": 51.52199,
        "longitude": 0.5809
    },
    {
        "name": "Capel",
        "latitude": 51.14942,
        "longitude": -0.32375
    },
    {
        "name": "Capel le Ferne",
        "latitude": 51.10339,
        "longitude": 1.21165
    },
    {
        "name": "Capel Saint Mary",
        "latitude": 52.00369,
        "longitude": 1.04482
    },
    {
        "name": "Carcroft",
        "latitude": 53.58282,
        "longitude": -1.17648
    },
    {
        "name": "Cardington",
        "latitude": 52.11742,
        "longitude": -0.41289
    },
    {
        "name": "Carlisle",
        "latitude": 54.8951,
        "longitude": -2.9382
    },
    {
        "name": "Carlton",
        "latitude": 54.59004,
        "longitude": -1.39117
    },
    {
        "name": "Carnforth",
        "latitude": 54.13163,
        "longitude": -2.76914
    },
    {
        "name": "Carshalton",
        "latitude": 51.36829,
        "longitude": -0.16755
    },
    {
        "name": "Carterton",
        "latitude": 51.75905,
        "longitude": -1.59435
    },
    {
        "name": "Castle Cary",
        "latitude": 51.09,
        "longitude": -2.51417
    },
    {
        "name": "Castle Donington",
        "latitude": 52.84291,
        "longitude": -1.34188
    },
    {
        "name": "Castle Hedingham",
        "latitude": 51.99015,
        "longitude": 0.59882
    },
    {
        "name": "Castle Vale",
        "latitude": 52.51879,
        "longitude": -1.79683
    },
    {
        "name": "Castleford",
        "latitude": 53.72587,
        "longitude": -1.36256
    },
    {
        "name": "Castleside",
        "latitude": 54.83429,
        "longitude": -1.87849
    },
    {
        "name": "Castor",
        "latitude": 52.57319,
        "longitude": -0.34603
    },
    {
        "name": "Catcliffe",
        "latitude": 53.39316,
        "longitude": -1.36207
    },
    {
        "name": "Caterham",
        "latitude": 51.2823,
        "longitude": -0.07889
    },
    {
        "name": "Caton",
        "latitude": 54.07624,
        "longitude": -2.71903
    },
    {
        "name": "Catterall",
        "latitude": 53.87965,
        "longitude": -2.76478
    },
    {
        "name": "Catterick",
        "latitude": 54.37542,
        "longitude": -1.63328
    },
    {
        "name": "Catterick Garrison",
        "latitude": 54.37748,
        "longitude": -1.72232
    },
    {
        "name": "Cawood",
        "latitude": 53.83303,
        "longitude": -1.12962
    },
    {
        "name": "Cawston",
        "latitude": 52.76667,
        "longitude": 1.16667
    },
    {
        "name": "Cawthorne",
        "latitude": 53.56687,
        "longitude": -1.57259
    },
    {
        "name": "Caythorpe",
        "latitude": 53.01667,
        "longitude": -0.6
    },
    {
        "name": "Central Bedfordshire",
        "latitude": 51.99755,
        "longitude": -0.42148
    },
    {
        "name": "Chacewater",
        "latitude": 50.25675,
        "longitude": -5.15757
    },
    {
        "name": "Chadwell Heath",
        "latitude": 51.57121,
        "longitude": 0.13271
    },
    {
        "name": "Chadwell St Mary",
        "latitude": 51.4814,
        "longitude": 0.36343
    },
    {
        "name": "Chafford Hundred",
        "latitude": 51.4892,
        "longitude": 0.2944
    },
    {
        "name": "Chagford",
        "latitude": 50.67504,
        "longitude": -3.83936
    },
    {
        "name": "Chalfont Saint Peter",
        "latitude": 51.60885,
        "longitude": -0.55618
    },
    {
        "name": "Chalfont St Giles",
        "latitude": 51.63184,
        "longitude": -0.57026
    },
    {
        "name": "Chalford",
        "latitude": 51.72583,
        "longitude": -2.15139
    },
    {
        "name": "Chalgrove",
        "latitude": 51.66476,
        "longitude": -1.0764
    },
    {
        "name": "Chalton",
        "latitude": 51.9279,
        "longitude": -0.50147
    },
    {
        "name": "Chapel Allerton",
        "latitude": 53.82901,
        "longitude": -1.53834
    },
    {
        "name": "Chapel en le Frith",
        "latitude": 53.32407,
        "longitude": -1.91291
    },
    {
        "name": "Chapel Saint Leonards",
        "latitude": 53.21667,
        "longitude": 0.31667
    },
    {
        "name": "Chapeltown",
        "latitude": 53.46506,
        "longitude": -1.47217
    },
    {
        "name": "Chapmanslade",
        "latitude": 51.22917,
        "longitude": -2.24889
    },
    {
        "name": "Chard",
        "latitude": 50.8727,
        "longitude": -2.96597
    },
    {
        "name": "Charfield",
        "latitude": 51.62722,
        "longitude": -2.40667
    },
    {
        "name": "Charing",
        "latitude": 51.21073,
        "longitude": 0.79466
    },
    {
        "name": "Charlbury",
        "latitude": 51.8727,
        "longitude": -1.48247
    },
    {
        "name": "Charlton Kings",
        "latitude": 51.88374,
        "longitude": -2.04239
    },
    {
        "name": "Charlton Marshall",
        "latitude": 50.83591,
        "longitude": -2.14231
    },
    {
        "name": "Charminster",
        "latitude": 50.73333,
        "longitude": -2.45
    },
    {
        "name": "Charmouth",
        "latitude": 50.73889,
        "longitude": -2.90055
    },
    {
        "name": "Chartham",
        "latitude": 51.2562,
        "longitude": 1.01836
    },
    {
        "name": "Charvil",
        "latitude": 51.47573,
        "longitude": -0.88591
    },
    {
        "name": "Chasetown",
        "latitude": 52.67232,
        "longitude": -1.92535
    },
    {
        "name": "Chatburn",
        "latitude": 53.89228,
        "longitude": -2.35495
    },
    {
        "name": "Chatham",
        "latitude": 51.37891,
        "longitude": 0.52786
    },
    {
        "name": "Chatteris",
        "latitude": 52.45624,
        "longitude": 0.05236
    },
    {
        "name": "Cheadle",
        "latitude": 52.98333,
        "longitude": -1.98333
    },
    {
        "name": "Cheadle Heath",
        "latitude": 53.40186,
        "longitude": -2.19088
    },
    {
        "name": "Cheadle Hulme",
        "latitude": 53.3761,
        "longitude": -2.1897
    },
    {
        "name": "Cheam",
        "latitude": 51.36179,
        "longitude": -0.21977
    },
    {
        "name": "Cheddar",
        "latitude": 51.27537,
        "longitude": -2.77662
    },
    {
        "name": "Cheddington",
        "latitude": 51.84784,
        "longitude": -0.66429
    },
    {
        "name": "Cheddleton",
        "latitude": 53.0691,
        "longitude": -2.04228
    },
    {
        "name": "Cheetham Hill",
        "latitude": 53.49862,
        "longitude": -2.23846
    },
    {
        "name": "Chelford",
        "latitude": 53.2709,
        "longitude": -2.28329
    },
    {
        "name": "Chelmsford",
        "latitude": 51.73575,
        "longitude": 0.46958
    },
    {
        "name": "Chelmsley Wood",
        "latitude": 52.4781,
        "longitude": -1.73813
    },
    {
        "name": "Chelsea",
        "latitude": 51.48755,
        "longitude": -0.16936
    },
    {
        "name": "Cheltenham",
        "latitude": 51.90006,
        "longitude": -2.07972
    },
    {
        "name": "Cherry Burton",
        "latitude": 53.86667,
        "longitude": -0.5
    },
    {
        "name": "Chertsey",
        "latitude": 51.38812,
        "longitude": -0.50782
    },
    {
        "name": "Chesham",
        "latitude": 51.7,
        "longitude": -0.6
    },
    {
        "name": "Cheshire East",
        "latitude": 53.16702,
        "longitude": -2.36245
    },
    {
        "name": "Cheshire West and Chester",
        "latitude": 53.16352,
        "longitude": -2.73595
    },
    {
        "name": "Cheshunt",
        "latitude": 51.7002,
        "longitude": -0.03026
    },
    {
        "name": "Chessington",
        "latitude": 51.3624,
        "longitude": -0.30427
    },
    {
        "name": "Chester",
        "latitude": 53.1905,
        "longitude": -2.89189
    },
    {
        "name": "Chester-le-Street",
        "latitude": 54.85862,
        "longitude": -1.57408
    },
    {
        "name": "Chesterfield",
        "latitude": 53.25,
        "longitude": -1.41667
    },
    {
        "name": "Chew Magna",
        "latitude": 51.36611,
        "longitude": -2.61028
    },
    {
        "name": "Chichester",
        "latitude": 50.83673,
        "longitude": -0.78003
    },
    {
        "name": "Chickerell",
        "latitude": 50.62429,
        "longitude": -2.5028
    },
    {
        "name": "Chicksands",
        "latitude": 52.04585,
        "longitude": -0.3639
    },
    {
        "name": "Chiddingfold",
        "latitude": 51.11866,
        "longitude": -0.62262
    },
    {
        "name": "Chigwell",
        "latitude": 51.61999,
        "longitude": 0.07596
    },
    {
        "name": "Chilcompton",
        "latitude": 51.26391,
        "longitude": -2.50502
    },
    {
        "name": "Child Okeford",
        "latitude": 50.9137,
        "longitude": -2.23679
    },
    {
        "name": "Chilton Foliat",
        "latitude": 51.43245,
        "longitude": -1.53912
    },
    {
        "name": "Chilworth",
        "latitude": 51.21635,
        "longitude": -0.53129
    },
    {
        "name": "Chinley",
        "latitude": 53.34025,
        "longitude": -1.939
    },
    {
        "name": "Chinnor",
        "latitude": 51.70177,
        "longitude": -0.91161
    },
    {
        "name": "Chippenham",
        "latitude": 51.46,
        "longitude": -2.12472
    },
    {
        "name": "Chipping Campden",
        "latitude": 52.04964,
        "longitude": -1.7767
    },
    {
        "name": "Chipping Norton",
        "latitude": 51.94109,
        "longitude": -1.5453
    },
    {
        "name": "Chipping Ongar",
        "latitude": 51.70379,
        "longitude": 0.24548
    },
    {
        "name": "Chipping Sodbury",
        "latitude": 51.53813,
        "longitude": -2.39379
    },
    {
        "name": "Chiseldon",
        "latitude": 51.51606,
        "longitude": -1.73206
    },
    {
        "name": "Chislehurst",
        "latitude": 51.41709,
        "longitude": 0.06858
    },
    {
        "name": "Chobham",
        "latitude": 51.34836,
        "longitude": -0.60639
    },
    {
        "name": "Cholsey",
        "latitude": 51.5728,
        "longitude": -1.15356
    },
    {
        "name": "Choppington",
        "latitude": 55.15004,
        "longitude": -1.60332
    },
    {
        "name": "Chopwell",
        "latitude": 54.91797,
        "longitude": -1.82013
    },
    {
        "name": "Chorley",
        "latitude": 53.65,
        "longitude": -2.61667
    },
    {
        "name": "Chorleywood",
        "latitude": 51.65472,
        "longitude": -0.51404
    },
    {
        "name": "Chorlton",
        "latitude": 53.05029,
        "longitude": -2.40541
    },
    {
        "name": "Chorlton cum Hardy",
        "latitude": 53.43505,
        "longitude": -2.2631
    },
    {
        "name": "Christchurch",
        "latitude": 50.73583,
        "longitude": -1.78129
    },
    {
        "name": "Chudleigh",
        "latitude": 50.60496,
        "longitude": -3.60031
    },
    {
        "name": "Chudleigh Knighton",
        "latitude": 50.58507,
        "longitude": -3.63187
    },
    {
        "name": "Chulmleigh",
        "latitude": 50.91289,
        "longitude": -3.86938
    },
    {
        "name": "Church",
        "latitude": 53.75177,
        "longitude": -2.39121
    },
    {
        "name": "Church Fenton",
        "latitude": 53.82626,
        "longitude": -1.2189
    },
    {
        "name": "Church Stretton",
        "latitude": 52.53778,
        "longitude": -2.80149
    },
    {
        "name": "Churchdown",
        "latitude": 51.87739,
        "longitude": -2.17087
    },
    {
        "name": "Churchill",
        "latitude": 51.34291,
        "longitude": -2.78338
    },
    {
        "name": "Churt",
        "latitude": 51.13603,
        "longitude": -0.77534
    },
    {
        "name": "Cinderford",
        "latitude": 51.82421,
        "longitude": -2.4987
    },
    {
        "name": "Cirencester",
        "latitude": 51.71927,
        "longitude": -1.97145
    },
    {
        "name": "City and Borough of Birmingham",
        "latitude": 52.48048,
        "longitude": -1.89823
    },
    {
        "name": "City and Borough of Leeds",
        "latitude": 53.79644,
        "longitude": -1.5477
    },
    {
        "name": "City and Borough of Salford",
        "latitude": 53.5,
        "longitude": -2.33333
    },
    {
        "name": "City and Borough of Wakefield",
        "latitude": 53.68085,
        "longitude": -1.49895
    },
    {
        "name": "City of Bristol",
        "latitude": 51.45,
        "longitude": -2.6
    },
    {
        "name": "City of Kingston upon Hull",
        "latitude": 53.75,
        "longitude": -0.33333
    },
    {
        "name": "City of Leicester",
        "latitude": 52.63333,
        "longitude": -1.13333
    },
    {
        "name": "City of London",
        "latitude": 51.51279,
        "longitude": -0.09184
    },
    {
        "name": "City of Westminster",
        "latitude": 51.4975,
        "longitude": -0.1357
    },
    {
        "name": "City of York",
        "latitude": 53.96396,
        "longitude": -1.09142
    },
    {
        "name": "Clacton-on-Sea",
        "latitude": 51.78967,
        "longitude": 1.15597
    },
    {
        "name": "Clapham",
        "latitude": 52.16085,
        "longitude": -0.49529
    },
    {
        "name": "Clarborough",
        "latitude": 53.34549,
        "longitude": -0.90382
    },
    {
        "name": "Clare",
        "latitude": 52.07861,
        "longitude": 0.58167
    },
    {
        "name": "Claydon",
        "latitude": 52.10672,
        "longitude": 1.11134
    },
    {
        "name": "Claypole",
        "latitude": 53.03144,
        "longitude": -0.73407
    },
    {
        "name": "Clayton le Moors",
        "latitude": 53.76667,
        "longitude": -2.38333
    },
    {
        "name": "Clayton West",
        "latitude": 53.59501,
        "longitude": -1.61107
    },
    {
        "name": "Clayton-le-Woods",
        "latitude": 53.69689,
        "longitude": -2.66818
    },
    {
        "name": "Cleator Moor",
        "latitude": 54.52143,
        "longitude": -3.5159
    },
    {
        "name": "Cleckheaton",
        "latitude": 53.72405,
        "longitude": -1.71294
    },
    {
        "name": "Cleethorpes",
        "latitude": 53.56047,
        "longitude": -0.03225
    },
    {
        "name": "Clenchwarton",
        "latitude": 52.75604,
        "longitude": 0.3579
    },
    {
        "name": "Cleobury Mortimer",
        "latitude": 52.37853,
        "longitude": -2.48196
    },
    {
        "name": "Clerkenwell",
        "latitude": 51.52438,
        "longitude": -0.11022
    },
    {
        "name": "Clevedon",
        "latitude": 51.44227,
        "longitude": -2.85786
    },
    {
        "name": "Cleveleys",
        "latitude": 53.8775,
        "longitude": -3.03987
    },
    {
        "name": "Cliffe",
        "latitude": 51.46224,
        "longitude": 0.49833
    },
    {
        "name": "Clifton",
        "latitude": 52.0399,
        "longitude": -0.30051
    },
    {
        "name": "Clitheroe",
        "latitude": 53.86667,
        "longitude": -2.4
    },
    {
        "name": "Clive",
        "latitude": 52.81335,
        "longitude": -2.72295
    },
    {
        "name": "Clophill",
        "latitude": 52.02727,
        "longitude": -0.42377
    },
    {
        "name": "Clowne",
        "latitude": 53.27449,
        "longitude": -1.26406
    },
    {
        "name": "Clutton",
        "latitude": 51.32944,
        "longitude": -2.54306
    },
    {
        "name": "Coalville",
        "latitude": 52.72247,
        "longitude": -1.3702
    },
    {
        "name": "Coates",
        "latitude": 51.7075,
        "longitude": -2.03389
    },
    {
        "name": "Cobham",
        "latitude": 51.32997,
        "longitude": -0.4113
    },
    {
        "name": "Cockermouth",
        "latitude": 54.66209,
        "longitude": -3.36086
    },
    {
        "name": "Cockfield",
        "latitude": 54.61373,
        "longitude": -1.80897
    },
    {
        "name": "Cockington",
        "latitude": 50.46335,
        "longitude": -3.55691
    },
    {
        "name": "Codicote",
        "latitude": 51.85052,
        "longitude": -0.2367
    },
    {
        "name": "Codsall",
        "latitude": 52.62989,
        "longitude": -2.20148
    },
    {
        "name": "Cogenhoe",
        "latitude": 52.23758,
        "longitude": -0.78381
    },
    {
        "name": "Coggeshall",
        "latitude": 51.87077,
        "longitude": 0.68536
    },
    {
        "name": "Colchester",
        "latitude": 51.88921,
        "longitude": 0.90421
    },
    {
        "name": "Cold Ash",
        "latitude": 51.42426,
        "longitude": -1.26463
    },
    {
        "name": "Cold Norton",
        "latitude": 51.67209,
        "longitude": 0.66997
    },
    {
        "name": "Colden Common",
        "latitude": 50.99483,
        "longitude": -1.31143
    },
    {
        "name": "Coleford",
        "latitude": 51.79535,
        "longitude": -2.61354
    },
    {
        "name": "Colerne",
        "latitude": 51.43833,
        "longitude": -2.2628
    },
    {
        "name": "Collier Row",
        "latitude": 51.59893,
        "longitude": 0.166
    },
    {
        "name": "Collingbourne Kingston",
        "latitude": 51.30105,
        "longitude": -1.65876
    },
    {
        "name": "Collingham",
        "latitude": 53.91167,
        "longitude": -1.41174
    },
    {
        "name": "Colnbrook",
        "latitude": 51.48384,
        "longitude": -0.52142
    },
    {
        "name": "Colne",
        "latitude": 53.85713,
        "longitude": -2.16851
    },
    {
        "name": "Colsterworth",
        "latitude": 52.8066,
        "longitude": -0.62056
    },
    {
        "name": "Coltishall",
        "latitude": 52.72804,
        "longitude": 1.36653
    },
    {
        "name": "Colwich",
        "latitude": 52.78764,
        "longitude": -1.98206
    },
    {
        "name": "Colyton",
        "latitude": 50.74006,
        "longitude": -3.07021
    },
    {
        "name": "Combe Martin",
        "latitude": 51.19873,
        "longitude": -4.02343
    },
    {
        "name": "Comberton",
        "latitude": 52.18709,
        "longitude": 0.01905
    },
    {
        "name": "Compton",
        "latitude": 51.02385,
        "longitude": -1.33713
    },
    {
        "name": "Compton Martin",
        "latitude": 51.31056,
        "longitude": -2.65528
    },
    {
        "name": "Congleton",
        "latitude": 53.16314,
        "longitude": -2.21253
    },
    {
        "name": "Congresbury",
        "latitude": 51.37135,
        "longitude": -2.81018
    },
    {
        "name": "Coningsby",
        "latitude": 53.10598,
        "longitude": -0.17595
    },
    {
        "name": "Conisbrough",
        "latitude": 53.48188,
        "longitude": -1.23214
    },
    {
        "name": "Consett",
        "latitude": 54.85404,
        "longitude": -1.8316
    },
    {
        "name": "Cookham",
        "latitude": 51.55936,
        "longitude": -0.7081
    },
    {
        "name": "Cookley",
        "latitude": 52.31667,
        "longitude": 1.45
    },
    {
        "name": "Cople",
        "latitude": 52.12342,
        "longitude": -0.38933
    },
    {
        "name": "Copmanthorpe",
        "latitude": 53.91419,
        "longitude": -1.14209
    },
    {
        "name": "Copplestone",
        "latitude": 50.81073,
        "longitude": -3.74607
    },
    {
        "name": "Coppull",
        "latitude": 53.62527,
        "longitude": -2.65854
    },
    {
        "name": "Copthorne",
        "latitude": 51.13929,
        "longitude": -0.11742
    },
    {
        "name": "Corbridge",
        "latitude": 54.97365,
        "longitude": -2.01798
    },
    {
        "name": "Corby",
        "latitude": 52.49637,
        "longitude": -0.68939
    },
    {
        "name": "Corby Glen",
        "latitude": 52.81262,
        "longitude": -0.51817
    },
    {
        "name": "Corfe Castle",
        "latitude": 50.63947,
        "longitude": -2.05672
    },
    {
        "name": "Cornholme",
        "latitude": 53.7323,
        "longitude": -2.13851
    },
    {
        "name": "Cornwall",
        "latitude": 50.41667,
        "longitude": -4.75
    },
    {
        "name": "Corse",
        "latitude": 51.95943,
        "longitude": -2.30636
    },
    {
        "name": "Corsham",
        "latitude": 51.43433,
        "longitude": -2.18437
    },
    {
        "name": "Corston",
        "latitude": 51.385,
        "longitude": -2.44028
    },
    {
        "name": "Cosby",
        "latitude": 52.55127,
        "longitude": -1.19395
    },
    {
        "name": "Cosham",
        "latitude": 50.84654,
        "longitude": -1.06344
    },
    {
        "name": "Costessey",
        "latitude": 52.65914,
        "longitude": 1.2097
    },
    {
        "name": "Cotgrave",
        "latitude": 52.90859,
        "longitude": -1.03752
    },
    {
        "name": "Cottenham",
        "latitude": 52.28743,
        "longitude": 0.1254
    },
    {
        "name": "Cottesmore",
        "latitude": 52.71384,
        "longitude": -0.6633
    },
    {
        "name": "Cottingham",
        "latitude": 52.50243,
        "longitude": -0.7554
    },
    {
        "name": "Coulsdon",
        "latitude": 51.32002,
        "longitude": -0.14088
    },
    {
        "name": "Coundon",
        "latitude": 54.6628,
        "longitude": -1.62688
    },
    {
        "name": "Countesthorpe",
        "latitude": 52.55379,
        "longitude": -1.14526
    },
    {
        "name": "County Durham",
        "latitude": 54.7768,
        "longitude": -1.57575
    },
    {
        "name": "Coven",
        "latitude": 52.65587,
        "longitude": -2.1353
    },
    {
        "name": "Coventry",
        "latitude": 52.40656,
        "longitude": -1.51217
    },
    {
        "name": "Cowbit",
        "latitude": 52.74523,
        "longitude": -0.12978
    },
    {
        "name": "Cowes",
        "latitude": 50.76306,
        "longitude": -1.29772
    },
    {
        "name": "Cowfold",
        "latitude": 50.98945,
        "longitude": -0.27243
    },
    {
        "name": "Cowley",
        "latitude": 51.73213,
        "longitude": -1.20631
    },
    {
        "name": "Cowplain",
        "latitude": 50.89411,
        "longitude": -1.01824
    },
    {
        "name": "Coxhoe",
        "latitude": 54.71475,
        "longitude": -1.50356
    },
    {
        "name": "Cradley Heath",
        "latitude": 52.47214,
        "longitude": -2.08212
    },
    {
        "name": "Cramlington",
        "latitude": 55.08652,
        "longitude": -1.58598
    },
    {
        "name": "Cranbrook",
        "latitude": 51.09662,
        "longitude": 0.53567
    },
    {
        "name": "Cranfield",
        "latitude": 52.06869,
        "longitude": -0.60884
    },
    {
        "name": "Cranham",
        "latitude": 51.56565,
        "longitude": 0.2659
    },
    {
        "name": "Cranleigh",
        "latitude": 51.14209,
        "longitude": -0.48374
    },
    {
        "name": "Cranwell",
        "latitude": 53.03681,
        "longitude": -0.46176
    },
    {
        "name": "Craven Arms",
        "latitude": 52.44308,
        "longitude": -2.83562
    },
    {
        "name": "Crawley",
        "latitude": 51.11303,
        "longitude": -0.18312
    },
    {
        "name": "Crawley Down",
        "latitude": 51.12061,
        "longitude": -0.0773
    },
    {
        "name": "Credenhill",
        "latitude": 52.08351,
        "longitude": -2.80804
    },
    {
        "name": "Crediton",
        "latitude": 50.78333,
        "longitude": -3.65
    },
    {
        "name": "Creech Saint Michael",
        "latitude": 51.02333,
        "longitude": -3.03833
    },
    {
        "name": "Creswell",
        "latitude": 53.26287,
        "longitude": -1.21987
    },
    {
        "name": "Crewe",
        "latitude": 53.09787,
        "longitude": -2.44161
    },
    {
        "name": "Crewkerne",
        "latitude": 50.88298,
        "longitude": -2.79588
    },
    {
        "name": "Crick",
        "latitude": 52.34808,
        "longitude": -1.13708
    },
    {
        "name": "Cricklade",
        "latitude": 51.64061,
        "longitude": -1.85738
    },
    {
        "name": "Cringleford",
        "latitude": 52.60482,
        "longitude": 1.24334
    },
    {
        "name": "Croft",
        "latitude": 52.55668,
        "longitude": -1.24643
    },
    {
        "name": "Crofton",
        "latitude": 53.65639,
        "longitude": -1.42968
    },
    {
        "name": "Cromer",
        "latitude": 52.93123,
        "longitude": 1.29892
    },
    {
        "name": "Cromford",
        "latitude": 53.10848,
        "longitude": -1.56014
    },
    {
        "name": "Crondall",
        "latitude": 51.23285,
        "longitude": -0.86329
    },
    {
        "name": "Crook",
        "latitude": 54.71252,
        "longitude": -1.7497
    },
    {
        "name": "Cropwell Bishop",
        "latitude": 52.9148,
        "longitude": -0.98482
    },
    {
        "name": "Crosby",
        "latitude": 53.47778,
        "longitude": -3.03333
    },
    {
        "name": "Cross Hills",
        "latitude": 53.90606,
        "longitude": -1.98492
    },
    {
        "name": "Croston",
        "latitude": 53.66217,
        "longitude": -2.77523
    },
    {
        "name": "Crouch End",
        "latitude": 51.57971,
        "longitude": -0.12373
    },
    {
        "name": "Crowborough",
        "latitude": 51.06098,
        "longitude": 0.16342
    },
    {
        "name": "Crowland",
        "latitude": 52.67571,
        "longitude": -0.16849
    },
    {
        "name": "Crowle",
        "latitude": 53.60753,
        "longitude": -0.83256
    },
    {
        "name": "Crowthorne",
        "latitude": 51.37027,
        "longitude": -0.79219
    },
    {
        "name": "Croydon",
        "latitude": 51.38333,
        "longitude": -0.1
    },
    {
        "name": "Crumpsall",
        "latitude": 53.51827,
        "longitude": -2.24447
    },
    {
        "name": "Cuckfield",
        "latitude": 51.01073,
        "longitude": -0.14068
    },
    {
        "name": "Cuddington",
        "latitude": 53.24488,
        "longitude": -2.61879
    },
    {
        "name": "Cudworth",
        "latitude": 53.57131,
        "longitude": -1.41595
    },
    {
        "name": "Cuffley",
        "latitude": 51.70799,
        "longitude": -0.11209
    },
    {
        "name": "Culcheth",
        "latitude": 53.4511,
        "longitude": -2.52104
    },
    {
        "name": "Cullingworth",
        "latitude": 53.82444,
        "longitude": -1.8973
    },
    {
        "name": "Cullompton",
        "latitude": 50.8553,
        "longitude": -3.39268
    },
    {
        "name": "Culverstone Green",
        "latitude": 51.34085,
        "longitude": 0.34686
    },
    {
        "name": "Cumbria",
        "latitude": 54.58333,
        "longitude": -2.83333
    },
    {
        "name": "Curdworth",
        "latitude": 52.53382,
        "longitude": -1.73687
    },
    {
        "name": "Curry Rivel",
        "latitude": 51.02306,
        "longitude": -2.86753
    },
    {
        "name": "Cuxton",
        "latitude": 51.3743,
        "longitude": 0.45688
    },
    {
        "name": "Dagenham",
        "latitude": 51.55,
        "longitude": 0.16667
    },
    {
        "name": "Dalston",
        "latitude": 54.84207,
        "longitude": -2.98459
    },
    {
        "name": "Dalton in Furness",
        "latitude": 54.15796,
        "longitude": -3.17977
    },
    {
        "name": "Danbury",
        "latitude": 51.71645,
        "longitude": 0.58245
    },
    {
        "name": "Danby",
        "latitude": 54.46606,
        "longitude": -0.91073
    },
    {
        "name": "Darenth",
        "latitude": 51.42137,
        "longitude": 0.25784
    },
    {
        "name": "Daresbury",
        "latitude": 53.34184,
        "longitude": -2.635
    },
    {
        "name": "Darfield",
        "latitude": 53.5339,
        "longitude": -1.37595
    },
    {
        "name": "Darlaston",
        "latitude": 52.56667,
        "longitude": -2.03333
    },
    {
        "name": "Darlington",
        "latitude": 54.53333,
        "longitude": -1.53333
    },
    {
        "name": "Darras Hall",
        "latitude": 55.0356,
        "longitude": -1.76425
    },
    {
        "name": "Darrington",
        "latitude": 53.67566,
        "longitude": -1.26901
    },
    {
        "name": "Dartford",
        "latitude": 51.44657,
        "longitude": 0.21423
    },
    {
        "name": "Dartmouth",
        "latitude": 50.3522,
        "longitude": -3.5794
    },
    {
        "name": "Darton",
        "latitude": 53.58705,
        "longitude": -1.52676
    },
    {
        "name": "Darwen",
        "latitude": 53.69803,
        "longitude": -2.46494
    },
    {
        "name": "Datchet",
        "latitude": 51.4839,
        "longitude": -0.57893
    },
    {
        "name": "Datchworth",
        "latitude": 51.85126,
        "longitude": -0.15956
    },
    {
        "name": "Daventry",
        "latitude": 52.25688,
        "longitude": -1.16066
    },
    {
        "name": "Dawlish",
        "latitude": 50.58118,
        "longitude": -3.46644
    },
    {
        "name": "Deal",
        "latitude": 51.22322,
        "longitude": 1.40432
    },
    {
        "name": "Deanshanger",
        "latitude": 52.04996,
        "longitude": -0.88663
    },
    {
        "name": "Dearham",
        "latitude": 54.71175,
        "longitude": -3.44364
    },
    {
        "name": "Debenham",
        "latitude": 52.22422,
        "longitude": 1.18172
    },
    {
        "name": "Deddington",
        "latitude": 51.9806,
        "longitude": -1.32055
    },
    {
        "name": "Dedham",
        "latitude": 51.95892,
        "longitude": 0.99336
    },
    {
        "name": "Delabole",
        "latitude": 50.62347,
        "longitude": -4.7319
    },
    {
        "name": "Delph",
        "latitude": 53.56667,
        "longitude": -2.01667
    },
    {
        "name": "Denby Dale",
        "latitude": 53.57228,
        "longitude": -1.65895
    },
    {
        "name": "Denham",
        "latitude": 51.56667,
        "longitude": -0.5
    },
    {
        "name": "Denholme",
        "latitude": 53.80189,
        "longitude": -1.89503
    },
    {
        "name": "Denmead",
        "latitude": 50.90395,
        "longitude": -1.06744
    },
    {
        "name": "Denton",
        "latitude": 53.45678,
        "longitude": -2.11822
    },
    {
        "name": "Denton Holme",
        "latitude": 54.885,
        "longitude": -2.941
    },
    {
        "name": "Derby",
        "latitude": 52.92277,
        "longitude": -1.47663
    },
    {
        "name": "Derbyshire",
        "latitude": 53.16667,
        "longitude": -1.58333
    },
    {
        "name": "Dersingham",
        "latitude": 52.84549,
        "longitude": 0.50339
    },
    {
        "name": "Desborough",
        "latitude": 52.44183,
        "longitude": -0.82126
    },
    {
        "name": "Desford",
        "latitude": 52.62598,
        "longitude": -1.29395
    },
    {
        "name": "Devizes",
        "latitude": 51.35084,
        "longitude": -1.99421
    },
    {
        "name": "Devon",
        "latitude": 50.75,
        "longitude": -3.75
    },
    {
        "name": "Dewsbury",
        "latitude": 53.69076,
        "longitude": -1.62907
    },
    {
        "name": "Dickens Heath",
        "latitude": 52.38568,
        "longitude": -1.83935
    },
    {
        "name": "Dickleburgh",
        "latitude": 52.3965,
        "longitude": 1.18498
    },
    {
        "name": "Didcot",
        "latitude": 51.60928,
        "longitude": -1.24214
    },
    {
        "name": "Didsbury",
        "latitude": 53.41698,
        "longitude": -2.23145
    },
    {
        "name": "Diggle",
        "latitude": 53.56744,
        "longitude": -1.99723
    },
    {
        "name": "Dinnington",
        "latitude": 53.36667,
        "longitude": -1.2
    },
    {
        "name": "Dinton",
        "latitude": 51.08333,
        "longitude": -1.98333
    },
    {
        "name": "Disley",
        "latitude": 53.35865,
        "longitude": -2.03848
    },
    {
        "name": "Diss",
        "latitude": 52.37675,
        "longitude": 1.1091
    },
    {
        "name": "Distington",
        "latitude": 54.59733,
        "longitude": -3.5388
    },
    {
        "name": "District of Rutland",
        "latitude": 52.66667,
        "longitude": -0.66667
    },
    {
        "name": "Ditchingham",
        "latitude": 52.46729,
        "longitude": 1.4437
    },
    {
        "name": "Ditchling",
        "latitude": 50.921,
        "longitude": -0.11536
    },
    {
        "name": "Ditton Hill",
        "latitude": 51.37947,
        "longitude": -0.31281
    },
    {
        "name": "Dobwalls",
        "latitude": 50.45768,
        "longitude": -4.51735
    },
    {
        "name": "Doddington",
        "latitude": 52.49671,
        "longitude": 0.06017
    },
    {
        "name": "Dodworth",
        "latitude": 53.54306,
        "longitude": -1.52779
    },
    {
        "name": "Doncaster",
        "latitude": 53.5,
        "longitude": -1.08333
    },
    {
        "name": "Donington",
        "latitude": 52.90461,
        "longitude": -0.20505
    },
    {
        "name": "Donisthorpe",
        "latitude": 52.72401,
        "longitude": -1.538
    },
    {
        "name": "Donnington",
        "latitude": 51.95135,
        "longitude": -1.72142
    },
    {
        "name": "Dorchester",
        "latitude": 50.71667,
        "longitude": -2.43333
    },
    {
        "name": "Dorking",
        "latitude": 51.23228,
        "longitude": -0.3338
    },
    {
        "name": "Dormansland",
        "latitude": 51.16024,
        "longitude": 0.00618
    },
    {
        "name": "Dorridge",
        "latitude": 52.37259,
        "longitude": -1.75318
    },
    {
        "name": "Dorset",
        "latitude": 50.75,
        "longitude": -2.33333
    },
    {
        "name": "Dorstone",
        "latitude": 52.06667,
        "longitude": -3.0
    },
    {
        "name": "Dove Holes",
        "latitude": 53.29828,
        "longitude": -1.88775
    },
    {
        "name": "Dover",
        "latitude": 51.12598,
        "longitude": 1.31257
    },
    {
        "name": "Dovercourt",
        "latitude": 51.93649,
        "longitude": 1.27831
    },
    {
        "name": "Doveridge",
        "latitude": 52.90526,
        "longitude": -1.8248
    },
    {
        "name": "Downham Market",
        "latitude": 52.60714,
        "longitude": 0.38375
    },
    {
        "name": "Downton",
        "latitude": 50.99366,
        "longitude": -1.75129
    },
    {
        "name": "Draycott",
        "latitude": 51.25615,
        "longitude": -2.75116
    },
    {
        "name": "Driffield",
        "latitude": 54.00613,
        "longitude": -0.44495
    },
    {
        "name": "Droitwich",
        "latitude": 52.26667,
        "longitude": -2.15
    },
    {
        "name": "Dronfield",
        "latitude": 53.30221,
        "longitude": -1.47507
    },
    {
        "name": "Droylsden",
        "latitude": 53.48005,
        "longitude": -2.14543
    },
    {
        "name": "Drybrook",
        "latitude": 51.8555,
        "longitude": -2.51681
    },
    {
        "name": "Ducklington",
        "latitude": 51.76763,
        "longitude": -1.48418
    },
    {
        "name": "Dudley",
        "latitude": 52.5,
        "longitude": -2.11667
    },
    {
        "name": "Duffield",
        "latitude": 52.98627,
        "longitude": -1.48865
    },
    {
        "name": "Dukinfield",
        "latitude": 53.47497,
        "longitude": -2.08809
    },
    {
        "name": "Dulverton",
        "latitude": 51.04007,
        "longitude": -3.55035
    },
    {
        "name": "Dunchurch",
        "latitude": 52.33757,
        "longitude": -1.29136
    },
    {
        "name": "Dundry",
        "latitude": 51.3988,
        "longitude": -2.63964
    },
    {
        "name": "Dunholme",
        "latitude": 53.30067,
        "longitude": -0.46541
    },
    {
        "name": "Dunkeswell",
        "latitude": 50.86301,
        "longitude": -3.22289
    },
    {
        "name": "Dunnington",
        "latitude": 53.95,
        "longitude": -0.25
    },
    {
        "name": "Dunstable",
        "latitude": 51.88571,
        "longitude": -0.52288
    },
    {
        "name": "Dunswell",
        "latitude": 53.80106,
        "longitude": -0.37139
    },
    {
        "name": "Durham",
        "latitude": 54.77676,
        "longitude": -1.57566
    },
    {
        "name": "Dursley",
        "latitude": 51.68139,
        "longitude": -2.35333
    },
    {
        "name": "Duxford",
        "latitude": 52.09393,
        "longitude": 0.15917
    },
    {
        "name": "Dymchurch",
        "latitude": 51.02544,
        "longitude": 0.99392
    },
    {
        "name": "Eaglescliffe",
        "latitude": 54.52521,
        "longitude": -1.35043
    },
    {
        "name": "Earby",
        "latitude": 53.91546,
        "longitude": -2.14285
    },
    {
        "name": "Earith",
        "latitude": 52.35422,
        "longitude": 0.03056
    },
    {
        "name": "Earl Shilton",
        "latitude": 52.57682,
        "longitude": -1.31536
    },
    {
        "name": "Earls Barton",
        "latitude": 52.26627,
        "longitude": -0.75248
    },
    {
        "name": "Earls Colne",
        "latitude": 51.92744,
        "longitude": 0.70107
    },
    {
        "name": "Earlsfield",
        "latitude": 51.4439,
        "longitude": -0.1854
    },
    {
        "name": "Easington",
        "latitude": 54.78528,
        "longitude": -1.35917
    },
    {
        "name": "Easingwold",
        "latitude": 54.1201,
        "longitude": -1.1939
    },
    {
        "name": "East Ayton",
        "latitude": 54.2548,
        "longitude": -0.47483
    },
    {
        "name": "East Bergholt",
        "latitude": 51.97785,
        "longitude": 1.01761
    },
    {
        "name": "East Boldon",
        "latitude": 54.94452,
        "longitude": -1.42815
    },
    {
        "name": "East Bridgford",
        "latitude": 52.97954,
        "longitude": -0.96563
    },
    {
        "name": "East Chevington",
        "latitude": 55.28333,
        "longitude": -1.58333
    },
    {
        "name": "East Cowes",
        "latitude": 50.75774,
        "longitude": -1.28815
    },
    {
        "name": "East Dean",
        "latitude": 51.03979,
        "longitude": -1.60941
    },
    {
        "name": "East Dereham",
        "latitude": 52.68333,
        "longitude": 0.93333
    },
    {
        "name": "East Grinstead",
        "latitude": 51.12382,
        "longitude": -0.0061
    },
    {
        "name": "East Hanney",
        "latitude": 51.63443,
        "longitude": -1.39518
    },
    {
        "name": "East Harling",
        "latitude": 52.43843,
        "longitude": 0.93353
    },
    {
        "name": "East Harptree",
        "latitude": 51.30111,
        "longitude": -2.62167
    },
    {
        "name": "East Horsley",
        "latitude": 51.27358,
        "longitude": -0.43207
    },
    {
        "name": "East Keswick",
        "latitude": 53.8943,
        "longitude": -1.45221
    },
    {
        "name": "East Leake",
        "latitude": 52.83015,
        "longitude": -1.18103
    },
    {
        "name": "East Markham",
        "latitude": 53.25221,
        "longitude": -0.89385
    },
    {
        "name": "East Molesey",
        "latitude": 51.39872,
        "longitude": -0.34916
    },
    {
        "name": "East Peckham",
        "latitude": 51.21234,
        "longitude": 0.38624
    },
    {
        "name": "East Rainton",
        "latitude": 54.82513,
        "longitude": -1.48036
    },
    {
        "name": "East Riding of Yorkshire",
        "latitude": 53.91667,
        "longitude": -0.5
    },
    {
        "name": "East Sussex",
        "latitude": 50.91667,
        "longitude": 0.33333
    },
    {
        "name": "East Tilbury",
        "latitude": 51.48053,
        "longitude": 0.41714
    },
    {
        "name": "East Wittering",
        "latitude": 50.76969,
        "longitude": -0.87444
    },
    {
        "name": "Eastbourne",
        "latitude": 50.76871,
        "longitude": 0.28453
    },
    {
        "name": "Eastchurch",
        "latitude": 51.40673,
        "longitude": 0.85766
    },
    {
        "name": "Eastington",
        "latitude": 51.74722,
        "longitude": -2.32639
    },
    {
        "name": "Eastleigh",
        "latitude": 50.96667,
        "longitude": -1.35
    },
    {
        "name": "Eastoft",
        "latitude": 53.63624,
        "longitude": -0.78492
    },
    {
        "name": "Easton",
        "latitude": 50.53333,
        "longitude": -2.45
    },
    {
        "name": "Easton on the Hill",
        "latitude": 52.62733,
        "longitude": -0.50571
    },
    {
        "name": "Easton-in-Gordano",
        "latitude": 51.47592,
        "longitude": -2.69987
    },
    {
        "name": "Eastrington",
        "latitude": 53.76038,
        "longitude": -0.79325
    },
    {
        "name": "Eastry",
        "latitude": 51.24639,
        "longitude": 1.30776
    },
    {
        "name": "Eastwood",
        "latitude": 53.0,
        "longitude": -1.3
    },
    {
        "name": "Eaton Bray",
        "latitude": 51.87697,
        "longitude": -0.59167
    },
    {
        "name": "Eaton Socon",
        "latitude": 52.21752,
        "longitude": -0.28925
    },
    {
        "name": "Eattington",
        "latitude": 52.13333,
        "longitude": -1.6
    },
    {
        "name": "Eccles",
        "latitude": 53.48333,
        "longitude": -2.33333
    },
    {
        "name": "Eccleshall",
        "latitude": 52.85789,
        "longitude": -2.24971
    },
    {
        "name": "Eccleston",
        "latitude": 53.64236,
        "longitude": -2.72162
    },
    {
        "name": "Eckington",
        "latitude": 52.06667,
        "longitude": -2.11667
    },
    {
        "name": "Edenbridge",
        "latitude": 51.19172,
        "longitude": 0.06729
    },
    {
        "name": "Edenfield",
        "latitude": 53.66674,
        "longitude": -2.30481
    },
    {
        "name": "Edgmond",
        "latitude": 52.774,
        "longitude": -2.40967
    },
    {
        "name": "Edgware",
        "latitude": 51.6128,
        "longitude": -0.27539
    },
    {
        "name": "Edgworth",
        "latitude": 53.64636,
        "longitude": -2.39401
    },
    {
        "name": "Edington",
        "latitude": 51.27583,
        "longitude": -2.10639
    },
    {
        "name": "Edith Weston",
        "latitude": 52.63786,
        "longitude": -0.63189
    },
    {
        "name": "Edwinstowe",
        "latitude": 53.19454,
        "longitude": -1.06439
    },
    {
        "name": "Egham",
        "latitude": 51.43158,
        "longitude": -0.55239
    },
    {
        "name": "Egremont",
        "latitude": 54.47941,
        "longitude": -3.52756
    },
    {
        "name": "Eight Ash Green",
        "latitude": 51.89587,
        "longitude": 0.8228
    },
    {
        "name": "Elland",
        "latitude": 53.6851,
        "longitude": -1.83878
    },
    {
        "name": "Ellerker",
        "latitude": 53.75323,
        "longitude": -0.60416
    },
    {
        "name": "Ellerton",
        "latitude": 53.85,
        "longitude": -0.93333
    },
    {
        "name": "Ellesmere",
        "latitude": 52.90838,
        "longitude": -2.89806
    },
    {
        "name": "Ellesmere Port",
        "latitude": 53.27875,
        "longitude": -2.90134
    },
    {
        "name": "Elm Park",
        "latitude": 51.5497,
        "longitude": 0.20136
    },
    {
        "name": "Elmstead Market",
        "latitude": 51.88219,
        "longitude": 0.99482
    },
    {
        "name": "Elmswell",
        "latitude": 52.23616,
        "longitude": 0.91247
    },
    {
        "name": "Elsenham",
        "latitude": 51.91431,
        "longitude": 0.22934
    },
    {
        "name": "Elstead",
        "latitude": 51.18548,
        "longitude": -0.70536
    },
    {
        "name": "Elstree",
        "latitude": 51.6403,
        "longitude": -0.29693
    },
    {
        "name": "Elswick",
        "latitude": 53.83836,
        "longitude": -2.88147
    },
    {
        "name": "Elvington",
        "latitude": 53.92087,
        "longitude": -0.93495
    },
    {
        "name": "Elwick",
        "latitude": 54.68455,
        "longitude": -1.29559
    },
    {
        "name": "Ely",
        "latitude": 52.39964,
        "longitude": 0.26196
    },
    {
        "name": "Emberton",
        "latitude": 52.13691,
        "longitude": -0.70673
    },
    {
        "name": "Embleton",
        "latitude": 55.49592,
        "longitude": -1.63619
    },
    {
        "name": "Embsay",
        "latitude": 53.97664,
        "longitude": -1.99282
    },
    {
        "name": "Emley",
        "latitude": 53.61395,
        "longitude": -1.6313
    },
    {
        "name": "Emneth",
        "latitude": 52.64244,
        "longitude": 0.20857
    },
    {
        "name": "Empingham",
        "latitude": 52.66722,
        "longitude": -0.59601
    },
    {
        "name": "Emsworth",
        "latitude": 50.84779,
        "longitude": -0.93697
    },
    {
        "name": "Enderby",
        "latitude": 52.58778,
        "longitude": -1.20619
    },
    {
        "name": "Enfield Town",
        "latitude": 51.65147,
        "longitude": -0.08497
    },
    {
        "name": "Epping",
        "latitude": 51.69815,
        "longitude": 0.11055
    },
    {
        "name": "Epsom",
        "latitude": 51.3305,
        "longitude": -0.27011
    },
    {
        "name": "Epworth",
        "latitude": 53.52602,
        "longitude": -0.82399
    },
    {
        "name": "Erith",
        "latitude": 51.48315,
        "longitude": 0.17484
    },
    {
        "name": "Esher",
        "latitude": 51.36969,
        "longitude": -0.36693
    },
    {
        "name": "Essendine",
        "latitude": 52.70187,
        "longitude": -0.4525
    },
    {
        "name": "Essex",
        "latitude": 51.83333,
        "longitude": 0.58333
    },
    {
        "name": "Essington",
        "latitude": 52.6291,
        "longitude": -2.0577
    },
    {
        "name": "Eton",
        "latitude": 51.48833,
        "longitude": -0.60905
    },
    {
        "name": "Eton Wick",
        "latitude": 51.49722,
        "longitude": -0.63437
    },
    {
        "name": "Etton",
        "latitude": 53.87848,
        "longitude": -0.51314
    },
    {
        "name": "Etwall",
        "latitude": 52.88353,
        "longitude": -1.60023
    },
    {
        "name": "Euxton",
        "latitude": 53.6699,
        "longitude": -2.67615
    },
    {
        "name": "Evenwood",
        "latitude": 54.62213,
        "longitude": -1.76133
    },
    {
        "name": "Evercreech",
        "latitude": 51.14806,
        "longitude": -2.50556
    },