[
    {
        "name": "Acharn\u00e9s",
        "latitude": 38.08333,
        "longitude": 23.73333
    },
    {
        "name": "Aegina",
        "latitude": 37.74667,
        "longitude": 23.4275
    },
    {
        "name": "Afidn\u00e9s",
        "latitude": 38.20332,
        "longitude": 23.83982
    },
    {
        "name": "Aghios Pantele\u00edmon",
        "latitude": 38.11643,
        "longitude": 23.98182
    },
    {
        "name": "Ag\u00eda Mar\u00edna",
        "latitude": 37.82036,
        "longitude": 23.84424
    },
    {
        "name": "Ag\u00eda Paraskev\u00ed",
        "latitude": 38.01667,
        "longitude": 23.83333
    },
    {
        "name": "Ag\u00eda Varv\u00e1ra",
        "latitude": 37.98938,
        "longitude": 23.66011
    },
    {
        "name": "\u00c1gioi An\u00e1rgyroi",
        "latitude": 38.03013,
        "longitude": 23.72379
    },
    {
        "name": "Agios Dimitrios",
        "latitude": 37.93333,
        "longitude": 23.73333
    },
    {
        "name": "Agios Dim\u00edtrios Kropi\u00e1s",
        "latitude": 37.80612,
        "longitude": 23.85793
    },
    {
        "name": "Agios Ioannis Rentis",
        "latitude": 37.96491,
        "longitude": 23.66511
    },
    {
        "name": "\u00c1gios St\u00e9fanos",
        "latitude": 38.14657,
        "longitude": 23.85608
    },
    {
        "name": "Ai\u00e1nteio",
        "latitude": 37.92135,
        "longitude": 23.45877
    },
    {
        "name": "Aig\u00e1leo",
        "latitude": 37.98333,
        "longitude": 23.68333
    },
    {
        "name": "\u00c1limos",
        "latitude": 37.91033,
        "longitude": 23.72361
    },
    {
        "name": "Ampel\u00e1kia",
        "latitude": 37.95055,
        "longitude": 23.52803
    },
    {
        "name": "An\u00e1vyssos",
        "latitude": 37.73414,
        "longitude": 23.94389
    },
    {
        "name": "\u00c1no Li\u00f3sia",
        "latitude": 38.08333,
        "longitude": 23.7
    },
    {
        "name": "Anoixi",
        "latitude": 38.13267,
        "longitude": 23.85874
    },
    {
        "name": "Antho\u00fasa",
        "latitude": 38.02544,
        "longitude": 23.87617
    },
    {
        "name": "Argith\u00e9a",
        "latitude": 37.97506,
        "longitude": 23.88556
    },
    {
        "name": "Argyro\u00fapoli",
        "latitude": 37.90594,
        "longitude": 23.75035
    },
    {
        "name": "Art\u00e9mida",
        "latitude": 37.96727,
        "longitude": 23.99684
    },
    {
        "name": "Aspr\u00f3pyrgos",
        "latitude": 38.06134,
        "longitude": 23.58971
    },
    {
        "name": "Athens",
        "latitude": 37.98376,
        "longitude": 23.72784
    },
    {
        "name": "Avl\u00f3nas",
        "latitude": 38.25149,
        "longitude": 23.69554
    },
    {
        "name": "\u00c1yioi Ap\u00f3stoloi",
        "latitude": 38.29169,
        "longitude": 23.91011
    },
    {
        "name": "Cha\u00efd\u00e1ri",
        "latitude": 38.01135,
        "longitude": 23.66597
    },
    {
        "name": "Cholarg\u00f3s",
        "latitude": 38.0,
        "longitude": 23.8
    },
    {
        "name": "Dhafn\u00ed",
        "latitude": 37.95002,
        "longitude": 23.73437
    },
    {
        "name": "Dhr\u00e1fi",
        "latitude": 38.02375,
        "longitude": 23.90788
    },
    {
        "name": "Di\u00f3ni",
        "latitude": 38.02328,
        "longitude": 23.93286
    },
    {
        "name": "Di\u00f3nysos",
        "latitude": 38.10458,
        "longitude": 23.87938
    },
    {
        "name": "Drapets\u00f3na",
        "latitude": 37.94988,
        "longitude": 23.62309
    },
    {
        "name": "Drosi\u00e1",
        "latitude": 38.11977,
        "longitude": 23.86428
    },
    {
        "name": "Ek\u00e1li",
        "latitude": 38.11035,
        "longitude": 23.83505
    },
    {
        "name": "Elefs\u00edna",
        "latitude": 38.04135,
        "longitude": 23.54295
    },
    {
        "name": "Ellinik\u00f3",
        "latitude": 37.89013,
        "longitude": 23.74406
    },
    {
        "name": "Erythr\u00e9s",
        "latitude": 38.21741,
        "longitude": 23.32234
    },
    {
        "name": "Filoth\u00e9i",
        "latitude": 38.02524,
        "longitude": 23.78257
    },
    {
        "name": "Fyl\u00ed",
        "latitude": 38.10235,
        "longitude": 23.66901
    },
    {
        "name": "Galat\u00e1s",
        "latitude": 37.49618,
        "longitude": 23.44886
    },
    {
        "name": "Gal\u00e1tsi",
        "latitude": 38.01667,
        "longitude": 23.75
    },
    {
        "name": "G\u00e9rakas",
        "latitude": 38.02277,
        "longitude": 23.8576
    },
    {
        "name": "Glyf\u00e1da",
        "latitude": 37.86289,
        "longitude": 23.75802
    },
    {
        "name": "Grammatik\u00f3",
        "latitude": 38.20251,
        "longitude": 23.96504
    },
    {
        "name": "\u00cdlion",
        "latitude": 38.03333,
        "longitude": 23.7
    },
    {
        "name": "Ilio\u00fapoli",
        "latitude": 37.93149,
        "longitude": 23.76779
    },
    {
        "name": "Ir\u00e1kleio",
        "latitude": 38.05282,
        "longitude": 23.76523
    },
    {
        "name": "Kaisarian\u00ed",
        "latitude": 37.9634,
        "longitude": 23.76523
    },
    {
        "name": "K\u00e1lamos",
        "latitude": 38.28447,
        "longitude": 23.86308
    },
    {
        "name": "Kallith\u00e9a",
        "latitude": 37.95,
        "longitude": 23.7
    },
    {
        "name": "Kal\u00fdvia Thoriko\u00fa",
        "latitude": 37.83894,
        "longitude": 23.92505
    },
    {
        "name": "Kamater\u00f3n",
        "latitude": 38.05586,
        "longitude": 23.70515
    },
    {
        "name": "Kapandr\u00edti",
        "latitude": 38.21579,
        "longitude": 23.87938
    },
    {
        "name": "Karell\u00e1s",
        "latitude": 37.93445,
        "longitude": 23.86484
    },
    {
        "name": "K\u00e1to So\u00falion",
        "latitude": 38.16803,
        "longitude": 24.01628
    },
    {
        "name": "Kerat\u00e9a",
        "latitude": 37.80585,
        "longitude": 23.9774
    },
    {
        "name": "Kerats\u00edni",
        "latitude": 37.9625,
        "longitude": 23.61972
    },
    {
        "name": "Khal\u00e1ndrion",
        "latitude": 38.02369,
        "longitude": 23.80068
    },
    {
        "name": "Khalko\u00fatsion",
        "latitude": 38.33263,
        "longitude": 23.73188
    },
    {
        "name": "Kifisi\u00e1",
        "latitude": 38.07438,
        "longitude": 23.81106
    },
    {
        "name": "Kin\u00e9ta",
        "latitude": 37.96843,
        "longitude": 23.21351
    },
    {
        "name": "Kips\u00e9li",
        "latitude": 38.00288,
        "longitude": 23.73755
    },
    {
        "name": "K\u00edtsi",
        "latitude": 37.85181,
        "longitude": 23.84068
    },
    {
        "name": "Korop\u00ed",
        "latitude": 37.89886,
        "longitude": 23.87181
    },
    {
        "name": "Korydall\u00f3s",
        "latitude": 37.98468,
        "longitude": 23.64711
    },
    {
        "name": "Kouvar\u00e1s",
        "latitude": 37.82711,
        "longitude": 23.96715
    },
    {
        "name": "Kryon\u00e9ri",
        "latitude": 38.13712,
        "longitude": 23.83055
    },
    {
        "name": "Kyps\u00e9li",
        "latitude": 37.76021,
        "longitude": 23.45448
    },
    {
        "name": "K\u00fdthira",
        "latitude": 36.14955,
        "longitude": 22.98979
    },
    {
        "name": "L\u00e1vrio",
        "latitude": 37.71445,
        "longitude": 24.05647
    },
    {
        "name": "Leond\u00e1rion",
        "latitude": 37.987,
        "longitude": 23.85518
    },
    {
        "name": "Lim\u00edn Mesoya\u00edas",
        "latitude": 37.89108,
        "longitude": 24.00307
    },
    {
        "name": "Lyk\u00f3vrysi",
        "latitude": 38.06933,
        "longitude": 23.78223
    },
    {
        "name": "Mago\u00fala",
        "latitude": 38.07989,
        "longitude": 23.52108
    },
    {
        "name": "M\u00e1ndra",
        "latitude": 38.06667,
        "longitude": 23.5
    },
    {
        "name": "Marath\u00f3nas",
        "latitude": 38.15317,
        "longitude": 23.96278
    },
    {
        "name": "Mark\u00f3poulo",
        "latitude": 37.88333,
        "longitude": 23.93333
    },
    {
        "name": "Mark\u00f3poulo Oropo\u00fa",
        "latitude": 38.2898,
        "longitude": 23.82475
    },
    {
        "name": "Maro\u00fasi",
        "latitude": 38.05,
        "longitude": 23.8
    },
    {
        "name": "Megaloch\u00f3ri",
        "latitude": 37.71051,
        "longitude": 23.34659
    },
    {
        "name": "M\u00e9gara",
        "latitude": 37.99471,
        "longitude": 23.34324
    },
    {
        "name": "Mel\u00edssia",
        "latitude": 38.05,
        "longitude": 23.83333
    },
    {
        "name": "Metam\u00f3rfosi",
        "latitude": 38.06576,
        "longitude": 23.76356
    },
    {
        "name": "Moskh\u00e1ton",
        "latitude": 37.94789,
        "longitude": 23.6788
    },
    {
        "name": "N\u00e9a Chalkid\u00f3na",
        "latitude": 38.0271,
        "longitude": 23.73051
    },
    {
        "name": "N\u00e9a Erythra\u00eda",
        "latitude": 38.0927,
        "longitude": 23.82223
    },
    {
        "name": "N\u00e9a Filad\u00e9lfeia",
        "latitude": 38.03491,
        "longitude": 23.73811
    },
    {
        "name": "N\u00e9a Ion\u00eda",
        "latitude": 38.0357,
        "longitude": 23.75733
    },
    {
        "name": "N\u00e9a M\u00e1kri",
        "latitude": 38.08733,
        "longitude": 23.97642
    },
    {
        "name": "N\u00e9a Pal\u00e1tia",
        "latitude": 38.31942,
        "longitude": 23.79649
    },
    {
        "name": "N\u00e9a Pent\u00e9li",
        "latitude": 38.06059,
        "longitude": 23.85926
    },
    {
        "name": "N\u00e9a P\u00e9ramos",
        "latitude": 38.00647,
        "longitude": 23.42348
    },
    {
        "name": "N\u00e9a Sm\u00fdrni",
        "latitude": 37.94504,
        "longitude": 23.71416
    },
    {
        "name": "N\u00e9o Psychik\u00f3",
        "latitude": 38.00624,
        "longitude": 23.78373
    },
    {
        "name": "Neos Voutz\u00e1s",
        "latitude": 38.04312,
        "longitude": 23.97749
    },
    {
        "name": "N\u00edkaia",
        "latitude": 37.96667,
        "longitude": 23.65
    },
    {
        "name": "Orop\u00f3s",
        "latitude": 38.30326,
        "longitude": 23.75549
    },
    {
        "name": "Paian\u00eda",
        "latitude": 37.95527,
        "longitude": 23.85443
    },
    {
        "name": "Palai\u00e1 F\u00f3kaia",
        "latitude": 37.71998,
        "longitude": 23.94792
    },
    {
        "name": "Palai\u00f3 F\u00e1liro",
        "latitude": 37.92812,
        "longitude": 23.70105
    },
    {
        "name": "Pall\u00edni",
        "latitude": 38.00514,
        "longitude": 23.88302
    },
    {
        "name": "Pap\u00e1gou",
        "latitude": 37.98642,
        "longitude": 23.79347
    },
    {
        "name": "P\u00e9fki",
        "latitude": 38.06019,
        "longitude": 23.79264
    },
    {
        "name": "Pent\u00e9li",
        "latitude": 38.05,
        "longitude": 23.86667
    },
    {
        "name": "P\u00e9rama",
        "latitude": 37.96775,
        "longitude": 23.5721
    },
    {
        "name": "Perist\u00e9ri",
        "latitude": 38.01539,
        "longitude": 23.69187
    },
    {
        "name": "Petro\u00fapolis",
        "latitude": 38.04187,
        "longitude": 23.68494
    },
    {
        "name": "Pik\u00e9rmi",
        "latitude": 38.00161,
        "longitude": 23.94075
    },
    {
        "name": "Piraeus",
        "latitude": 37.94203,
        "longitude": 23.64619
    },
    {
        "name": "Polyd\u00e9ndri",
        "latitude": 38.216,
        "longitude": 23.86806
    },
    {
        "name": "P\u00f3ros",
        "latitude": 37.49944,
        "longitude": 23.45361
    },
    {
        "name": "Psychik\u00f3",
        "latitude": 38.01324,
        "longitude": 23.77223
    },
    {
        "name": "Raf\u00edna",
        "latitude": 38.01812,
        "longitude": 24.00599
    },
    {
        "name": "Rod\u00f3poli",
        "latitude": 38.11669,
        "longitude": 23.87572
    },
    {
        "name": "Salam\u00edna",
        "latitude": 37.96427,
        "longitude": 23.49649
    },
    {
        "name": "Saron\u00edda",
        "latitude": 37.74809,
        "longitude": 23.91059
    },
    {
        "name": "Sel\u00ednia",
        "latitude": 37.9332,
        "longitude": 23.53147
    },
    {
        "name": "Sk\u00e1la Oropo\u00fa",
        "latitude": 38.31964,
        "longitude": 23.78763
    },
    {
        "name": "Skarmagk\u00e1s",
        "latitude": 38.01133,
        "longitude": 23.60303
    },
    {
        "name": "Sp\u00e1ta",
        "latitude": 37.96163,
        "longitude": 23.91514
    },
    {
        "name": "Sp\u00e9tses",
        "latitude": 37.26191,
        "longitude": 23.15943
    },
    {
        "name": "Stam\u00e1ta",
        "latitude": 38.12546,
        "longitude": 23.88038
    },
    {
        "name": "T\u00e1vros",
        "latitude": 37.97064,
        "longitude": 23.69043
    },
    {
        "name": "Thrakomaked\u00f3nes",
        "latitude": 38.12964,
        "longitude": 23.75751
    },
    {
        "name": "V\u00e1ri",
        "latitude": 37.8332,
        "longitude": 23.80311
    },
    {
        "name": "Varn\u00e1vas",
        "latitude": 38.22358,
        "longitude": 23.92307
    },
    {
        "name": "Varyb\u00f3bi",
        "latitude": 38.12723,
        "longitude": 23.78729
    },
    {
        "name": "Vath\u00fd",
        "latitude": 37.7642,
        "longitude": 23.48011
    },
    {
        "name": "V\u00edlia",
        "latitude": 38.16716,
        "longitude": 23.33659
    },
    {
        "name": "Vlych\u00e1da",
        "latitude": 38.02734,
        "longitude": 23.43663
    },
    {
        "name": "Vo\u00fala",
        "latitude": 37.84221,
        "longitude": 23.77651
    },
    {
        "name": "Vouliagm\u00e9ni",
        "latitude": 37.81423,
        "longitude": 23.77892
    },
    {
        "name": "Vran\u00e1",
        "latitude": 38.12497,
        "longitude": 23.95198
    },
    {
        "name": "Vrilissia",
        "latitude": 38.03381,
        "longitude": 23.82962
    },
    {
        "name": "V\u00fdronas",
        "latitude": 37.96105,
        "longitude": 23.753
    },
    {
        "name": "\u00dddra",
        "latitude": 37.34976,
        "longitude": 23.4656
    },
    {
        "name": "Ymittos",
        "latitude": 37.95342,
        "longitude": 23.74897
    },
    {
        "name": "Zefyri",
        "latitude": 38.06647,
        "longitude": 23.71701
    },
    {
        "name": "Zogr\u00e1fos",
        "latitude": 37.97574,
        "longitude": 23.76911
    },
    {
        "name": "Afr\u00e1tion",
        "latitude": 38.45212,
        "longitude": 23.68775
    },
    {
        "name": "Ag\u00eda Tri\u00e1da",
        "latitude": 38.35505,
        "longitude": 22.90881
    },
    {
        "name": "\u00c1gios Ge\u00f3rgios",
        "latitude": 38.39343,
        "longitude": 22.93189
    },
    {
        "name": "Aidips\u00f3s",
        "latitude": 38.87924,
        "longitude": 23.04691
    },
    {
        "name": "Akraifn\u00eda",
        "latitude": 38.45663,
        "longitude": 23.22093
    },
    {
        "name": "Al\u00edartos",
        "latitude": 38.36667,
        "longitude": 23.1
    },
    {
        "name": "Aliv\u00e9ri",
        "latitude": 38.41667,
        "longitude": 24.03333
    },
    {
        "name": "Am\u00e1rynthos",
        "latitude": 38.393,
        "longitude": 23.88492
    },
    {
        "name": "Amf\u00edkleia",
        "latitude": 38.63912,
        "longitude": 22.59171
    },
    {
        "name": "\u00c1mfissa",
        "latitude": 38.52813,
        "longitude": 22.37713
    },
    {
        "name": "Anth\u00edli",
        "latitude": 38.85,
        "longitude": 22.47906
    },
    {
        "name": "Antikyra",
        "latitude": 38.38333,
        "longitude": 22.63333
    },
    {
        "name": "Ar\u00e1chova",
        "latitude": 38.47958,
        "longitude": 22.5835
    },
    {
        "name": "\u00c1rma",
        "latitude": 38.35121,
        "longitude": 23.48599
    },
    {
        "name": "Asop\u00eda",
        "latitude": 38.29882,
        "longitude": 23.50189
    },
    {
        "name": "Atal\u00e1nti",
        "latitude": 38.65111,
        "longitude": 22.99917
    },
    {
        "name": "\u00c1yios Konstand\u00ednos",
        "latitude": 38.75612,
        "longitude": 22.85757
    },
    {
        "name": "\u00c1yios Nik\u00f3laos",
        "latitude": 38.42051,
        "longitude": 23.64772
    },
    {
        "name": "\u00c1yios Thom\u00e1s",
        "latitude": 38.27717,
        "longitude": 23.58906
    },
    {
        "name": "Chair\u00f3neia",
        "latitude": 38.49551,
        "longitude": 22.84424
    },
    {
        "name": "Chalk\u00edda",
        "latitude": 38.46354,
        "longitude": 23.60284
    },
    {
        "name": "Delphi",
        "latitude": 38.47942,
        "longitude": 22.49357
    },
    {
        "name": "Dhrosi\u00e1",
        "latitude": 38.48413,
        "longitude": 23.54774
    },
    {
        "name": "D\u00edlesi",
        "latitude": 38.33762,
        "longitude": 23.67077
    },
    {
        "name": "D\u00edstomo",
        "latitude": 38.42892,
        "longitude": 22.66728
    },
    {
        "name": "Domok\u00f3s",
        "latitude": 39.12722,
        "longitude": 22.30028
    },
    {
        "name": "Domvra\u00edna",
        "latitude": 38.253,
        "longitude": 22.98211
    },
    {
        "name": "El\u00e1teia",
        "latitude": 38.6277,
        "longitude": 22.76492
    },
    {
        "name": "Er\u00e9tria",
        "latitude": 38.40097,
        "longitude": 23.8022
    },
    {
        "name": "F\u00e1ros",
        "latitude": 38.39959,
        "longitude": 23.62275
    },
    {
        "name": "F\u00edlla",
        "latitude": 38.44177,
        "longitude": 23.68306
    },
    {
        "name": "Galax\u00eddhion",
        "latitude": 38.38067,
        "longitude": 22.38001
    },
    {
        "name": "Istia\u00eda",
        "latitude": 38.9552,
        "longitude": 23.1521
    },
    {
        "name": "It\u00e9a",
        "latitude": 38.43201,
        "longitude": 22.42443
    },
    {
        "name": "Kaino\u00faryion",
        "latitude": 38.79283,
        "longitude": 22.7247
    },
    {
        "name": "Kam\u00e9na Vo\u00farla",
        "latitude": 38.77844,
        "longitude": 22.78573
    },
    {
        "name": "Kapar\u00e9llion",
        "latitude": 38.23697,
        "longitude": 23.21411
    },
    {
        "name": "Karpen\u00edsi",
        "latitude": 38.91218,
        "longitude": 21.79836
    },
    {
        "name": "K\u00e1rystos",
        "latitude": 38.01333,
        "longitude": 24.41611
    },
    {
        "name": "Kast\u00e9lla",
        "latitude": 38.57048,
        "longitude": 23.63131
    },
    {
        "name": "K\u00e1to Tithor\u00e9a",
        "latitude": 38.60751,
        "longitude": 22.71348
    },
    {
        "name": "Kerasoch\u00f3ri",
        "latitude": 39.00556,
        "longitude": 21.63778
    },
    {
        "name": "K\u00edrra",
        "latitude": 38.42944,
        "longitude": 22.44443
    },
    {
        "name": "K\u00fdmi",
        "latitude": 38.63477,
        "longitude": 24.10287
    },
    {
        "name": "Kyri\u00e1ki",
        "latitude": 38.35365,
        "longitude": 22.78841
    },
    {
        "name": "Lam\u00eda",
        "latitude": 38.9,
        "longitude": 22.43333
    },
    {
        "name": "Lianokl\u00e1dhion",
        "latitude": 38.91655,
        "longitude": 22.30336
    },
    {
        "name": "Lidor\u00edki",
        "latitude": 38.52389,
        "longitude": 22.19972
    },
    {
        "name": "L\u00edmni",
        "latitude": 38.76667,
        "longitude": 23.31667
    },
    {
        "name": "Livadei\u00e1",
        "latitude": 38.43616,
        "longitude": 22.87665
    },
    {
        "name": "Livan\u00e1tes",
        "latitude": 38.711,
        "longitude": 23.0503
    },
    {
        "name": "Louk\u00edsia",
        "latitude": 38.47946,
        "longitude": 23.44796
    },
    {
        "name": "Loutr\u00e1 Aidhipso\u00fa",
        "latitude": 38.85695,
        "longitude": 23.04739
    },
    {
        "name": "Mago\u00fala",
        "latitude": 38.41178,
        "longitude": 23.82128
    },
    {
        "name": "Makrak\u00f3mi",
        "latitude": 38.9415,
        "longitude": 22.11535
    },
    {
        "name": "Malak\u00f3nta",
        "latitude": 38.4,
        "longitude": 23.76667
    },
    {
        "name": "Males\u00edna",
        "latitude": 38.62225,
        "longitude": 23.2337
    },
    {
        "name": "Manto\u00fadi",
        "latitude": 38.79808,
        "longitude": 23.47967
    },
    {
        "name": "Marm\u00e1rion",
        "latitude": 38.04839,
        "longitude": 24.32039
    },
    {
        "name": "Mart\u00ednon",
        "latitude": 38.56817,
        "longitude": 23.21458
    },
    {
        "name": "M\u00f3los",
        "latitude": 38.80998,
        "longitude": 22.64544
    },
    {
        "name": "Mytikas",
        "latitude": 38.44373,
        "longitude": 23.65365
    },
    {
        "name": "N\u00e9a Art\u00e1ki",
        "latitude": 38.52027,
        "longitude": 23.63296
    },
    {
        "name": "N\u00e9a L\u00e1mpsakos",
        "latitude": 38.43729,
        "longitude": 23.62824
    },
    {
        "name": "N\u00e9a St\u00edra",
        "latitude": 38.17935,
        "longitude": 24.20842
    },
    {
        "name": "N\u00e9on Monast\u00edrion",
        "latitude": 39.23988,
        "longitude": 22.27465
    },
    {
        "name": "Nom\u00f3s Evrytan\u00edas",
        "latitude": 39.0,
        "longitude": 21.66667
    },
    {
        "name": "Nom\u00f3s Fok\u00eddos",
        "latitude": 38.5,
        "longitude": 22.25
    },
    {
        "name": "Oin\u00f3fyta",
        "latitude": 38.31163,
        "longitude": 23.64
    },
    {
        "name": "Omvriak\u00ed",
        "latitude": 39.10118,
        "longitude": 22.27106
    },
    {
        "name": "Orchomen\u00f3s",
        "latitude": 38.4929,
        "longitude": 22.97962
    },
    {
        "name": "Oreo\u00ed",
        "latitude": 38.95034,
        "longitude": 23.09191
    },
    {
        "name": "Ox\u00edlithos",
        "latitude": 38.57988,
        "longitude": 24.11184
    },
    {
        "name": "Paral\u00eda Avl\u00eddhos",
        "latitude": 38.38002,
        "longitude": 23.62842
    },
    {
        "name": "Pelasg\u00eda",
        "latitude": 38.94813,
        "longitude": 22.8398
    },
    {
        "name": "Pl\u00e1ka D\u00edlesi",
        "latitude": 38.3495,
        "longitude": 23.65056
    },
    {
        "name": "Politik\u00e1",
        "latitude": 38.59673,
        "longitude": 23.54457
    },
    {
        "name": "Prok\u00f3pi",
        "latitude": 38.73402,
        "longitude": 23.4906
    },
    {
        "name": "Psachn\u00e1",
        "latitude": 38.57852,
        "longitude": 23.64326
    },
    {
        "name": "Rodh\u00edtsa",
        "latitude": 38.88829,
        "longitude": 22.4641
    },
    {
        "name": "Rovi\u00e9s",
        "latitude": 38.80971,
        "longitude": 23.23073
    },
    {
        "name": "Schimat\u00e1ri",
        "latitude": 38.35,
        "longitude": 23.58333
    },
    {
        "name": "Sk\u00fdros",
        "latitude": 38.90417,
        "longitude": 24.56306
    },
    {
        "name": "Sperchei\u00e1da",
        "latitude": 38.90656,
        "longitude": 22.12792
    },
    {
        "name": "Stavr\u00f3s",
        "latitude": 38.89641,
        "longitude": 22.37082
    },
    {
        "name": "Ste\u00edri",
        "latitude": 38.40831,
        "longitude": 22.71162
    },
    {
        "name": "Styl\u00edda",
        "latitude": 38.91667,
        "longitude": 22.61667
    },
    {
        "name": "Thespi\u00e9s",
        "latitude": 38.303,
        "longitude": 23.15016
    },
    {
        "name": "Th\u00edvai",
        "latitude": 38.325,
        "longitude": 23.31889
    },
    {
        "name": "V\u00e1gia",
        "latitude": 38.31748,
        "longitude": 23.17752
    },
    {
        "name": "Vasilik\u00f3n",
        "latitude": 38.42586,
        "longitude": 23.67189
    },
    {
        "name": "Vath\u00ed",
        "latitude": 38.4049,
        "longitude": 23.60332
    },
    {
        "name": "Yimn\u00f3n",
        "latitude": 38.44048,
        "longitude": 23.884
    },
    {
        "name": "\u00c1dendro",
        "latitude": 40.67131,
        "longitude": 22.60466
    },
    {
        "name": "\u00c1fytos",
        "latitude": 40.09915,
        "longitude": 23.4367
    },
    {
        "name": "Ag\u00eda Paraskev\u00ed",
        "latitude": 40.4815,
        "longitude": 23.04863
    },
    {
        "name": "Ag\u00eda Tri\u00e1da",
        "latitude": 40.50003,
        "longitude": 22.87351
    },
    {
        "name": "\u00c1gio Pn\u00e9vma",
        "latitude": 41.10142,
        "longitude": 23.67992
    },
    {
        "name": "\u00c1gios Athan\u00e1sios",
        "latitude": 40.71598,
        "longitude": 22.72841
    },
    {
        "name": "\u00c1gios Ge\u00f3rgios",
        "latitude": 40.60215,
        "longitude": 22.1943
    },
    {
        "name": "\u00c1gios Louk\u00e1s",
        "latitude": 40.71799,
        "longitude": 22.29545
    },
    {
        "name": "\u00c1gios Nik\u00f3laos",
        "latitude": 40.24926,
        "longitude": 23.69616
    },
    {
        "name": "\u00c1gios P\u00e1vlos",
        "latitude": 40.64075,
        "longitude": 22.96039
    },
    {
        "name": "\u00c1gios P\u00e9tros",
        "latitude": 40.86725,
        "longitude": 22.58298
    },
    {
        "name": "\u00c1gios Spyr\u00eddon",
        "latitude": 40.20778,
        "longitude": 22.44311
    },
    {
        "name": "\u00c1gios Vas\u00edleios",
        "latitude": 40.66424,
        "longitude": 23.11373
    },
    {
        "name": "Agkathi\u00e1",
        "latitude": 40.55535,
        "longitude": 22.47083
    },
    {
        "name": "Aig\u00ednio",
        "latitude": 40.50139,
        "longitude": 22.54
    },
    {
        "name": "Akrol\u00edmni",
        "latitude": 40.6802,
        "longitude": 22.2645
    },
    {
        "name": "Alex\u00e1ndreia",
        "latitude": 40.62667,
        "longitude": 22.44417
    },
    {
        "name": "Alistr\u00e1ti",
        "latitude": 41.06443,
        "longitude": 23.95751
    },
    {
        "name": "Ampele\u00edes",
        "latitude": 40.83417,
        "longitude": 22.38767
    },
    {
        "name": "Ampel\u00f3kipoi",
        "latitude": 40.65304,
        "longitude": 22.92624
    },
    {
        "name": "Anatolik\u00f3",
        "latitude": 40.66152,
        "longitude": 22.7119
    },
    {
        "name": "Angeloch\u00f3ri",
        "latitude": 40.67862,
        "longitude": 22.19933
    },
    {
        "name": "\u00c1psalos",
        "latitude": 40.8924,
        "longitude": 22.05709
    },
    {
        "name": "Araviss\u00f3s",
        "latitude": 40.84352,
        "longitude": 22.30178
    },
    {
        "name": "Arida\u00eda",
        "latitude": 40.97306,
        "longitude": 22.05639
    },
    {
        "name": "Arna\u00eda",
        "latitude": 40.48652,
        "longitude": 23.59537
    },
    {
        "name": "\u00c1rnissa",
        "latitude": 40.79555,
        "longitude": 21.83577
    },
    {
        "name": "Ars\u00e9nio",
        "latitude": 40.71412,
        "longitude": 22.15923
    },
    {
        "name": "Ask\u00f3s",
        "latitude": 40.75105,
        "longitude": 23.38721
    },
    {
        "name": "Asprov\u00e1lta",
        "latitude": 40.73049,
        "longitude": 23.7118
    },
    {
        "name": "\u00c1ssiros",
        "latitude": 40.82143,
        "longitude": 23.03008
    },
    {
        "name": "Asvestoch\u00f3ri",
        "latitude": 40.64125,
        "longitude": 23.02528
    },
    {
        "name": "\u00c1thyra",
        "latitude": 40.82615,
        "longitude": 22.59279
    },
    {
        "name": "Axio\u00fapoli",
        "latitude": 40.98582,
        "longitude": 22.54165
    },
    {
        "name": "Ax\u00f3s",
        "latitude": 40.80223,
        "longitude": 22.36158
    },
    {
        "name": "Chal\u00e1stra",
        "latitude": 40.62643,
        "longitude": 22.73291
    },
    {
        "name": "Chalkid\u00f3na",
        "latitude": 40.73184,
        "longitude": 22.59992
    },
    {
        "name": "Charop\u00f3",
        "latitude": 41.26031,
        "longitude": 23.37279
    },
    {
        "name": "Chorti\u00e1tis",
        "latitude": 40.60954,
        "longitude": 23.10014
    },
    {
        "name": "Chrys\u00f3",
        "latitude": 41.05806,
        "longitude": 23.65108
    },
    {
        "name": "Chrysoch\u00f3rafa",
        "latitude": 41.18097,
        "longitude": 23.23551
    },
    {
        "name": "Diavat\u00e1",
        "latitude": 40.68744,
        "longitude": 22.85799
    },
    {
        "name": "Diavat\u00f3s",
        "latitude": 40.54606,
        "longitude": 22.26686
    },
    {
        "name": "D\u00edon",
        "latitude": 40.17169,
        "longitude": 22.48463
    },
    {
        "name": "Drav\u00edskos",
        "latitude": 40.92393,
        "longitude": 23.87119
    },
    {
        "name": "Drym\u00f3s",
        "latitude": 40.78099,
        "longitude": 22.95889
    },
    {
        "name": "\u00c9dessa",
        "latitude": 40.8026,
        "longitude": 22.04751
    },
    {
        "name": "Efkarp\u00eda",
        "latitude": 40.68797,
        "longitude": 22.95348
    },
    {
        "name": "Eirino\u00fapoli",
        "latitude": 40.67806,
        "longitude": 22.19278
    },
    {
        "name": "Epanom\u00ed",
        "latitude": 40.42614,
        "longitude": 22.92782
    },
    {
        "name": "Episkop\u00ed",
        "latitude": 40.68748,
        "longitude": 22.1364
    },
    {
        "name": "\u00c9vosmos",
        "latitude": 40.67056,
        "longitude": 22.90833
    },
    {
        "name": "Evrop\u00f3s",
        "latitude": 40.89703,
        "longitude": 22.55277
    },
    {
        "name": "Exapl\u00e1tanos",
        "latitude": 40.97643,
        "longitude": 22.12958
    },
    {
        "name": "F\u00edliro",
        "latitude": 40.69151,
        "longitude": 23.0046
    },
    {
        "name": "Galat\u00e1des",
        "latitude": 40.7559,
        "longitude": 22.28062
    },
    {
        "name": "Gal\u00e1tista",
        "latitude": 40.4682,
        "longitude": 23.28015
    },
    {
        "name": "G\u00e1zoros",
        "latitude": 41.02557,
        "longitude": 23.77574
    },
    {
        "name": "G\u00e9fyra",
        "latitude": 40.73253,
        "longitude": 22.69359
    },
    {
        "name": "Gerakaro\u00fa",
        "latitude": 40.62666,
        "longitude": 23.21566
    },
    {
        "name": "Giannits\u00e1",
        "latitude": 40.79194,
        "longitude": 22.4075
    },
    {
        "name": "Goum\u00e9nissa",
        "latitude": 40.94604,
        "longitude": 22.44974
    },
    {
        "name": "Ieriss\u00f3s",
        "latitude": 40.39748,
        "longitude": 23.87505
    },
    {
        "name": "Ir\u00e1kleia",
        "latitude": 41.18217,
        "longitude": 23.28243
    },
    {
        "name": "Kal\u00e1 D\u00e9ndra",
        "latitude": 41.09941,
        "longitude": 23.42396
    },
    {
        "name": "Kalamari\u00e1",
        "latitude": 40.5825,
        "longitude": 22.95028
    },
    {
        "name": "Kal\u00ed",
        "latitude": 40.81931,
        "longitude": 22.17761
    },
    {
        "name": "Kallith\u00e9a",
        "latitude": 40.07374,
        "longitude": 23.44637
    },
    {
        "name": "Kaloch\u00f3ri",
        "latitude": 40.64189,
        "longitude": 22.85734
    },
    {
        "name": "Kal\u00fdves Polyg\u00fdrou",
        "latitude": 40.28659,
        "longitude": 23.39033
    },
    {
        "name": "Kal\u00fdvia",
        "latitude": 40.75508,
        "longitude": 22.21753
    },
    {
        "name": "Kamp\u00e1nis",
        "latitude": 40.88951,
        "longitude": 22.91682
    },
    {
        "name": "Kardi\u00e1",
        "latitude": 40.46909,
        "longitude": 22.99378
    },
    {
        "name": "Kar\u00edtsa",
        "latitude": 40.18745,
        "longitude": 22.48171
    },
    {
        "name": "Kary\u00f3tissa",
        "latitude": 40.76915,
        "longitude": 22.31331
    },
    {
        "name": "Kass\u00e1ndreia",
        "latitude": 40.04835,
        "longitude": 23.41362
    },
    {
        "name": "Kater\u00edni",
        "latitude": 40.26956,
        "longitude": 22.50608
    },
    {
        "name": "K\u00e1to Kam\u00edla",
        "latitude": 41.02119,
        "longitude": 23.48336
    },
    {
        "name": "K\u00e1to Lipoch\u00f3ri",
        "latitude": 40.75754,
        "longitude": 22.17962
    },
    {
        "name": "K\u00e1to Mili\u00e1",
        "latitude": 40.25403,
        "longitude": 22.34342
    },
    {
        "name": "K\u00e1to Schol\u00e1ri",
        "latitude": 40.42906,
        "longitude": 23.02978
    },
    {
        "name": "Kavall\u00e1ri",
        "latitude": 40.71539,
        "longitude": 23.04588
    },
    {
        "name": "Kilk\u00eds",
        "latitude": 40.99302,
        "longitude": 22.87433
    },
    {
        "name": "K\u00edtros",
        "latitude": 40.37399,
        "longitude": 22.57862
    },
    {
        "name": "Kleid\u00ed",
        "latitude": 40.56632,
        "longitude": 22.59033
    },
    {
        "name": "Ko\u00edmisi",
        "latitude": 41.21282,
        "longitude": 23.30035
    },
    {
        "name": "Kolchik\u00f3n",
        "latitude": 40.75662,
        "longitude": 23.13377
    },
    {
        "name": "Kolindr\u00f3s",
        "latitude": 40.47888,
        "longitude": 22.48319
    },
    {
        "name": "Kontari\u00f3tissa",
        "latitude": 40.22754,
        "longitude": 22.461
    },
    {
        "name": "Kopan\u00f3s",
        "latitude": 40.63382,
        "longitude": 22.12893
    },
    {
        "name": "Korin\u00f3s",
        "latitude": 40.31659,
        "longitude": 22.58817
    },
    {
        "name": "Koryf\u00ed",
        "latitude": 40.60286,
        "longitude": 22.50681
    },
    {
        "name": "Kouf\u00e1lia",
        "latitude": 40.77778,
        "longitude": 22.57194
    },
    {
        "name": "Koulo\u00fara",
        "latitude": 40.54652,
        "longitude": 22.31795
    },
    {
        "name": "Krithi\u00e1",
        "latitude": 40.84184,
        "longitude": 22.98292
    },
    {
        "name": "Kr\u00fda Vr\u00fdsi",
        "latitude": 40.68738,
        "longitude": 22.30516
    },
    {
        "name": "K\u00fdmina",
        "latitude": 40.61354,
        "longitude": 22.69278
    },
    {
        "name": "Lagkad\u00e1s",
        "latitude": 40.75,
        "longitude": 23.06667
    },
    {
        "name": "Lagyn\u00e1",
        "latitude": 40.72351,
        "longitude": 23.0042
    },
    {
        "name": "L\u00e1kkoma",
        "latitude": 40.39139,
        "longitude": 23.05578
    },
    {
        "name": "Lefk\u00f3nas",
        "latitude": 41.10029,
        "longitude": 23.49658
    },
    {
        "name": "Leptokary\u00e1",
        "latitude": 40.06032,
        "longitude": 22.5612
    },
    {
        "name": "Lianov\u00e9rgi",
        "latitude": 40.63526,
        "longitude": 22.5082
    },
    {
        "name": "Lit\u00ed",
        "latitude": 40.74533,
        "longitude": 22.97982
    },
    {
        "name": "Lit\u00f3choro",
        "latitude": 40.10056,
        "longitude": 22.49778
    },
    {
        "name": "L\u00f3fos",
        "latitude": 40.24395,
        "longitude": 22.38033
    },
    {
        "name": "Loutr\u00e1ki",
        "latitude": 40.97116,
        "longitude": 21.94659
    },
    {
        "name": "Loutr\u00f3s",
        "latitude": 40.58873,
        "longitude": 22.39976
    },
    {
        "name": "Makroch\u00f3ri",
        "latitude": 40.55125,
        "longitude": 22.24955
    },
    {
        "name": "Makr\u00fdgialos",
        "latitude": 40.41551,
        "longitude": 22.60392
    },
    {
        "name": "M\u00e1ndalo",
        "latitude": 40.85677,
        "longitude": 22.21264
    },
    {
        "name": "Mar\u00edna",
        "latitude": 40.692,
        "longitude": 22.10099
    },
    {
        "name": "Mavroth\u00e1lassa",
        "latitude": 40.89427,
        "longitude": 23.75048
    },
    {
        "name": "Mavrovo\u00fani",
        "latitude": 40.78243,
        "longitude": 22.15629
    },
    {
        "name": "Meg\u00e1li Panag\u00eda",
        "latitude": 40.44505,
        "longitude": 23.67999
    },
    {
        "name": "Mel\u00edki",
        "latitude": 40.51685,
        "longitude": 22.39599
    },
    {
        "name": "Mel\u00edssi",
        "latitude": 40.77406,
        "longitude": 22.35304
    },
    {
        "name": "Melissoch\u00f3ri",
        "latitude": 40.76796,
        "longitude": 22.92858
    },
    {
        "name": "Menem\u00e9ni",
        "latitude": 40.65829,
        "longitude": 22.89712
    },
    {
        "name": "Mesim\u00e9ri",
        "latitude": 40.41344,
        "longitude": 23.0075
    },
    {
        "name": "Mikr\u00f3 Monast\u00edri",
        "latitude": 40.7043,
        "longitude": 22.54112
    },
    {
        "name": "Mitro\u00fasi",
        "latitude": 41.07041,
        "longitude": 23.46064
    },
    {
        "name": "N\u00e1ousa",
        "latitude": 40.62944,
        "longitude": 22.06806
    },
    {
        "name": "N\u00e9a Apollon\u00eda",
        "latitude": 40.62558,
        "longitude": 23.44074
    },
    {
        "name": "N\u00e9a \u00c9fesos",
        "latitude": 40.22923,
        "longitude": 22.49811
    },
    {
        "name": "N\u00e9a Flogit\u00e1",
        "latitude": 40.26108,
        "longitude": 23.22107
    },
    {
        "name": "N\u00e9a F\u00f3kaia",
        "latitude": 40.13333,
        "longitude": 23.39754
    },
    {
        "name": "N\u00e9a Kallikr\u00e1teia",
        "latitude": 40.31312,
        "longitude": 23.06343
    },
    {
        "name": "N\u00e9a Magnis\u00eda",
        "latitude": 40.68785,
        "longitude": 22.84582
    },
    {
        "name": "N\u00e9a M\u00e1lgara",
        "latitude": 40.60985,
        "longitude": 22.68196
    },
    {
        "name": "N\u00e9a Mesimvr\u00eda",
        "latitude": 40.75158,
        "longitude": 22.76904
    },
    {
        "name": "N\u00e9a Michani\u00f3na",
        "latitude": 40.46371,
        "longitude": 22.8617
    },
    {
        "name": "N\u00e9a Moudhani\u00e1",
        "latitude": 40.2439,
        "longitude": 23.28484
    },
    {
        "name": "N\u00e9a P\u00e9lla",
        "latitude": 40.76516,
        "longitude": 22.49173
    },
    {
        "name": "N\u00e9a Pl\u00e1gia",
        "latitude": 40.26537,
        "longitude": 23.20376
    },
    {
        "name": "N\u00e9a Pote\u00eddaia",
        "latitude": 40.19409,
        "longitude": 23.32832
    },
    {
        "name": "N\u00e9a Pot\u00eddhaia",
        "latitude": 40.19428,
        "longitude": 23.32874
    },
    {
        "name": "N\u00e9a R\u00f3da",
        "latitude": 40.38119,
        "longitude": 23.92374
    },
    {
        "name": "N\u00e9a S\u00e1nta",
        "latitude": 40.84084,
        "longitude": 22.92163
    },
    {
        "name": "N\u00e9a Tr\u00edglia",
        "latitude": 40.30575,
        "longitude": 23.2066
    },
    {
        "name": "N\u00e9a Vrasn\u00e1",
        "latitude": 40.70592,
        "longitude": 23.6985
    },
    {
        "name": "N\u00e9a Z\u00edchni",
        "latitude": 41.03204,
        "longitude": 23.8287
    },
    {
        "name": "Neapoli",
        "latitude": 40.6532,
        "longitude": 22.94156
    },
    {
        "name": "N\u00e9o Agion\u00e9ri",
        "latitude": 40.80826,
        "longitude": 22.70733
    },
    {
        "name": "N\u00e9o Petr\u00edtsi",
        "latitude": 41.27459,
        "longitude": 23.29381
    },
    {
        "name": "N\u00e9o R\u00fdsi",
        "latitude": 40.49605,
        "longitude": 22.98794
    },
    {
        "name": "N\u00e9o So\u00fali",
        "latitude": 41.09397,
        "longitude": 23.64376
    },
    {
        "name": "Neoch\u00f3ri",
        "latitude": 41.05231,
        "longitude": 23.57997
    },
    {
        "name": "Neochoro\u00fada",
        "latitude": 40.73817,
        "longitude": 22.87557
    },
    {
        "name": "N\u00e9oi Epiv\u00e1tes",
        "latitude": 40.49863,
        "longitude": 22.91192
    },
    {
        "name": "N\u00e9os Marmar\u00e1s",
        "latitude": 40.0961,
        "longitude": 23.78323
    },
    {
        "name": "N\u00e9os Myl\u00f3topos",
        "latitude": 40.81872,
        "longitude": 22.35489
    },
    {
        "name": "N\u00e9os Skop\u00f3s",
        "latitude": 41.0239,
        "longitude": 23.60927
    },
    {
        "name": "Nigr\u00edta",
        "latitude": 40.90528,
        "longitude": 23.49944
    },
    {
        "name": "N\u00edkiti",
        "latitude": 40.22204,
        "longitude": 23.66837
    },
    {
        "name": "Nis\u00ed",
        "latitude": 40.6361,
        "longitude": 22.38884
    },
    {
        "name": "Nom\u00f3s Chalkidik\u00eds",
        "latitude": 40.41667,
        "longitude": 23.5
    },
    {
        "name": "Nom\u00f3s P\u00e9llis",
        "latitude": 40.83333,
        "longitude": 22.25
    },
    {
        "name": "Nom\u00f3s Thessalon\u00edkis",
        "latitude": 40.66667,
        "longitude": 23.0
    },
    {
        "name": "\u00d3lynthos",
        "latitude": 40.29147,
        "longitude": 23.34205
    },
    {
        "name": "Orai\u00f3kastro",
        "latitude": 40.73083,
        "longitude": 22.91722
    },
    {
        "name": "Orm\u00fdlia",
        "latitude": 40.29451,
        "longitude": 23.54332
    },
    {
        "name": "Ouranoupolis",
        "latitude": 40.33333,
        "longitude": 23.98333
    },
    {
        "name": "Pala\u00edfyto",
        "latitude": 40.78283,
        "longitude": 22.27388
    },
    {
        "name": "Palaioch\u00f3ri",
        "latitude": 40.49186,
        "longitude": 23.64928
    },
    {
        "name": "Palaiok\u00f3mi",
        "latitude": 40.87068,
        "longitude": 23.90121
    },
    {
        "name": "Pan\u00f3rama",
        "latitude": 40.58779,
        "longitude": 23.0315
    },
    {
        "name": "Paral\u00eda",
        "latitude": 40.2671,
        "longitude": 22.59615
    },
    {
        "name": "Patr\u00edda",
        "latitude": 40.56071,
        "longitude": 22.18545
    },
    {
        "name": "P\u00e9fka",
        "latitude": 40.65806,
        "longitude": 22.99378
    },
    {
        "name": "Pefkoch\u00f3ri",
        "latitude": 39.98784,
        "longitude": 23.61219
    },
    {
        "name": "P\u00e9lla",
        "latitude": 40.76169,
        "longitude": 22.52637
    },
    {
        "name": "Pent\u00e1lofos",
        "latitude": 40.74296,
        "longitude": 22.85256
    },
    {
        "name": "Pentapl\u00e1tano",
        "latitude": 40.81902,
        "longitude": 22.41903
    },
    {
        "name": "Pera\u00eda",
        "latitude": 40.49874,
        "longitude": 22.92617
    },
    {
        "name": "Per\u00edstasi",
        "latitude": 40.27443,
        "longitude": 22.54164
    },
    {
        "name": "Perister\u00e1",
        "latitude": 40.54881,
        "longitude": 23.1654
    },
    {
        "name": "Plagi\u00e1ri",
        "latitude": 40.47276,
        "longitude": 22.9579
    },
    {
        "name": "Plat\u00fd",
        "latitude": 40.64241,
        "longitude": 22.53458
    },
    {
        "name": "Pol\u00edchni",
        "latitude": 40.66671,
        "longitude": 22.94881
    },
    {
        "name": "Pol\u00fdgyros",
        "latitude": 40.37704,
        "longitude": 23.44135
    },
    {
        "name": "Polyk\u00e1rpi",
        "latitude": 40.92598,
        "longitude": 22.01634
    },
    {
        "name": "Pol\u00fdkastro",
        "latitude": 40.99444,
        "longitude": 22.56909
    },
    {
        "name": "Pontism\u00e9no",
        "latitude": 41.20885,
        "longitude": 23.28325
    },
    {
        "name": "Portari\u00e1",
        "latitude": 40.28405,
        "longitude": 23.29549
    },
    {
        "name": "Pr\u00f3choma",
        "latitude": 40.79826,
        "longitude": 22.66659
    },
    {
        "name": "Prof\u00edtis Il\u00edas",
        "latitude": 40.81373,
        "longitude": 22.16166
    },
    {
        "name": "Pr\u00f3machoi",
        "latitude": 41.02517,
        "longitude": 22.00437
    },
    {
        "name": "Pr\u00f3ti",
        "latitude": 40.94411,
        "longitude": 24.00118
    },
    {
        "name": "Provat\u00e1s",
        "latitude": 41.06825,
        "longitude": 23.3903
    },
    {
        "name": "Pyla\u00eda",
        "latitude": 40.59918,
        "longitude": 22.98613
    },
    {
        "name": "Rit\u00edni",
        "latitude": 40.28835,
        "longitude": 22.28361
    },
    {
        "name": "Riz\u00e1ri",
        "latitude": 40.78373,
        "longitude": 22.088
    },
    {
        "name": "Riz\u00f3",
        "latitude": 40.73331,
        "longitude": 22.13674
    },
    {
        "name": "Riz\u00f3mata",
        "latitude": 40.35061,
        "longitude": 22.21079
    },
    {
        "name": "Rodol\u00edvos",
        "latitude": 40.92055,
        "longitude": 23.97489
    },
    {
        "name": "S\u00e1rti",
        "latitude": 40.09369,
        "longitude": 23.97859
    },
    {
        "name": "S\u00e9rres",
        "latitude": 41.08499,
        "longitude": 23.54757
    },
    {
        "name": "Sevastian\u00e1",
        "latitude": 40.76874,
        "longitude": 22.12346
    },
    {
        "name": "Sfend\u00e1mi",
        "latitude": 40.41307,
        "longitude": 22.54677
    },
    {
        "name": "Sidir\u00f3kastro",
        "latitude": 41.23499,
        "longitude": 23.38899
    },
    {
        "name": "S\u00edmantra",
        "latitude": 40.34563,
        "longitude": 23.31026
    },
    {
        "name": "S\u00edndos",
        "latitude": 40.67045,
        "longitude": 22.80545
    },
    {
        "name": "Skoto\u00fassa",
        "latitude": 41.12844,
        "longitude": 23.38174
    },
    {
        "name": "Sko\u00fatari",
        "latitude": 41.01871,
        "longitude": 23.51971
    },
    {
        "name": "Sk\u00fddra",
        "latitude": 40.76722,
        "longitude": 22.15194
    },
    {
        "name": "Soch\u00f3s",
        "latitude": 40.81788,
        "longitude": 23.35546
    },
    {
        "name": "Sos\u00e1ndra",
        "latitude": 40.99894,
        "longitude": 22.03254
    },
    {
        "name": "Sourot\u00ed",
        "latitude": 40.47274,
        "longitude": 23.09197
    },
    {
        "name": "Stathm\u00f3s Mouri\u00f3n",
        "latitude": 41.26378,
        "longitude": 22.83855
    },
    {
        "name": "Stavr\u00f3s",
        "latitude": 40.66498,
        "longitude": 23.70015
    },
    {
        "name": "Stavro\u00fapoli",
        "latitude": 40.66944,
        "longitude": 22.93806
    },
    {
        "name": "Strat\u00f3nion",
        "latitude": 40.51406,
        "longitude": 23.82471
    },
    {
        "name": "Strymonik\u00f3",
        "latitude": 41.04144,
        "longitude": 23.31487
    },
    {
        "name": "Svor\u00f3nos",
        "latitude": 40.26805,
        "longitude": 22.46366
    },
    {
        "name": "Syki\u00e1",
        "latitude": 40.03874,
        "longitude": 23.94046
    },
    {
        "name": "Syki\u00e9s",
        "latitude": 40.64944,
        "longitude": 22.95083
    },
    {
        "name": "Terpn\u00ed",
        "latitude": 40.91643,
        "longitude": 23.48137
    },
    {
        "name": "Th\u00e9rmi",
        "latitude": 40.54712,
        "longitude": 23.01967
    },
    {
        "name": "Thessalon\u00edki",
        "latitude": 40.64361,
        "longitude": 22.93086
    },
    {
        "name": "Triandr\u00eda",
        "latitude": 40.615,
        "longitude": 22.9762
    },
    {
        "name": "Tr\u00edkala",
        "latitude": 40.59814,
        "longitude": 22.55733
    },
    {
        "name": "Tr\u00edlofos",
        "latitude": 40.46898,
        "longitude": 22.9718
    },
    {
        "name": "Valter\u00f3",
        "latitude": 41.17927,
        "longitude": 23.32022
    },
    {
        "name": "Vamvak\u00f3fyto",
        "latitude": 41.17916,
        "longitude": 23.39602
    },
    {
        "name": "Vasilik\u00e1",
        "latitude": 40.47966,
        "longitude": 23.13695
    },
    {
        "name": "Vath\u00fdlakkos",
        "latitude": 40.76942,
        "longitude": 22.7088
    },
    {
        "name": "Verg\u00edna",
        "latitude": 40.48654,
        "longitude": 22.31735
    },
    {
        "name": "V\u00e9roia",
        "latitude": 40.52437,
        "longitude": 22.20242
    },
    {
        "name": "Vronto\u00fa",
        "latitude": 40.19356,
        "longitude": 22.43203
    },
    {
        "name": "Xil\u00f3polis",
        "latitude": 40.92713,
        "longitude": 23.17944
    },
    {
        "name": "Farkad\u00f3na",
        "latitude": 39.6,
        "longitude": 22.06667
    },
    {
        "name": "F\u00edki",
        "latitude": 39.51602,
        "longitude": 21.65556
    },
    {
        "name": "G\u00f3mfoi",
        "latitude": 39.46413,
        "longitude": 21.69342
    },
    {
        "name": "Griz\u00e1no",
        "latitude": 39.63192,
        "longitude": 22.05258
    },
    {
        "name": "Kalamp\u00e1ka",
        "latitude": 39.70444,
        "longitude": 21.62694
    },
    {
        "name": "Kastr\u00e1ki",
        "latitude": 39.71692,
        "longitude": 21.61865
    },
    {
        "name": "Meg\u00e1la Kal\u00fdvia",
        "latitude": 39.49693,
        "longitude": 21.78802
    },
    {
        "name": "Megaloch\u00f3ri",
        "latitude": 39.55982,
        "longitude": 21.84195
    },
    {
        "name": "Oichal\u00eda",
        "latitude": 39.60827,
        "longitude": 21.97996
    },
    {
        "name": "Palaiomon\u00e1stiro",
        "latitude": 39.46269,
        "longitude": 21.65793
    },
    {
        "name": "Palai\u00f3pyrgos",
        "latitude": 39.60845,
        "longitude": 21.8172
    },
    {
        "name": "Pig\u00ed",
        "latitude": 39.51061,
        "longitude": 21.70103
    },
    {
        "name": "P\u00fdli",
        "latitude": 39.45806,
        "longitude": 21.61889
    },
    {
        "name": "Pyrget\u00f3s",
        "latitude": 39.55276,
        "longitude": 21.74846
    },
    {
        "name": "R\u00edzoma",
        "latitude": 39.66432,
        "longitude": 21.73541
    },
    {
        "name": "Taxi\u00e1rches",
        "latitude": 39.57565,
        "longitude": 21.89245
    },
    {
        "name": "Tr\u00edkala",
        "latitude": 39.55493,
        "longitude": 21.76837
    },
    {
        "name": "Vasilik\u00ed",
        "latitude": 39.63984,
        "longitude": 21.70448
    },
    {
        "name": "Z\u00e1rkos",
        "latitude": 39.6086,
        "longitude": 22.12336
    },
    {
        "name": "Ag\u00eda Fotein\u00ed",
        "latitude": 35.25459,
        "longitude": 24.63495
    },
    {
        "name": "Ag\u00eda Gal\u00edni",
        "latitude": 35.09707,
        "longitude": 24.68818
    },
    {
        "name": "Ag\u00eda Mar\u00edna",
        "latitude": 35.51778,
        "longitude": 23.92675
    },
    {
        "name": "Ag\u00eda Varv\u00e1ra",
        "latitude": 35.13715,
        "longitude": 25.00131
    },
    {
        "name": "\u00c1gioi D\u00e9ka",
        "latitude": 35.06667,
        "longitude": 24.96667
    },
    {
        "name": "\u00c1gios Nik\u00f3laos",
        "latitude": 35.19106,
        "longitude": 25.71524
    },
    {
        "name": "Ano Arhanes",
        "latitude": 35.23333,
        "longitude": 25.16667
    },
    {
        "name": "An\u00f3geia",
        "latitude": 35.29084,
        "longitude": 24.88412
    },
    {
        "name": "Arkaloch\u00f3ri",
        "latitude": 35.14634,
        "longitude": 25.26538
    },
    {
        "name": "As\u00edmion",
        "latitude": 35.04321,
        "longitude": 25.09277
    },
    {
        "name": "Atsip\u00f3poulo",
        "latitude": 35.35253,
        "longitude": 24.43378
    },
    {
        "name": "Chani\u00e1",
        "latitude": 35.51124,
        "longitude": 24.02921
    },
    {
        "name": "Ch\u00f3ra Sfak\u00edon",
        "latitude": 35.20176,
        "longitude": 24.13711
    },
    {
        "name": "Dar\u00e1tsos",
        "latitude": 35.49955,
        "longitude": 23.97488
    },
    {
        "name": "Elo\u00fanda",
        "latitude": 35.265,
        "longitude": 25.72127
    },
    {
        "name": "Galat\u00e1s",
        "latitude": 35.49864,
        "longitude": 23.96341
    },
    {
        "name": "G\u00e1zi",
        "latitude": 35.32531,
        "longitude": 25.06694
    },
    {
        "name": "Georgioupolis",
        "latitude": 35.36225,
        "longitude": 24.26013
    },
    {
        "name": "Ger\u00e1ni",
        "latitude": 35.51721,
        "longitude": 23.87818
    },
    {
        "name": "G\u00e9rgeri",
        "latitude": 35.13281,
        "longitude": 24.94963
    },
    {
        "name": "Go\u00farnes",
        "latitude": 35.32626,
        "longitude": 25.2774
    },
    {
        "name": "Gra Liyi\u00e1",
        "latitude": 35.01467,
        "longitude": 25.69127
    },
    {
        "name": "Heraklion",
        "latitude": 35.3387,
        "longitude": 25.1442
    },
    {
        "name": "Ier\u00e1petra",
        "latitude": 35.01186,
        "longitude": 25.74234
    },
    {
        "name": "Ir\u00e1kleion",
        "latitude": 35.32787,
        "longitude": 25.14341
    },
    {
        "name": "Kal\u00fdves",
        "latitude": 35.45046,
        "longitude": 24.17507
    },
    {
        "name": "Kast\u00e9lli",
        "latitude": 35.20902,
        "longitude": 25.33773
    },
    {
        "name": "Kastr\u00ed",
        "latitude": 34.8346,
        "longitude": 24.08572
    },
    {
        "name": "K\u00e1to As\u00edtai",
        "latitude": 35.20271,
        "longitude": 24.99827
    },
    {
        "name": "K\u00e1to Go\u00faves",
        "latitude": 35.32934,
        "longitude": 25.31353
    },
    {
        "name": "Kentr\u00ed",
        "latitude": 35.03258,
        "longitude": 25.7528
    },
    {
        "name": "K\u00edssamos",
        "latitude": 35.49459,
        "longitude": 23.65375
    },
    {
        "name": "Kokk\u00edni Ch\u00e1ni",
        "latitude": 35.32827,
        "longitude": 25.2581
    },
    {
        "name": "Kolymp\u00e1ri",
        "latitude": 35.54115,
        "longitude": 23.77995
    },
    {
        "name": "Krits\u00e1",
        "latitude": 35.15821,
        "longitude": 25.64459
    },
    {
        "name": "Krous\u00f3n",
        "latitude": 35.23062,
        "longitude": 24.98291
    },
    {
        "name": "Lim\u00edn Kherson\u00edsou",
        "latitude": 35.32297,
        "longitude": 25.39275
    },
    {
        "name": "M\u00e1lia",
        "latitude": 35.28367,
        "longitude": 25.46262
    },
    {
        "name": "Mo\u00edres",
        "latitude": 35.05143,
        "longitude": 24.8733
    },
    {
        "name": "Mokh\u00f3s",
        "latitude": 35.26342,
        "longitude": 25.42305
    },
    {
        "name": "Mourni\u00e9s",
        "latitude": 35.48228,
        "longitude": 24.01253
    },
    {
        "name": "Mouzour\u00e1s",
        "latitude": 35.53885,
        "longitude": 24.15554
    },
    {
        "name": "N\u00e9a Alikarnass\u00f3s",
        "latitude": 35.33977,
        "longitude": 25.15895
    },
    {
        "name": "N\u00e9a Anatol\u00ed",
        "latitude": 35.0092,
        "longitude": 25.6617
    },
    {
        "name": "Ne\u00e1poli",
        "latitude": 35.25627,
        "longitude": 25.60415
    },
    {
        "name": "Neroko\u00faros",
        "latitude": 35.47587,
        "longitude": 24.03995
    },
    {
        "name": "Nom\u00f3s Irakle\u00edou",
        "latitude": 35.32969,
        "longitude": 25.12985
    },
    {
        "name": "Nom\u00f3s Reth\u00fdmnis",
        "latitude": 35.25,
        "longitude": 24.58333
    },
    {
        "name": "Palai\u00f3chora",
        "latitude": 35.23128,
        "longitude": 23.68185
    },
    {
        "name": "Palekastro",
        "latitude": 35.19793,
        "longitude": 26.25429
    },
    {
        "name": "P\u00e1normos",
        "latitude": 35.41815,
        "longitude": 24.69091
    },
    {
        "name": "P\u00e9rama",
        "latitude": 35.3703,
        "longitude": 24.70345
    },
    {
        "name": "Periv\u00f3lia",
        "latitude": 35.48491,
        "longitude": 23.99421
    },
    {
        "name": "Pith\u00e1ri",
        "latitude": 35.51672,
        "longitude": 24.08653
    },
    {
        "name": "Prof\u00edtis Il\u00edas",
        "latitude": 35.20555,
        "longitude": 25.09985
    },
    {
        "name": "P\u00fdrgos",
        "latitude": 35.00611,
        "longitude": 25.15191
    },
    {
        "name": "Rethymno",
        "latitude": 35.36555,
        "longitude": 24.48232
    },
    {
        "name": "Sch\u00edsma Elo\u00fandas",
        "latitude": 35.25757,
        "longitude": 25.72796
    },
    {
        "name": "S\u00edsion",
        "latitude": 35.3077,
        "longitude": 25.52021
    },
    {
        "name": "Sitia",
        "latitude": 35.20783,
        "longitude": 26.10467
    },
    {
        "name": "Skal\u00e1nion",
        "latitude": 35.28262,
        "longitude": 25.18684
    },
    {
        "name": "So\u00fada",
        "latitude": 35.48717,
        "longitude": 24.07344
    },
    {
        "name": "Stal\u00eds",
        "latitude": 35.29257,
        "longitude": 25.43292
    },
    {
        "name": "Thrapsan\u00f3n",
        "latitude": 35.18798,
        "longitude": 25.28091
    },
    {
        "name": "T\u00edlisos",
        "latitude": 35.29607,
        "longitude": 25.01587
    },
    {
        "name": "Tsikalari\u00e1",
        "latitude": 35.47623,
        "longitude": 24.06274
    },
    {
        "name": "Tymp\u00e1ki",
        "latitude": 35.07286,
        "longitude": 24.76851
    },
    {
        "name": "Viol\u00ed Char\u00e1ki",
        "latitude": 35.35864,
        "longitude": 24.43857
    },
    {
        "name": "Vr\u00fdses",
        "latitude": 35.37585,
        "longitude": 24.20109
    },
    {
        "name": "Zar\u00f3s",
        "latitude": 35.1303,
        "longitude": 24.90412
    },
    {
        "name": "Zonian\u00e1",
        "latitude": 35.29502,
        "longitude": 24.82944
    },
    {
        "name": "\u00c1gios Athan\u00e1sios",
        "latitude": 41.07463,
        "longitude": 24.24545
    },
    {
        "name": "Alexandroupoli",
        "latitude": 40.84995,
        "longitude": 25.87644
    },
    {
        "name": "Amygdale\u00f3nas",
        "latitude": 40.96346,
        "longitude": 24.36007
    },
    {
        "name": "\u00c1ratos",
        "latitude": 41.08139,
        "longitude": 25.55186
    },
    {
        "name": "Ar\u00edsvi",
        "latitude": 41.07,
        "longitude": 25.59041
    },
    {
        "name": "Arrian\u00e1",
        "latitude": 41.08131,
        "longitude": 25.69494
    },
    {
        "name": "\u00c1vato",
        "latitude": 40.96279,
        "longitude": 24.80441
    },
    {
        "name": "Chorist\u00ed",
        "latitude": 41.13056,
        "longitude": 24.20843
    },
    {
        "name": "Chrysoch\u00f3ri",
        "latitude": 40.93328,
        "longitude": 24.71088
    },
    {
        "name": "Chryso\u00fapolis",
        "latitude": 40.98556,
        "longitude": 24.69389
    },
    {
        "name": "Didym\u00f3teicho",
        "latitude": 41.34806,
        "longitude": 26.49611
    },
    {
        "name": "Dr\u00e1ma",
        "latitude": 41.15283,
        "longitude": 24.1473
    },
    {
        "name": "Ech\u00ednos",
        "latitude": 41.27558,
        "longitude": 24.97237
    },
    {
        "name": "Elaioch\u00f3ri",
        "latitude": 40.8203,
        "longitude": 24.24373
    },
    {
        "name": "Elefther\u00e9s",
        "latitude": 40.84666,
        "longitude": 24.25431
    },
    {
        "name": "Elefthero\u00fapolis",
        "latitude": 40.91389,
        "longitude": 24.25139
    },
    {
        "name": "\u00c9vlalo",
        "latitude": 40.98333,
        "longitude": 24.8
    },
    {
        "name": "F\u00e9res",
        "latitude": 40.89305,
        "longitude": 26.17234
    },
    {
        "name": "Fill\u00fdra",
        "latitude": 41.11667,
        "longitude": 25.63333
    },
    {
        "name": "Fotol\u00edvos",
        "latitude": 41.06013,
        "longitude": 24.04724
    },
    {
        "name": "Fteli\u00e1",
        "latitude": 41.08266,
        "longitude": 24.18968
    },
    {
        "name": "Geniss\u00e9a",
        "latitude": 41.06165,
        "longitude": 24.96248
    },
    {
        "name": "\u00cdasmos",
        "latitude": 41.12747,
        "longitude": 25.18573
    },
    {
        "name": "Iliokentima",
        "latitude": 40.94931,
        "longitude": 24.78859
    },
    {
        "name": "Kalamp\u00e1ki",
        "latitude": 41.05,
        "longitude": 24.18333
    },
    {
        "name": "Kal\u00ed Vr\u00fdsi",
        "latitude": 41.14653,
        "longitude": 23.90667
    },
    {
        "name": "Kall\u00edfytos",
        "latitude": 41.1728,
        "longitude": 24.21527
    },
    {
        "name": "Kal\u00f3s Agr\u00f3s",
        "latitude": 41.10543,
        "longitude": 24.0857
    },
    {
        "name": "Kamari\u00f3tissa",
        "latitude": 40.47501,
        "longitude": 25.47456
    },
    {
        "name": "Kastani\u00e9s",
        "latitude": 41.64551,
        "longitude": 26.47676
    },
    {
        "name": "K\u00e1to Nevrok\u00f3pi",
        "latitude": 41.35,
        "longitude": 23.86667
    },
    {
        "name": "Kav\u00e1la",
        "latitude": 40.93959,
        "longitude": 24.40687
    },
    {
        "name": "Kav\u00fdli",
        "latitude": 41.56225,
        "longitude": 26.5147
    },
    {
        "name": "Keramot\u00ed",
        "latitude": 40.85591,
        "longitude": 24.70595
    },
    {
        "name": "Kimm\u00e9ria",
        "latitude": 41.14788,
        "longitude": 24.93869
    },
    {
        "name": "Kokkin\u00f3choma",
        "latitude": 40.9269,
        "longitude": 24.30805
    },
    {
        "name": "Komotin\u00ed",
        "latitude": 41.11917,
        "longitude": 25.40535
    },
    {
        "name": "Krin\u00eddes",
        "latitude": 41.01396,
        "longitude": 24.29647
    },
    {
        "name": "Kypr\u00ednos",
        "latitude": 41.57542,
        "longitude": 26.22905
    },
    {
        "name": "K\u00fdria",
        "latitude": 41.099,
        "longitude": 24.28915
    },
    {
        "name": "Lag\u00f3s",
        "latitude": 41.45102,
        "longitude": 26.46067
    },
    {
        "name": "L\u00e1vara",
        "latitude": 41.26957,
        "longitude": 26.38522
    },
    {
        "name": "Limen\u00e1ria",
        "latitude": 40.62741,
        "longitude": 24.5765
    },
    {
        "name": "L\u00fdkeio",
        "latitude": 41.06413,
        "longitude": 25.6857
    },
    {
        "name": "Mikr\u00f3polis",
        "latitude": 41.19351,
        "longitude": 23.8157
    },
    {
        "name": "M\u00fdki",
        "latitude": 41.24384,
        "longitude": 24.92084
    },
    {
        "name": "N\u00e9a Irakl\u00edtsa",
        "latitude": 40.86442,
        "longitude": 24.3165
    },
    {
        "name": "N\u00e9a Karv\u00e1li",
        "latitude": 40.96148,
        "longitude": 24.51132
    },
    {
        "name": "N\u00e9a Kary\u00e1",
        "latitude": 40.90621,
        "longitude": 24.70726
    },
    {
        "name": "N\u00e9a P\u00e9ramos",
        "latitude": 40.83854,
        "longitude": 24.3013
    },
    {
        "name": "N\u00e9a V\u00fdssa",
        "latitude": 41.58449,
        "longitude": 26.54318
    },
    {
        "name": "Neoch\u00f3ri",
        "latitude": 41.51131,
        "longitude": 26.4574
    },
    {
        "name": "Nik\u00edsiani",
        "latitude": 40.94739,
        "longitude": 24.14311
    },
    {
        "name": "Oresti\u00e1da",
        "latitude": 41.50306,
        "longitude": 26.52972
    },
    {
        "name": "P\u00e1chni",
        "latitude": 41.30506,
        "longitude": 24.89438
    },
    {
        "name": "Palai\u00f3 Tsifl\u00edki",
        "latitude": 40.90495,
        "longitude": 24.35083
    },
    {
        "name": "Palaioch\u00f3ri",
        "latitude": 40.94338,
        "longitude": 24.17747
    },
    {
        "name": "Paral\u00eda Ofryn\u00edou",
        "latitude": 40.76663,
        "longitude": 23.90039
    },
    {
        "name": "Paran\u00e9sti",
        "latitude": 41.26667,
        "longitude": 24.5
    },
    {
        "name": "P\u00e9plos",
        "latitude": 40.95755,
        "longitude": 26.26577
    },
    {
        "name": "Petein\u00f3s",
        "latitude": 41.10056,
        "longitude": 24.89847
    },
    {
        "name": "Petroch\u00f3ri",
        "latitude": 41.08742,
        "longitude": 24.84092
    },
    {
        "name": "Petro\u00fassa",
        "latitude": 41.1947,
        "longitude": 24.01731
    },
    {
        "name": "Potami\u00e1",
        "latitude": 40.71633,
        "longitude": 24.72859
    },
    {
        "name": "Pr\u00ednos",
        "latitude": 40.7409,
        "longitude": 24.57787
    },
    {
        "name": "Prosots\u00e1ni",
        "latitude": 41.18333,
        "longitude": 23.96667
    },
    {
        "name": "R\u00edzia",
        "latitude": 41.6249,
        "longitude": 26.42771
    },
    {
        "name": "Samothr\u00e1ki",
        "latitude": 40.47333,
        "longitude": 25.52222
    },
    {
        "name": "S\u00e1pes",
        "latitude": 41.02861,
        "longitude": 25.69306
    },
    {
        "name": "S\u00e9lero",
        "latitude": 41.13382,
        "longitude": 24.99408
    },
    {
        "name": "Sitagro\u00ed",
        "latitude": 41.11067,
        "longitude": 24.02755
    },
    {
        "name": "Sm\u00ednthi",
        "latitude": 41.23333,
        "longitude": 24.86667
    },
    {
        "name": "Soufl\u00ed",
        "latitude": 41.19194,
        "longitude": 26.29944
    },
    {
        "name": "Th\u00e1sos",
        "latitude": 40.77806,
        "longitude": 24.70944
    },
    {
        "name": "Tycher\u00f3",
        "latitude": 41.02878,
        "longitude": 26.29455
    },
    {
        "name": "V\u00f3lakas",
        "latitude": 41.31661,
        "longitude": 24.00215
    },
    {
        "name": "X\u00e1nthi",
        "latitude": 41.13488,
        "longitude": 24.888
    },
    {
        "name": "Xirop\u00f3tamos",
        "latitude": 41.19206,
        "longitude": 24.10385
    },
    {
        "name": "Xylagan\u00ed",
        "latitude": 40.97437,
        "longitude": 25.42022
    },
    {
        "name": "Zyg\u00f3s",
        "latitude": 41.0132,
        "longitude": 24.38132
    },
    {
        "name": "Ag\u00eda Kyriak\u00ed",
        "latitude": 39.52264,
        "longitude": 20.88358
    },
    {
        "name": "Anatol\u00ed",
        "latitude": 39.63531,
        "longitude": 20.86578
    },
    {
        "name": "An\u00e9za",
        "latitude": 39.08658,
        "longitude": 20.923
    },
    {
        "name": "\u00c1no Kalent\u00edni",
        "latitude": 39.25,
        "longitude": 21.18528
    },
    {
        "name": "\u00c1rta",
        "latitude": 39.16014,
        "longitude": 20.98561
    },
    {
        "name": "Aspr\u00e1ngeloi",
        "latitude": 39.82328,
        "longitude": 20.72862
    },
    {
        "name": "Chalki\u00e1des",
        "latitude": 39.15981,
        "longitude": 20.93292
    },
    {
        "name": "Eksoch\u00ed",
        "latitude": 39.68744,
        "longitude": 20.8224
    },
    {
        "name": "Eleo\u00fasa",
        "latitude": 39.15278,
        "longitude": 20.96214
    },
    {
        "name": "Fili\u00e1tes",
        "latitude": 39.60111,
        "longitude": 20.31194
    },
    {
        "name": "Filippi\u00e1da",
        "latitude": 39.20472,
        "longitude": 20.88222
    },
    {
        "name": "Graikoch\u00f3ri",
        "latitude": 39.49789,
        "longitude": 20.27608
    },
    {
        "name": "Grammen\u00edtsa",
        "latitude": 39.18444,
        "longitude": 20.97933
    },
    {
        "name": "Igoumen\u00edtsa",
        "latitude": 39.50342,
        "longitude": 20.26728
    },
    {
        "name": "Io\u00e1nnina",
        "latitude": 39.66486,
        "longitude": 20.85189
    },
    {
        "name": "Kalami\u00e1",
        "latitude": 39.16528,
        "longitude": 20.93206
    },
    {
        "name": "Kalp\u00e1ki",
        "latitude": 39.88778,
        "longitude": 20.62389
    },
    {
        "name": "Kanal\u00e1ki",
        "latitude": 39.23361,
        "longitude": 20.6
    },
    {
        "name": "Kardam\u00edtsia",
        "latitude": 39.67816,
        "longitude": 20.81956
    },
    {
        "name": "Katsik\u00e1s",
        "latitude": 39.62281,
        "longitude": 20.88758
    },
    {
        "name": "Komp\u00f3ti",
        "latitude": 39.10255,
        "longitude": 21.08389
    },
    {
        "name": "K\u00f3nitsa",
        "latitude": 40.04861,
        "longitude": 20.75667
    },
    {
        "name": "Kostakio\u00ed",
        "latitude": 39.13672,
        "longitude": 20.95761
    },
    {
        "name": "Koutseli\u00f3",
        "latitude": 39.58808,
        "longitude": 20.91197
    },
    {
        "name": "Lo\u00faros",
        "latitude": 39.166,
        "longitude": 20.75608
    },
    {
        "name": "Metsovo",
        "latitude": 39.76944,
        "longitude": 21.18222
    },
    {
        "name": "N\u00e9a Sel\u00e9fkeia",
        "latitude": 39.52461,
        "longitude": 20.25519
    },
    {
        "name": "Neoch\u00f3ri",
        "latitude": 39.07025,
        "longitude": 21.01892
    },
    {
        "name": "Neochor\u00f3poulo",
        "latitude": 39.62553,
        "longitude": 20.83558
    },
    {
        "name": "N\u00e9os Orop\u00f3s",
        "latitude": 39.15064,
        "longitude": 20.73636
    },
    {
        "name": "Nom\u00f3s Ioann\u00ednon",
        "latitude": 39.75,
        "longitude": 20.66667
    },
    {
        "name": "Pappad\u00e1tes",
        "latitude": 39.31444,
        "longitude": 20.79314
    },
    {
        "name": "Paramythi\u00e1",
        "latitude": 39.47111,
        "longitude": 20.51111
    },
    {
        "name": "Parap\u00f3tamos",
        "latitude": 39.54858,
        "longitude": 20.32436
    },
    {
        "name": "P\u00e1rga",
        "latitude": 39.28572,
        "longitude": 20.40044
    },
    {
        "name": "Pedin\u00ed",
        "latitude": 39.59994,
        "longitude": 20.84261
    },
    {
        "name": "P\u00e9rama",
        "latitude": 39.69331,
        "longitude": 20.84656
    },
    {
        "name": "P\u00e9rdika",
        "latitude": 39.36967,
        "longitude": 20.30419
    },
    {
        "name": "P\u00e9ta",
        "latitude": 39.16667,
        "longitude": 21.03472
    },
    {
        "name": "Platari\u00e1",
        "latitude": 39.45044,
        "longitude": 20.27781
    },
    {
        "name": "Pr\u00e1manta",
        "latitude": 39.52306,
        "longitude": 21.10139
    },
    {
        "name": "Pr\u00e9veza",
        "latitude": 38.95617,
        "longitude": 20.7505
    },
    {
        "name": "Rodot\u00f3pi",
        "latitude": 39.70822,
        "longitude": 20.72656
    },
    {
        "name": "Stavr\u00e1ki",
        "latitude": 39.65614,
        "longitude": 20.81806
    },
    {
        "name": "Thesprotik\u00f3",
        "latitude": 39.25114,
        "longitude": 20.78528
    },
    {
        "name": "Tsiflik\u00f3poulo",
        "latitude": 39.65624,
        "longitude": 20.83882
    },
    {
        "name": "Voulgar\u00e9li",
        "latitude": 39.37194,
        "longitude": 21.18333
    },
    {
        "name": "Vounoplagi\u00e1",
        "latitude": 39.69161,
        "longitude": 20.78597
    },
    {
        "name": "Achar\u00e1vi",
        "latitude": 39.7936,
        "longitude": 19.81736
    },
    {
        "name": "Agios Georgis",
        "latitude": 39.72363,
        "longitude": 19.69969
    },
    {
        "name": "\u00c1gios Mattha\u00edos",
        "latitude": 39.49506,
        "longitude": 19.87336
    },
    {
        "name": "Alepo\u00fa",
        "latitude": 39.61594,
        "longitude": 19.89564
    },
    {
        "name": "Ambel\u00f3kipoi",
        "latitude": 37.75809,
        "longitude": 20.87248
    },
    {
        "name": "Argost\u00f3lion",
        "latitude": 38.18109,
        "longitude": 20.48903
    },
    {
        "name": "Corfu",
        "latitude": 39.62069,
        "longitude": 19.91975
    },
    {
        "name": "G\u00e1\u00efos",
        "latitude": 39.19722,
        "longitude": 20.18556
    },
    {
        "name": "Ga\u00eft\u00e1nion",
        "latitude": 37.79134,
        "longitude": 20.87407
    },
    {
        "name": "Ith\u00e1ki",
        "latitude": 38.36421,
        "longitude": 20.71848
    },
    {
        "name": "Kan\u00e1li",
        "latitude": 39.60556,
        "longitude": 19.8925
    },
    {
        "name": "Katast\u00e1rion",
        "latitude": 37.83012,
        "longitude": 20.75755
    },
    {
        "name": "Kontok\u00e1li",
        "latitude": 39.64436,
        "longitude": 19.85194
    },
    {
        "name": "Kynopi\u00e1stes",
        "latitude": 39.56785,
        "longitude": 19.88362
    },
    {
        "name": "Lefkada",
        "latitude": 38.75,
        "longitude": 20.66667
    },
    {
        "name": "Lefk\u00edmmi",
        "latitude": 39.42336,
        "longitude": 20.07094
    },
    {
        "name": "Lithaki\u00e1",
        "latitude": 37.71935,
        "longitude": 20.83013
    },
    {
        "name": "Lixo\u00fari",
        "latitude": 38.20133,
        "longitude": 20.43706
    },
    {
        "name": "Mouzaki",
        "latitude": 37.73565,
        "longitude": 20.82291
    },
    {
        "name": "Nom\u00f3s Kerk\u00fdras",
        "latitude": 39.66667,
        "longitude": 19.75
    },
    {
        "name": "Nom\u00f3s Zak\u00fdnthou",
        "latitude": 37.75,
        "longitude": 20.75
    },
    {
        "name": "Perama",
        "latitude": 39.58289,
        "longitude": 19.9122
    },
    {
        "name": "Periv\u00f3li",
        "latitude": 39.41936,
        "longitude": 20.01469
    },
    {
        "name": "P\u00f3ros",
        "latitude": 38.15369,
        "longitude": 20.7712
    },
    {
        "name": "Potam\u00f3s",
        "latitude": 39.6242,
        "longitude": 19.87826
    },
    {
        "name": "S\u00e1mi",
        "latitude": 38.25081,
        "longitude": 20.64686
    },
    {
        "name": "Valsam\u00e1ta",
        "latitude": 38.176,
        "longitude": 20.58392
    },
    {
        "name": "Van\u00e1ton",
        "latitude": 37.79446,
        "longitude": 20.85188
    },
    {
        "name": "Vir\u00f3s",
        "latitude": 39.5834,
        "longitude": 19.8827
    },
    {
        "name": "Zakynthos",
        "latitude": 37.78022,
        "longitude": 20.89555
    },
    {
        "name": "Ag\u00eda Tri\u00e1da",
        "latitude": 39.46361,
        "longitude": 21.89848
    },
    {
        "name": "Agnanter\u00f3",
        "latitude": 39.48586,
        "longitude": 21.84789
    },
    {
        "name": "An\u00e1vra",
        "latitude": 39.18996,
        "longitude": 22.09308
    },
    {
        "name": "Anthir\u00f3",
        "latitude": 39.34722,
        "longitude": 21.45833
    },
    {
        "name": "Artesian\u00f3",
        "latitude": 39.40194,
        "longitude": 21.89649
    },
    {
        "name": "It\u00e9a",
        "latitude": 39.45669,
        "longitude": 22.16577
    },
    {
        "name": "Kallif\u00f3ni",
        "latitude": 39.27712,
        "longitude": 21.96128
    },
    {
        "name": "Kall\u00edthiro",
        "latitude": 39.28099,
        "longitude": 21.90491
    },
    {
        "name": "Kard\u00edtsa",
        "latitude": 39.36485,
        "longitude": 21.92191
    },
    {
        "name": "Karditsomago\u00fala",
        "latitude": 39.39061,
        "longitude": 21.9233
    },
    {
        "name": "Karpoch\u00f3ri",
        "latitude": 39.33575,
        "longitude": 22.01129
    },
    {
        "name": "Mago\u00fala",
        "latitude": 39.45395,
        "longitude": 21.80351
    },
    {
        "name": "Makrych\u00f3ri",
        "latitude": 39.43978,
        "longitude": 21.96582
    },
    {
        "name": "Mavromm\u00e1ti",
        "latitude": 39.42386,
        "longitude": 21.69379
    },
    {
        "name": "Mitr\u00f3poli",
        "latitude": 39.33933,
        "longitude": 21.83751
    },
    {
        "name": "Morfovo\u00fani",
        "latitude": 39.3525,
        "longitude": 21.75
    },
    {
        "name": "Mouz\u00e1ki",
        "latitude": 39.42972,
        "longitude": 21.66361
    },
    {
        "name": "Palam\u00e1s",
        "latitude": 39.46667,
        "longitude": 22.08333
    },
    {
        "name": "Pro\u00e1stio",
        "latitude": 39.48682,
        "longitude": 21.90288
    },
    {
        "name": "Sof\u00e1des",
        "latitude": 39.33333,
        "longitude": 22.1
    },
    {
        "name": "Agri\u00e1",
        "latitude": 39.34078,
        "longitude": 23.01258
    },
    {
        "name": "\u00c1lli Meri\u00e1",
        "latitude": 39.37039,
        "longitude": 22.9835
    },
    {
        "name": "Almyr\u00f3s",
        "latitude": 39.18222,
        "longitude": 22.75944
    },
    {
        "name": "Anakasi\u00e1",
        "latitude": 39.38112,
        "longitude": 22.97484
    },
    {
        "name": "\u00c1no Lekh\u00f3nia",
        "latitude": 39.32763,
        "longitude": 23.05395
    },
    {
        "name": "Argalast\u00ed",
        "latitude": 39.22627,
        "longitude": 23.21868
    },
    {
        "name": "Evxino\u00fapolis",
        "latitude": 39.18414,
        "longitude": 22.73831
    },
    {
        "name": "Kan\u00e1lia",
        "latitude": 39.49928,
        "longitude": 22.88589
    },
    {
        "name": "K\u00e1to Lekh\u00f3nia",
        "latitude": 39.33091,
        "longitude": 23.03957
    },
    {
        "name": "N\u00e9a Anchi\u00e1los",
        "latitude": 39.28015,
        "longitude": 22.81819
    },
    {
        "name": "N\u00e9a Ion\u00eda",
        "latitude": 39.37904,
        "longitude": 22.92752
    },
    {
        "name": "Patit\u00edrion",
        "latitude": 39.14657,
        "longitude": 23.86494
    },
    {
        "name": "Portari\u00e1",
        "latitude": 39.3895,
        "longitude": 22.99948
    },
    {
        "name": "Ptele\u00f3s",
        "latitude": 39.05261,
        "longitude": 22.95271
    },
    {
        "name": "Riz\u00f3mylos",
        "latitude": 39.42763,
        "longitude": 22.74717
    },
    {
        "name": "Ski\u00e1thos",
        "latitude": 39.16227,
        "longitude": 23.49089
    },
    {
        "name": "Sk\u00f3pelos",
        "latitude": 39.12144,
        "longitude": 23.72686
    },
    {
        "name": "So\u00farpi",
        "latitude": 39.10319,
        "longitude": 22.89789
    },
    {
        "name": "Stefanov\u00edkeio",
        "latitude": 39.46354,
        "longitude": 22.74198
    },
    {
        "name": "Tr\u00edkeri",
        "latitude": 39.10114,
        "longitude": 23.07669
    },
    {
        "name": "Velest\u00edno",
        "latitude": 39.38181,
        "longitude": 22.74616
    },
    {
        "name": "Volos",
        "latitude": 39.36103,
        "longitude": 22.94248
    },
    {
        "name": "Zagor\u00e1",
        "latitude": 39.45,
        "longitude": 23.1
    },
    {
        "name": "\u00c1gioi The\u00f3doroi",
        "latitude": 37.92736,
        "longitude": 23.14221
    },
    {
        "name": "\u00c1gios Andr\u00e9as",
        "latitude": 37.34519,
        "longitude": 22.76466
    },
    {
        "name": "Arfar\u00e1",
        "latitude": 37.15619,
        "longitude": 22.04485
    },
    {
        "name": "\u00c1rgos",
        "latitude": 37.63333,
        "longitude": 22.73333
    },
    {
        "name": "Aria",
        "latitude": 37.57372,
        "longitude": 22.83539
    },
    {
        "name": "\u00c1ris",
        "latitude": 37.0992,
        "longitude": 22.00443
    },
    {
        "name": "Arkha\u00eda K\u00f3rinthos",
        "latitude": 37.90953,
        "longitude": 22.88353
    },
    {
        "name": "As\u00edni",
        "latitude": 37.54431,
        "longitude": 22.86435
    },
    {
        "name": "Asop\u00f3s",
        "latitude": 36.72986,
        "longitude": 22.85455
    },
    {
        "name": "\u00c1ssos",
        "latitude": 37.93955,
        "longitude": 22.82223
    },
    {
        "name": "\u00c1stros",
        "latitude": 37.40395,
        "longitude": 22.72118
    },
    {
        "name": "Ath\u00edkia",
        "latitude": 37.81675,
        "longitude": 22.92939
    },
    {
        "name": "Ay\u00eda Tri\u00e1s",
        "latitude": 37.63707,
        "longitude": 22.80504
    },
    {
        "name": "\u00c1yios Adhrian\u00f3s",
        "latitude": 37.59975,
        "longitude": 22.8456
    },
    {
        "name": "\u00c1yios Vas\u00edlios",
        "latitude": 37.79763,
        "longitude": 22.79727
    },
    {
        "name": "Ch\u00f3ra",
        "latitude": 37.05106,
        "longitude": 21.7169
    },
    {
        "name": "D\u00eddyma",
        "latitude": 37.4625,
        "longitude": 23.17183
    },
    {
        "name": "Dimits\u00e1na",
        "latitude": 37.59524,
        "longitude": 22.04025
    },
    {
        "name": "Dr\u00e9panon",
        "latitude": 37.53888,
        "longitude": 22.89323
    },
    {
        "name": "Ermi\u00f3ni",
        "latitude": 37.38492,
        "longitude": 23.24686
    },
    {
        "name": "Exam\u00edlia",
        "latitude": 37.89736,
        "longitude": 22.92832
    },
    {
        "name": "Filiatr\u00e1",
        "latitude": 37.15637,
        "longitude": 21.58532
    },
    {
        "name": "Gargali\u00e1noi",
        "latitude": 37.06518,
        "longitude": 21.63809
    },
    {
        "name": "G\u00e9fyra",
        "latitude": 36.68715,
        "longitude": 23.03509
    },
    {
        "name": "Ger\u00e1ki",
        "latitude": 36.99227,
        "longitude": 22.70663
    },
    {
        "name": "G\u00fdtheio",
        "latitude": 36.755,
        "longitude": 22.56417
    },
    {
        "name": "Isthm\u00eda",
        "latitude": 37.91356,
        "longitude": 23.0046
    },
    {
        "name": "Kalamata",
        "latitude": 37.03913,
        "longitude": 22.11265
    },
    {
        "name": "Kardam\u00fdli",
        "latitude": 36.88778,
        "longitude": 22.23317
    },
    {
        "name": "Kary\u00e9s",
        "latitude": 37.29119,
        "longitude": 22.50066
    },
    {
        "name": "K\u00e1to Dhimini\u00f3",
        "latitude": 38.0249,
        "longitude": 22.73294
    },
    {
        "name": "K\u00e1to Glyk\u00f3vrysi",
        "latitude": 36.82791,
        "longitude": 22.77732
    },
    {
        "name": "Khiliom\u00f3dhi",
        "latitude": 37.81016,
        "longitude": 22.86972
    },
    {
        "name": "Ki\u00e1to",
        "latitude": 38.01321,
        "longitude": 22.74839
    },
    {
        "name": "Koil\u00e1s",
        "latitude": 37.4123,
        "longitude": 23.12553
    },
    {
        "name": "Kokk\u00f3nion",
        "latitude": 37.97061,
        "longitude": 22.78018
    },
    {
        "name": "Kopan\u00e1ki",
        "latitude": 37.28913,
        "longitude": 21.81854
    },
    {
        "name": "K\u00f3rinthos",
        "latitude": 37.94007,
        "longitude": 22.9513
    },
    {
        "name": "Kor\u00f3ni",
        "latitude": 36.79526,
        "longitude": 21.95794
    },
    {
        "name": "Koutsop\u00f3di",
        "latitude": 37.68426,
        "longitude": 22.71355
    },
    {
        "name": "Kran\u00eddi",
        "latitude": 37.37974,
        "longitude": 23.15969
    },
    {
        "name": "Kroke\u00e9s",
        "latitude": 36.88297,
        "longitude": 22.54683
    },
    {
        "name": "Kypariss\u00eda",
        "latitude": 37.25111,
        "longitude": 21.67361
    },
    {
        "name": "Kyr\u00e1s Vr\u00fdsi",
        "latitude": 37.91295,
        "longitude": 22.98651
    },
    {
        "name": "Lang\u00e1dhia",
        "latitude": 37.68186,
        "longitude": 22.03002
    },
    {
        "name": "L\u00e9khaio",
        "latitude": 37.93279,
        "longitude": 22.85002
    },
    {
        "name": "Leon\u00eddio",
        "latitude": 37.16679,
        "longitude": 22.85773
    },
    {
        "name": "Lev\u00eddion",
        "latitude": 37.68269,
        "longitude": 22.29586
    },
    {
        "name": "Ligouri\u00f3n",
        "latitude": 37.61233,
        "longitude": 23.03773
    },
    {
        "name": "Loutr\u00e1 Ora\u00edas El\u00e9nis",
        "latitude": 37.86466,
        "longitude": 22.99614
    },
    {
        "name": "Loutr\u00e1ki",
        "latitude": 37.9783,
        "longitude": 22.97781
    },
    {
        "name": "Mago\u00fala",
        "latitude": 37.08007,
        "longitude": 22.40469
    },
    {
        "name": "Megal\u00f3poli",
        "latitude": 37.40111,
        "longitude": 22.14222
    },
    {
        "name": "Meligal\u00e1s",
        "latitude": 37.21667,
        "longitude": 21.96667
    },
    {
        "name": "Mess\u00edni",
        "latitude": 37.05111,
        "longitude": 22.00778
    },
    {
        "name": "Meth\u00f3ni",
        "latitude": 36.81973,
        "longitude": 21.70486
    },
    {
        "name": "Mol\u00e1oi",
        "latitude": 36.80757,
        "longitude": 22.85132
    },
    {
        "name": "Mo\u00falki",
        "latitude": 37.99319,
        "longitude": 22.72531
    },
    {
        "name": "N\u00e1fplio",
        "latitude": 37.56863,
        "longitude": 22.80691
    },
    {
        "name": "N\u00e9a K\u00edos",
        "latitude": 37.59023,
        "longitude": 22.74342
    },
    {
        "name": "N\u00e9a T\u00edrins",
        "latitude": 37.60793,
        "longitude": 22.81996
    },
    {
        "name": "Nem\u00e9a",
        "latitude": 37.82068,
        "longitude": 22.66102
    },
    {
        "name": "Nom\u00f3s Arkad\u00edas",
        "latitude": 37.58333,
        "longitude": 22.25
    },
    {
        "name": "Palai\u00e1 Ep\u00eddavros",
        "latitude": 37.63847,
        "longitude": 23.15609
    },
    {
        "name": "Paral\u00eda V\u00e9rgas",
        "latitude": 37.00708,
        "longitude": 22.15676
    },
    {
        "name": "P\u00e1sion",
        "latitude": 38.01294,
        "longitude": 22.72814
    },
    {
        "name": "Perach\u00f3ra",
        "latitude": 38.03021,
        "longitude": 22.94902
    },
    {
        "name": "Periyi\u00e1li",
        "latitude": 37.94041,
        "longitude": 22.83946
    },
    {
        "name": "P\u00f3rto Ch\u00e9li",
        "latitude": 37.32786,
        "longitude": 23.14384
    },
    {
        "name": "P\u00fdlos",
        "latitude": 36.91298,
        "longitude": 21.6965
    },
    {
        "name": "Siky\u00f3n",
        "latitude": 37.9823,
        "longitude": 22.72462
    },
    {
        "name": "Sk\u00e1la",
        "latitude": 36.85,
        "longitude": 22.66667
    },
    {
        "name": "Sofik\u00f3n",
        "latitude": 37.79412,
        "longitude": 23.05204
    },
    {
        "name": "Sp\u00e1rti",
        "latitude": 37.07446,
        "longitude": 22.43009
    },
    {
        "name": "Sperch\u00f3geia",
        "latitude": 37.07405,
        "longitude": 22.06248
    },
    {
        "name": "Syki\u00e1",
        "latitude": 36.76398,
        "longitude": 22.94302
    },
    {
        "name": "Thour\u00eda",
        "latitude": 37.08356,
        "longitude": 22.04891
    },
    {
        "name": "Tol\u00f3n",
        "latitude": 37.52021,
        "longitude": 22.8586
    },
    {
        "name": "Tragan\u00f3n",
        "latitude": 37.89789,
        "longitude": 21.31245
    },
    {
        "name": "Tr\u00edpoli",
        "latitude": 37.50889,
        "longitude": 22.37944
    },
    {
        "name": "V\u00e9lo",
        "latitude": 37.9761,
        "longitude": 22.75985
    },
    {
        "name": "Vlachi\u00f3tis",
        "latitude": 36.86094,
        "longitude": 22.70831
    },
    {
        "name": "Vlach\u00f3poulo",
        "latitude": 37.03186,
        "longitude": 21.79158
    },
    {
        "name": "Vokha\u00efk\u00f3",
        "latitude": 37.94843,
        "longitude": 22.79203
    },
    {
        "name": "Vrakh\u00e1ti",
        "latitude": 37.95895,
        "longitude": 22.80573
    },
    {
        "name": "Xyl\u00f3kastro",
        "latitude": 38.07762,
        "longitude": 22.63166
    },
    {
        "name": "Zevgolatei\u00f3",
        "latitude": 37.93333,
        "longitude": 22.8
    },
    {
        "name": "Ad\u00e1mas",
        "latitude": 36.72506,
        "longitude": 24.44685
    },
    {
        "name": "Af\u00e1ntou",
        "latitude": 36.29354,
        "longitude": 28.16225
    },
    {
        "name": "Ag\u00eda Mar\u00edna",
        "latitude": 37.1543,
        "longitude": 26.85162
    },
    {
        "name": "Amorg\u00f3s",
        "latitude": 36.83175,
        "longitude": 25.89821
    },
    {
        "name": "An\u00e1fi",
        "latitude": 36.35,
        "longitude": 25.76667
    },
    {
        "name": "Andros",
        "latitude": 37.83333,
        "longitude": 24.93333
    },
    {
        "name": "\u00c1no Mer\u00e1",
        "latitude": 37.44904,
        "longitude": 25.39095
    },
    {
        "name": "\u00c1no S\u00fdros",
        "latitude": 37.44997,
        "longitude": 24.93562
    },
    {
        "name": "Antim\u00e1cheia",
        "latitude": 36.80888,
        "longitude": 27.09764
    },
    {
        "name": "Ant\u00edparos",
        "latitude": 37.0394,
        "longitude": 25.08258
    },
    {
        "name": "Arch\u00e1ngelos",
        "latitude": 36.21492,
        "longitude": 28.11487
    },
    {
        "name": "Astyp\u00e1laia",
        "latitude": 36.55,
        "longitude": 26.35
    },
    {
        "name": "Ch\u00e1lki",
        "latitude": 36.22243,
        "longitude": 27.61191
    },
    {
        "name": "\u00c9mponas",
        "latitude": 36.22683,
        "longitude": 27.85645
    },
    {
        "name": "Empore\u00edo",
        "latitude": 36.35816,
        "longitude": 25.44615
    },
    {
        "name": "Ermo\u00fapolis",
        "latitude": 37.44466,
        "longitude": 24.9429
    },
    {
        "name": "Faliraki",
        "latitude": 36.33981,
        "longitude": 28.19942
    },
    {
        "name": "Fil\u00f3tion",
        "latitude": 37.05167,
        "longitude": 25.49829
    },
    {
        "name": "Fir\u00e1",
        "latitude": 36.42107,
        "longitude": 25.43087
    },
    {
        "name": "Fol\u00e9gandros",
        "latitude": 36.62794,
        "longitude": 24.92021
    },
    {
        "name": "Fry",
        "latitude": 35.41623,
        "longitude": 26.92328
    },
    {
        "name": "Ialys\u00f3s",
        "latitude": 36.41352,
        "longitude": 28.15516
    },
    {
        "name": "\u00cdos",
        "latitude": 36.73333,
        "longitude": 25.28333
    },
    {
        "name": "K\u00e1lymnos",
        "latitude": 36.9503,
        "longitude": 26.98388
    },
    {
        "name": "Kard\u00e1maina",
        "latitude": 36.78305,
        "longitude": 27.14289
    },
    {
        "name": "Karpathos",
        "latitude": 35.50701,
        "longitude": 27.21322
    },
    {
        "name": "K\u00e9falos",
        "latitude": 36.74507,
        "longitude": 26.95961
    },
    {
        "name": "K\u00edmolos",
        "latitude": 36.79368,
        "longitude": 24.57577
    },
    {
        "name": "Kos",
        "latitude": 36.89295,
        "longitude": 27.28768
    },
    {
        "name": "Kremast\u00ed",
        "latitude": 36.40981,
        "longitude": 28.1192
    },
    {
        "name": "K\u00fdthnos",
        "latitude": 37.41237,
        "longitude": 24.43068
    },
    {
        "name": "Lakk\u00ed",
        "latitude": 37.13344,
        "longitude": 26.85237
    },
    {
        "name": "L\u00e1rdos",
        "latitude": 36.09419,
        "longitude": 28.01565
    },
    {
        "name": "Mandr\u00e1ki",
        "latitude": 36.61139,
        "longitude": 27.13333
    },
    {
        "name": "Meg\u00e1lo Chori\u00f3",
        "latitude": 37.4582,
        "longitude": 26.97272
    },
    {
        "name": "Meg\u00edsti",
        "latitude": 36.14889,
        "longitude": 29.59361
    },
    {
        "name": "Mesari\u00e1",
        "latitude": 36.39893,
        "longitude": 25.44807
    },
    {
        "name": "M\u00edlos",
        "latitude": 36.74536,
        "longitude": 24.4265
    },
    {
        "name": "Mykonos",
        "latitude": 37.44529,
        "longitude": 25.32872
    },
    {
        "name": "N\u00e1ousa",
        "latitude": 37.12181,
        "longitude": 25.24014
    },
    {
        "name": "N\u00e1xos",
        "latitude": 37.10556,
        "longitude": 25.37639
    },
    {
        "name": "Nom\u00f3s Kykl\u00e1don",
        "latitude": 37.41667,
        "longitude": 24.91667
    },
    {
        "name": "O\u00eda",
        "latitude": 36.4626,
        "longitude": 25.37637
    },
    {
        "name": "Orn\u00f3s",
        "latitude": 37.42391,
        "longitude": 25.32248
    },
    {
        "name": "P\u00e1normos",
        "latitude": 36.97156,
        "longitude": 26.93727
    },
    {
        "name": "P\u00e1ros",
        "latitude": 37.08333,
        "longitude": 25.15
    },
    {
        "name": "P\u00e1tmos",
        "latitude": 37.30895,
        "longitude": 26.54723
    },
    {
        "name": "Pyl\u00ed",
        "latitude": 36.84472,
        "longitude": 27.15932
    },
    {
        "name": "R\u00f3dos",
        "latitude": 36.43556,
        "longitude": 28.22199
    },
    {
        "name": "S\u00e9rifos",
        "latitude": 37.15397,
        "longitude": 24.50614
    },
    {
        "name": "Sk\u00e1la",
        "latitude": 37.32218,
        "longitude": 26.543
    },
    {
        "name": "S\u00fdmi",
        "latitude": 36.61547,
        "longitude": 27.83619
    },
    {
        "name": "T\u00ednos",
        "latitude": 37.53753,
        "longitude": 25.16343
    },
    {
        "name": "V\u00e1ri",
        "latitude": 37.39859,
        "longitude": 24.94904
    },
    {
        "name": "Zip\u00e1ri",
        "latitude": 36.87696,
        "longitude": 27.20532
    },
    {
        "name": "Agr\u00ednio",
        "latitude": 38.62139,
        "longitude": 21.40778
    },
    {
        "name": "A\u00edgio",
        "latitude": 38.24861,
        "longitude": 22.08194
    },
    {
        "name": "Aitolik\u00f3",
        "latitude": 38.43704,
        "longitude": 21.35358
    },
    {
        "name": "A\u00edyira",
        "latitude": 38.14846,
        "longitude": 22.35426
    },
    {
        "name": "Akr\u00e1ta",
        "latitude": 38.15469,
        "longitude": 22.3183
    },
    {
        "name": "Akta\u00edo",
        "latitude": 38.30444,
        "longitude": 21.7944
    },
    {
        "name": "Alfeio\u00fasa",
        "latitude": 37.64019,
        "longitude": 21.5375
    },
    {
        "name": "Amali\u00e1da",
        "latitude": 37.79842,
        "longitude": 21.35068
    },
    {
        "name": "Amfiloch\u00eda",
        "latitude": 38.85944,
        "longitude": 21.16639
    },
    {
        "name": "Andrav\u00edda",
        "latitude": 37.90588,
        "longitude": 21.26936
    },
    {
        "name": "Angel\u00f3kastro",
        "latitude": 38.56585,
        "longitude": 21.29631
    },
    {
        "name": "\u00c1no Kastr\u00edtsi",
        "latitude": 38.27228,
        "longitude": 21.836
    },
    {
        "name": "Antirrio",
        "latitude": 38.33014,
        "longitude": 21.76413
    },
    {
        "name": "Archa\u00eda Olymp\u00eda",
        "latitude": 37.64788,
        "longitude": 21.6271
    },
    {
        "name": "Archontoch\u00f3ri",
        "latitude": 38.70053,
        "longitude": 21.03896
    },
    {
        "name": "Arko\u00fadi",
        "latitude": 37.84681,
        "longitude": 21.11022
    },
    {
        "name": "Astak\u00f3s",
        "latitude": 38.53556,
        "longitude": 21.08135
    },
    {
        "name": "\u00c1yios Konstand\u00ednos",
        "latitude": 38.63337,
        "longitude": 21.3995
    },
    {
        "name": "Chalandr\u00edtsa",
        "latitude": 38.10843,
        "longitude": 21.78349
    },
    {
        "name": "Ch\u00e1vari",
        "latitude": 37.84842,
        "longitude": 21.38403
    },
    {
        "name": "Dhok\u00edmion",
        "latitude": 38.61352,
        "longitude": 21.38072
    },
    {
        "name": "Epit\u00e1lio",
        "latitude": 37.62675,
        "longitude": 21.49528
    },
    {
        "name": "Fyte\u00edes",
        "latitude": 38.69524,
        "longitude": 21.18467
    },
    {
        "name": "Galat\u00e1s",
        "latitude": 38.35742,
        "longitude": 21.56222
    },
    {
        "name": "Gasto\u00fani",
        "latitude": 37.85,
        "longitude": 21.25
    },
    {
        "name": "Gavalo\u00fa",
        "latitude": 38.52903,
        "longitude": 21.53226
    },
    {
        "name": "Go\u00famero",
        "latitude": 37.76236,
        "longitude": 21.61853
    },
    {
        "name": "Kaino\u00faryion",
        "latitude": 38.60453,
        "longitude": 21.48776
    },
    {
        "name": "Kal\u00e1vryta",
        "latitude": 38.03222,
        "longitude": 22.1125
    },
    {
        "name": "Kam\u00e1rai",
        "latitude": 38.29881,
        "longitude": 21.99892
    },
    {
        "name": "Kand\u00edla",
        "latitude": 38.70564,
        "longitude": 20.94749
    },
    {
        "name": "Kar\u00e1toula",
        "latitude": 37.73564,
        "longitude": 21.53578
    },
    {
        "name": "Kardam\u00e1s",
        "latitude": 37.76729,
        "longitude": 21.33946
    },
    {
        "name": "K\u00e1to Acha\u1e2fa",
        "latitude": 38.15,
        "longitude": 21.55
    },
    {
        "name": "K\u00e1to Mazar\u00e1ki",
        "latitude": 38.07035,
        "longitude": 21.65097
    },
    {
        "name": "Katoch\u00ed",
        "latitude": 38.41237,
        "longitude": 21.25258
    },