[
    {
        "name": "Tubmanburg",
        "latitude": 6.87064,
        "longitude": -10.8211
    },
    {
        "name": "Gbarnga",
        "latitude": 6.99543,
        "longitude": -9.47122
    },
    {
        "name": "Bopolu",
        "latitude": 7.06667,
        "longitude": -10.4875
    },
    {
        "name": "Buchanan",
        "latitude": 5.87693,
        "longitude": -10.04964
    },
    {
        "name": "Robertsport",
        "latitude": 6.75329,
        "longitude": -11.3671
    },
    {
        "name": "Zwedru",
        "latitude": 6.06846,
        "longitude": -8.13559
    },
    {
        "name": "Barclayville",
        "latitude": 4.67443,
        "longitude": -8.23306
    },
    {
        "name": "Voinjama",
        "latitude": 8.42194,
        "longitude": -9.74778
    },
    {
        "name": "Kakata",
        "latitude": 6.53104,
        "longitude": -10.35368
    },
    {
        "name": "Harper",
        "latitude": 4.3782,
        "longitude": -7.71081
    },
    {
        "name": "Bensonville",
        "latitude": 6.44716,
        "longitude": -10.61283
    },
    {
        "name": "Monrovia",
        "latitude": 6.30054,
        "longitude": -10.7969
    },
    {
        "name": "Ganta",
        "latitude": 7.30222,
        "longitude": -8.53083
    },
    {
        "name": "New Yekepa",
        "latitude": 7.57944,
        "longitude": -8.53778
    },
    {
        "name": "Sanniquellie",
        "latitude": 7.36215,
        "longitude": -8.71326
    },
    {
        "name": "Cestos City",
        "latitude": 5.45683,
        "longitude": -9.58167
    },
    {
        "name": "Fish Town",
        "latitude": 5.19739,
        "longitude": -7.87579
    },
    {
        "name": "Greenville",
        "latitude": 5.01133,
        "longitude": -9.0388
    }
]