[
    {
        "name": "Boaco",
        "latitude": 12.47224,
        "longitude": -85.6586
    },
    {
        "name": "Camoapa",
        "latitude": 12.38383,
        "longitude": -85.51277
    },
    {
        "name": "San Jos\u00e9 de los Remates",
        "latitude": 12.5975,
        "longitude": -85.76174
    },
    {
        "name": "San Lorenzo",
        "latitude": 12.3783,
        "longitude": -85.66646
    },
    {
        "name": "Santa Luc\u00eda",
        "latitude": 12.53262,
        "longitude": -85.71074
    },
    {
        "name": "Teustepe",
        "latitude": 12.4203,
        "longitude": -85.79798
    },
    {
        "name": "Diriamba",
        "latitude": 11.85812,
        "longitude": -86.23922
    },
    {
        "name": "Dolores",
        "latitude": 11.85672,
        "longitude": -86.21552
    },
    {
        "name": "El Rosario",
        "latitude": 11.77756,
        "longitude": -86.37374
    },
    {
        "name": "Jinotepe",
        "latitude": 11.84962,
        "longitude": -86.19903
    },
    {
        "name": "La Conquista",
        "latitude": 11.73426,
        "longitude": -86.19279
    },
    {
        "name": "La Paz de Carazo",
        "latitude": 11.82311,
        "longitude": -86.12781
    },
    {
        "name": "Municipio de San Marcos",
        "latitude": 11.91784,
        "longitude": -86.27474
    },
    {
        "name": "San Marcos",
        "latitude": 11.90949,
        "longitude": -86.20351
    },
    {
        "name": "Santa Teresa",
        "latitude": 11.74321,
        "longitude": -86.21413
    },
    {
        "name": "Chichigalpa",
        "latitude": 12.57758,
        "longitude": -87.02705
    },
    {
        "name": "Chinandega",
        "latitude": 12.62937,
        "longitude": -87.13105
    },
    {
        "name": "Cinco Pinos",
        "latitude": 13.22956,
        "longitude": -86.86808
    },
    {
        "name": "Corinto",
        "latitude": 12.4825,
        "longitude": -87.17304
    },
    {
        "name": "El Realejo",
        "latitude": 12.54333,
        "longitude": -87.16517
    },
    {
        "name": "El Viejo",
        "latitude": 12.66348,
        "longitude": -87.16663
    },
    {
        "name": "Jiquilillo",
        "latitude": 12.74593,
        "longitude": -87.4516
    },
    {
        "name": "Municipio de San Francisco del Norte",
        "latitude": 13.21187,
        "longitude": -86.77107
    },
    {
        "name": "Posoltega",
        "latitude": 12.54422,
        "longitude": -86.97982
    },
    {
        "name": "Puerto Moraz\u00e1n",
        "latitude": 12.85042,
        "longitude": -87.17167
    },
    {
        "name": "Santo Tom\u00e1s del Norte",
        "latitude": 13.1861,
        "longitude": -86.92267
    },
    {
        "name": "Somotillo",
        "latitude": 13.04387,
        "longitude": -86.90506
    },
    {
        "name": "Acoyapa",
        "latitude": 11.97028,
        "longitude": -85.17113
    },
    {
        "name": "Comalapa",
        "latitude": 12.28345,
        "longitude": -85.51081
    },
    {
        "name": "Cuapa",
        "latitude": 12.26875,
        "longitude": -85.38205
    },
    {
        "name": "El Ayote",
        "latitude": 12.19046,
        "longitude": -85.28737
    },
    {
        "name": "Juigalpa",
        "latitude": 12.10629,
        "longitude": -85.36452
    },
    {
        "name": "La Libertad",
        "latitude": 12.21635,
        "longitude": -85.16595
    },
    {
        "name": "Santo Domingo",
        "latitude": 12.26438,
        "longitude": -85.08235
    },
    {
        "name": "Santo Tom\u00e1s",
        "latitude": 12.06938,
        "longitude": -85.09059
    },
    {
        "name": "Villa Sandino",
        "latitude": 12.0483,
        "longitude": -84.99362
    },
    {
        "name": "Condega",
        "latitude": 13.36502,
        "longitude": -86.39846
    },
    {
        "name": "Estel\u00ed",
        "latitude": 13.09185,
        "longitude": -86.35384
    },
    {
        "name": "La Trinidad",
        "latitude": 12.96881,
        "longitude": -86.23534
    },
    {
        "name": "Pueblo Nuevo",
        "latitude": 13.37984,
        "longitude": -86.48075
    },
    {
        "name": "San Juan de Limay",
        "latitude": 13.17603,
        "longitude": -86.61234
    },
    {
        "name": "Diri\u00e1",
        "latitude": 11.8842,
        "longitude": -86.05508
    },
    {
        "name": "Diriomo",
        "latitude": 11.87631,
        "longitude": -86.05184
    },
    {
        "name": "Granada",
        "latitude": 11.92988,
        "longitude": -85.95602
    },
    {
        "name": "Nandaime",
        "latitude": 11.75696,
        "longitude": -86.05286
    },
    {
        "name": "El Cu\u00e1",
        "latitude": 13.41667,
        "longitude": -85.75
    },
    {
        "name": "Jinotega",
        "latitude": 13.09103,
        "longitude": -86.00234
    },
    {
        "name": "La Concordia",
        "latitude": 13.19528,
        "longitude": -86.16659
    },
    {
        "name": "Las Praderas",
        "latitude": 13.17,
        "longitude": -85.85
    },
    {
        "name": "LLano de La Cruz",
        "latitude": 13.12449,
        "longitude": -86.00833
    },
    {
        "name": "San Jos\u00e9 de Bocay",
        "latitude": 13.54204,
        "longitude": -85.53942
    },
    {
        "name": "San Rafael del Norte",
        "latitude": 13.21248,
        "longitude": -86.11089
    },
    {
        "name": "San Sebasti\u00e1n de Yal\u00ed",
        "latitude": 13.3054,
        "longitude": -86.18641
    },
    {
        "name": "Achuapa",
        "latitude": 13.0537,
        "longitude": -86.59004
    },
    {
        "name": "El Jicaral",
        "latitude": 12.72676,
        "longitude": -86.38057
    },
    {
        "name": "El Sauce",
        "latitude": 12.88687,
        "longitude": -86.53903
    },
    {
        "name": "La Paz Centro",
        "latitude": 12.34,
        "longitude": -86.67528
    },
    {
        "name": "Larreynaga",
        "latitude": 12.67692,
        "longitude": -86.57193
    },
    {
        "name": "Le\u00f3n",
        "latitude": 12.43787,
        "longitude": -86.87804
    },
    {
        "name": "Nagarote",
        "latitude": 12.26593,
        "longitude": -86.56474
    },
    {
        "name": "Quezalguaque",
        "latitude": 12.50683,
        "longitude": -86.90292
    },
    {
        "name": "Santa Rosa del Pe\u00f1\u00f3n",
        "latitude": 12.80116,
        "longitude": -86.36994
    },
    {
        "name": "Telica",
        "latitude": 12.522,
        "longitude": -86.85938
    },
    {
        "name": "Las Sabanas",
        "latitude": 13.34302,
        "longitude": -86.62184
    },
    {
        "name": "Palacag\u00fcina",
        "latitude": 13.45566,
        "longitude": -86.40622
    },
    {
        "name": "San Jos\u00e9 de Cusmapa",
        "latitude": 13.28841,
        "longitude": -86.65539
    },
    {
        "name": "San Juan de R\u00edo Coco",
        "latitude": 13.54476,
        "longitude": -86.16499
    },
    {
        "name": "San Lucas",
        "latitude": 13.4138,
        "longitude": -86.6111
    },
    {
        "name": "Somoto",
        "latitude": 13.48082,
        "longitude": -86.58208
    },
    {
        "name": "Telpaneca",
        "latitude": 13.53151,
        "longitude": -86.2871
    },
    {
        "name": "Totogalpa",
        "latitude": 13.56284,
        "longitude": -86.49254
    },
    {
        "name": "Yalag\u00fcina",
        "latitude": 13.48383,
        "longitude": -86.49305
    },
    {
        "name": "Ciudad Sandino",
        "latitude": 12.15889,
        "longitude": -86.34417
    },
    {
        "name": "El Crucero",
        "latitude": 11.99008,
        "longitude": -86.30954
    },
    {
        "name": "Managua",
        "latitude": 12.13282,
        "longitude": -86.2504
    },
    {
        "name": "Masachapa",
        "latitude": 11.78687,
        "longitude": -86.51416
    },
    {
        "name": "San Rafael del Sur",
        "latitude": 11.84854,
        "longitude": -86.43839
    },
    {
        "name": "Ticuantepe",
        "latitude": 12.02263,
        "longitude": -86.20493
    },
    {
        "name": "Tipitapa",
        "latitude": 12.19732,
        "longitude": -86.09706
    },
    {
        "name": "Valle San Francisco",
        "latitude": 12.51667,
        "longitude": -86.28333
    },
    {
        "name": "Villa El Carmen",
        "latitude": 11.98009,
        "longitude": -86.50571
    },
    {
        "name": "Catarina",
        "latitude": 11.91197,
        "longitude": -86.07383
    },
    {
        "name": "La Concepci\u00f3n",
        "latitude": 11.93711,
        "longitude": -86.18976
    },
    {
        "name": "Masatepe",
        "latitude": 11.91445,
        "longitude": -86.14458
    },
    {
        "name": "Masaya",
        "latitude": 11.97444,
        "longitude": -86.09417
    },
    {
        "name": "Municipio de Masatepe",
        "latitude": 11.90567,
        "longitude": -86.14946
    },
    {
        "name": "Municipio de Nandasmo",
        "latitude": 11.93333,
        "longitude": -86.11667
    },
    {
        "name": "Municipio de Niquinohomo",
        "latitude": 11.88228,
        "longitude": -86.10035
    },
    {
        "name": "Municipio de San Juan de Oriente",
        "latitude": 11.90517,
        "longitude": -86.0746
    },
    {
        "name": "Nandasmo",
        "latitude": 11.92411,
        "longitude": -86.12072
    },
    {
        "name": "Nindir\u00ed",
        "latitude": 12.00386,
        "longitude": -86.12128
    },
    {
        "name": "Niquinohomo",
        "latitude": 11.90518,
        "longitude": -86.09446
    },
    {
        "name": "San Juan de Oriente",
        "latitude": 11.90624,
        "longitude": -86.07343
    },
    {
        "name": "Tisma",
        "latitude": 12.08194,
        "longitude": -86.01739
    },
    {
        "name": "Ciudad Dar\u00edo",
        "latitude": 12.73143,
        "longitude": -86.12402
    },
    {
        "name": "Matagalpa",
        "latitude": 12.92559,
        "longitude": -85.91747
    },
    {
        "name": "Matigu\u00e1s",
        "latitude": 12.83734,
        "longitude": -85.46218
    },
    {
        "name": "Muy Muy",
        "latitude": 12.76224,
        "longitude": -85.62915
    },
    {
        "name": "R\u00edo Blanco",
        "latitude": 12.93435,
        "longitude": -85.22354
    },
    {
        "name": "San Dionisio",
        "latitude": 12.76023,
        "longitude": -85.85018
    },
    {
        "name": "San Ram\u00f3n",
        "latitude": 12.92344,
        "longitude": -85.83898
    },
    {
        "name": "Terrabona",
        "latitude": 12.73028,
        "longitude": -85.96474
    },
    {
        "name": "Bonanza",
        "latitude": 14.02885,
        "longitude": -84.59103
    },
    {
        "name": "Prinzapolka",
        "latitude": 13.40708,
        "longitude": -83.56452
    },
    {
        "name": "Puerto Cabezas",
        "latitude": 14.03507,
        "longitude": -83.38882
    },
    {
        "name": "Siuna",
        "latitude": 13.73321,
        "longitude": -84.77725
    },
    {
        "name": "Waslala",
        "latitude": 13.23333,
        "longitude": -85.38333
    },
    {
        "name": "Wasp\u00e1n",
        "latitude": 14.74189,
        "longitude": -83.9717
    },
    {
        "name": "Ciudad Antigua",
        "latitude": 13.6392903,
        "longitude": -86.3118983
    },
    {
        "name": "Dipilto",
        "latitude": 13.7222552,
        "longitude": -86.5136606
    },
    {
        "name": "El J\u00edcaro",
        "latitude": 13.7222248,
        "longitude": -86.1411542
    },
    {
        "name": "Jalapa",
        "latitude": 13.9207142,
        "longitude": -86.1421233
    },
    {
        "name": "Macuelizo",
        "latitude": 13.6519296,
        "longitude": -86.6142717
    },
    {
        "name": "Mozonte",
        "latitude": 13.6595684,
        "longitude": -86.4453649
    },
    {
        "name": "Murra",
        "latitude": 13.7592755,
        "longitude": -86.0219684
    },
    {
        "name": "Ocotal",
        "latitude": 13.6341138,
        "longitude": -86.5010747
    },
    {
        "name": "Quilal\u00ed",
        "latitude": 13.5649108,
        "longitude": -86.0292148
    },
    {
        "name": "San Fernando",
        "latitude": 13.6787343,
        "longitude": -86.3207975
    },
    {
        "name": "Santa Mar\u00eda",
        "latitude": 13.7466548,
        "longitude": -86.7112407
    },
    {
        "name": "Wiwil\u00ed",
        "latitude": 13.6207645,
        "longitude": -85.831697
    },
    {
        "name": "El Almendro",
        "latitude": 11.67859,
        "longitude": -84.70269
    },
    {
        "name": "Greytown",
        "latitude": 10.94684,
        "longitude": -83.73467
    },
    {
        "name": "Morrito",
        "latitude": 11.62118,
        "longitude": -85.08052
    },
    {
        "name": "San Carlos",
        "latitude": 11.1236,
        "longitude": -84.77795
    },
    {
        "name": "San Miguelito",
        "latitude": 11.40255,
        "longitude": -84.89991
    },
    {
        "name": "Altagracia",
        "latitude": 11.56615,
        "longitude": -85.5784
    },
    {
        "name": "Bel\u00e9n",
        "latitude": 11.50299,
        "longitude": -85.88935
    },
    {
        "name": "Buenos Aires",
        "latitude": 11.46916,
        "longitude": -85.81661
    },
    {
        "name": "C\u00e1rdenas",
        "latitude": 11.19639,
        "longitude": -85.5089
    },
    {
        "name": "Moyogalpa",
        "latitude": 11.54006,
        "longitude": -85.69795
    },
    {
        "name": "Municipio de Altagracia",
        "latitude": 11.47983,
        "longitude": -85.54166
    },
    {
        "name": "Municipio de Bel\u00e9n",
        "latitude": 11.57193,
        "longitude": -85.96316
    },
    {
        "name": "Municipio de Buenos Aires",
        "latitude": 11.5176,
        "longitude": -85.78333
    },
    {
        "name": "Municipio de C\u00e1rdenas",
        "latitude": 11.14912,
        "longitude": -85.42323
    },
    {
        "name": "Municipio de Moyogalpa",
        "latitude": 11.52632,
        "longitude": -85.67329
    },
    {
        "name": "Municipio de Potos\u00ed",
        "latitude": 11.57854,
        "longitude": -85.87764
    },
    {
        "name": "Municipio de Rivas",
        "latitude": 11.43931,
        "longitude": -85.827
    },
    {
        "name": "Municipio de San Jorge",
        "latitude": 11.42703,
        "longitude": -85.78904
    },
    {
        "name": "Municipio de San Juan del Sur",
        "latitude": 11.22368,
        "longitude": -85.78289
    },
    {
        "name": "Municipio de Tola",
        "latitude": 11.46009,
        "longitude": -86.00789
    },
    {
        "name": "Potos\u00ed",
        "latitude": 11.49416,
        "longitude": -85.8568
    },
    {
        "name": "Rivas",
        "latitude": 11.43716,
        "longitude": -85.82632
    },
    {
        "name": "San Jorge",
        "latitude": 11.45584,
        "longitude": -85.80308
    },
    {
        "name": "San Juan del Sur",
        "latitude": 11.25292,
        "longitude": -85.87049
    },
    {
        "name": "Tola",
        "latitude": 11.43927,
        "longitude": -85.93891
    },
    {
        "name": "Bluefields",
        "latitude": 12.01366,
        "longitude": -83.76353
    },
    {
        "name": "Bocana de Paiwas",
        "latitude": 12.78571,
        "longitude": -85.12269
    },
    {
        "name": "Corn Island",
        "latitude": 12.17575,
        "longitude": -83.06145
    },
    {
        "name": "El Rama",
        "latitude": 12.15965,
        "longitude": -84.21952
    },
    {
        "name": "El Tortuguero",
        "latitude": 12.82247,
        "longitude": -84.19629
    },
    {
        "name": "Kukrahill",
        "latitude": 12.24096,
        "longitude": -83.74517
    },
    {
        "name": "La Cruz de R\u00edo Grande",
        "latitude": 13.1129,
        "longitude": -84.18588
    },
    {
        "name": "Laguna de Perlas",
        "latitude": 12.34294,
        "longitude": -83.67123
    },
    {
        "name": "Muelle de los Bueyes",
        "latitude": 12.06999,
        "longitude": -84.53503
    },
    {
        "name": "Nueva Guinea",
        "latitude": 11.68758,
        "longitude": -84.45616
    }
]