[
    {
        "name": "Boven Bolivia",
        "latitude": 12.1819,
        "longitude": -68.2181
    },
    {
        "name": "Dorp Tera Kora",
        "latitude": 12.13333,
        "longitude": -68.26667
    },
    {
        "name": "Oranjestad",
        "latitude": 17.48333333,
        "longitude": -62.98333333
    },
    {
        "name": "Rincon",
        "latitude": 12.23833333,
        "longitude": -68.3325
    },
    {
        "name": "St. Johns",
        "latitude": 17.6210075,
        "longitude": -63.2431683
    },
    {
        "name": "The Bottom",
        "latitude": 17.62611111,
        "longitude": -63.24916667
    },
    {
        "name": "Windwardside",
        "latitude": 17.62864,
        "longitude": -63.23136
    },
    {
        "name": "Zion's Hill",
        "latitude": 17.643,
        "longitude": -63.22649
    },
    {
        "name": "Aalden",
        "latitude": 52.79,
        "longitude": 6.71806
    },
    {
        "name": "Angelslo",
        "latitude": 52.7809,
        "longitude": 6.92645
    },
    {
        "name": "Annen",
        "latitude": 53.0575,
        "longitude": 6.71944
    },
    {
        "name": "Assen",
        "latitude": 52.99667,
        "longitude": 6.5625
    },
    {
        "name": "Ballast",
        "latitude": 52.67218,
        "longitude": 6.73299
    },
    {
        "name": "Barger-Oosterveld",
        "latitude": 52.77,
        "longitude": 6.95833
    },
    {
        "name": "Bargeres",
        "latitude": 52.76152,
        "longitude": 6.88145
    },
    {
        "name": "Beilen",
        "latitude": 52.86333,
        "longitude": 6.51389
    },
    {
        "name": "Borger",
        "latitude": 52.92333,
        "longitude": 6.79306
    },
    {
        "name": "Coevorden",
        "latitude": 52.66103,
        "longitude": 6.74046
    },
    {
        "name": "Dalen",
        "latitude": 52.69917,
        "longitude": 6.75556
    },
    {
        "name": "De Loo",
        "latitude": 52.67167,
        "longitude": 6.73967
    },
    {
        "name": "De Wijk",
        "latitude": 52.67333,
        "longitude": 6.29028
    },
    {
        "name": "Diever",
        "latitude": 52.85417,
        "longitude": 6.31806
    },
    {
        "name": "Dwingeloo",
        "latitude": 52.83417,
        "longitude": 6.36944
    },
    {
        "name": "Eelde",
        "latitude": 53.13583,
        "longitude": 6.5625
    },
    {
        "name": "Eext",
        "latitude": 53.0175,
        "longitude": 6.73472
    },
    {
        "name": "Emmen",
        "latitude": 52.77917,
        "longitude": 6.90694
    },
    {
        "name": "Emmer-Compascuum",
        "latitude": 52.81167,
        "longitude": 7.04722
    },
    {
        "name": "Emmer-Erfscheidenveen",
        "latitude": 52.80667,
        "longitude": 6.98889
    },
    {
        "name": "Emmerhout",
        "latitude": 52.78755,
        "longitude": 6.93881
    },
    {
        "name": "Emmermeer",
        "latitude": 52.80071,
        "longitude": 6.89315
    },
    {
        "name": "Emmerschans",
        "latitude": 52.80083,
        "longitude": 6.93889
    },
    {
        "name": "Exloo",
        "latitude": 52.8825,
        "longitude": 6.86389
    },
    {
        "name": "Gasselte",
        "latitude": 52.97167,
        "longitude": 6.79444
    },
    {
        "name": "Gasselternijveen",
        "latitude": 52.98833,
        "longitude": 6.85278
    },
    {
        "name": "Gieten",
        "latitude": 53.005,
        "longitude": 6.76389
    },
    {
        "name": "Havelte",
        "latitude": 52.76941,
        "longitude": 6.24015
    },
    {
        "name": "Hoogeveen",
        "latitude": 52.7225,
        "longitude": 6.47639
    },
    {
        "name": "Klazienaveen",
        "latitude": 52.72417,
        "longitude": 6.99028
    },
    {
        "name": "Koekange",
        "latitude": 52.69917,
        "longitude": 6.31667
    },
    {
        "name": "Krakeel",
        "latitude": 52.72339,
        "longitude": 6.51146
    },
    {
        "name": "Marsdijk",
        "latitude": 53.01766,
        "longitude": 6.58527
    },
    {
        "name": "Meppel",
        "latitude": 52.69583,
        "longitude": 6.19444
    },
    {
        "name": "Nieuw-Buinen",
        "latitude": 52.9625,
        "longitude": 6.95
    },
    {
        "name": "Nieuw-Dordrecht",
        "latitude": 52.74833,
        "longitude": 6.96806
    },
    {
        "name": "Nieuw-Roden",
        "latitude": 53.13167,
        "longitude": 6.39722
    },
    {
        "name": "Noordbarge",
        "latitude": 52.77237,
        "longitude": 6.88713
    },
    {
        "name": "Norg",
        "latitude": 53.06667,
        "longitude": 6.45833
    },
    {
        "name": "Odoorn",
        "latitude": 52.84917,
        "longitude": 6.85139
    },
    {
        "name": "Oosterhesselen",
        "latitude": 52.75417,
        "longitude": 6.72222
    },
    {
        "name": "Paterswolde",
        "latitude": 53.145,
        "longitude": 6.56528
    },
    {
        "name": "Peelo",
        "latitude": 53.01719,
        "longitude": 6.56208
    },
    {
        "name": "Peize",
        "latitude": 53.14667,
        "longitude": 6.49722
    },
    {
        "name": "Roden",
        "latitude": 53.1375,
        "longitude": 6.42083
    },
    {
        "name": "Rolde",
        "latitude": 52.98417,
        "longitude": 6.64861
    },
    {
        "name": "Ruinen",
        "latitude": 52.7625,
        "longitude": 6.35417
    },
    {
        "name": "Ruinerwold",
        "latitude": 52.72333,
        "longitude": 6.24861
    },
    {
        "name": "Schoonebeek",
        "latitude": 52.6625,
        "longitude": 6.88472
    },
    {
        "name": "Schoonoord",
        "latitude": 52.84583,
        "longitude": 6.75556
    },
    {
        "name": "Sleen",
        "latitude": 52.77167,
        "longitude": 6.80278
    },
    {
        "name": "Tweede Exlo\u00ebrmond",
        "latitude": 52.90917,
        "longitude": 6.93333
    },
    {
        "name": "Tynaarlo",
        "latitude": 53.0775,
        "longitude": 6.61667
    },
    {
        "name": "Uffelte",
        "latitude": 52.79,
        "longitude": 6.28056
    },
    {
        "name": "Valthe",
        "latitude": 52.84583,
        "longitude": 6.89444
    },
    {
        "name": "Valthermond",
        "latitude": 52.88167,
        "longitude": 6.9625
    },
    {
        "name": "Veenoord",
        "latitude": 52.71087,
        "longitude": 6.84869
    },
    {
        "name": "Vledder",
        "latitude": 52.85583,
        "longitude": 6.20833
    },
    {
        "name": "Vries",
        "latitude": 53.07417,
        "longitude": 6.57778
    },
    {
        "name": "Weiteveen",
        "latitude": 52.6725,
        "longitude": 6.9875
    },
    {
        "name": "Westerbork",
        "latitude": 52.85,
        "longitude": 6.60833
    },
    {
        "name": "Westlaren",
        "latitude": 53.0848,
        "longitude": 6.66469
    },
    {
        "name": "Wolfsbos",
        "latitude": 52.71734,
        "longitude": 6.49881
    },
    {
        "name": "Zuidlaren",
        "latitude": 53.09417,
        "longitude": 6.68194
    },
    {
        "name": "Almere Stad",
        "latitude": 52.37025,
        "longitude": 5.21413
    },
    {
        "name": "Biddinghuizen",
        "latitude": 52.455,
        "longitude": 5.69306
    },
    {
        "name": "Dronten",
        "latitude": 52.525,
        "longitude": 5.71806
    },
    {
        "name": "Emmeloord",
        "latitude": 52.71083,
        "longitude": 5.74861
    },
    {
        "name": "Ens",
        "latitude": 52.63667,
        "longitude": 5.82778
    },
    {
        "name": "Lelystad",
        "latitude": 52.50833,
        "longitude": 5.475
    },
    {
        "name": "Urk",
        "latitude": 52.6625,
        "longitude": 5.60139
    },
    {
        "name": "Zeewolde",
        "latitude": 52.33,
        "longitude": 5.54167
    },
    {
        "name": "Akkrum",
        "latitude": 53.05024,
        "longitude": 5.83087
    },
    {
        "name": "Aldeboarn",
        "latitude": 53.05,
        "longitude": 5.9
    },
    {
        "name": "Aldl\u00e2n-Oost",
        "latitude": 53.1886,
        "longitude": 5.82825
    },
    {
        "name": "Appelscha",
        "latitude": 52.95526,
        "longitude": 6.35053
    },
    {
        "name": "Augustinusga",
        "latitude": 53.21785,
        "longitude": 6.1617
    },
    {
        "name": "Bakhuizen",
        "latitude": 52.86975,
        "longitude": 5.45926
    },
    {
        "name": "Bakkeveen",
        "latitude": 53.08072,
        "longitude": 6.25671
    },
    {
        "name": "Balk",
        "latitude": 52.89756,
        "longitude": 5.57964
    },
    {
        "name": "Beetsterzwaag",
        "latitude": 53.05914,
        "longitude": 6.07711
    },
    {
        "name": "Berltsum",
        "latitude": 53.2437,
        "longitude": 5.65101
    },
    {
        "name": "Bilgaard",
        "latitude": 53.21551,
        "longitude": 5.79574
    },
    {
        "name": "Bolsward",
        "latitude": 53.06555,
        "longitude": 5.53176
    },
    {
        "name": "Boornbergum",
        "latitude": 53.08284,
        "longitude": 6.04578
    },
    {
        "name": "Broeksterw\u00e2ld",
        "latitude": 53.27466,
        "longitude": 5.99648
    },
    {
        "name": "Buitenpost",
        "latitude": 53.25166,
        "longitude": 6.14483
    },
    {
        "name": "Burdaard",
        "latitude": 53.29421,
        "longitude": 5.87897
    },
    {
        "name": "Burgum",
        "latitude": 53.19243,
        "longitude": 5.99009
    },
    {
        "name": "Camminghaburen",
        "latitude": 53.20973,
        "longitude": 5.84318
    },
    {
        "name": "Damw\u00e2ld",
        "latitude": 53.29046,
        "longitude": 5.99785
    },
    {
        "name": "De Domp",
        "latitude": 53.03113,
        "longitude": 5.67716
    },
    {
        "name": "De Drait",
        "latitude": 53.09743,
        "longitude": 6.06791
    },
    {
        "name": "De Fryske Marren",
        "latitude": 52.96906,
        "longitude": 5.77246
    },
    {
        "name": "De Greiden",
        "latitude": 52.9496,
        "longitude": 5.91366
    },
    {
        "name": "De Knipe",
        "latitude": 52.96829,
        "longitude": 5.97116
    },
    {
        "name": "De Westereen",
        "latitude": 53.25731,
        "longitude": 6.0363
    },
    {
        "name": "Dokkum",
        "latitude": 53.32224,
        "longitude": 5.99697
    },
    {
        "name": "Donkerbroek",
        "latitude": 53.01734,
        "longitude": 6.23927
    },
    {
        "name": "Drachten",
        "latitude": 53.11254,
        "longitude": 6.0989
    },
    {
        "name": "Drachtstercompagnie",
        "latitude": 53.13462,
        "longitude": 6.14153
    },
    {
        "name": "Drogeham",
        "latitude": 53.20213,
        "longitude": 6.11183
    },
    {
        "name": "Dronryp",
        "latitude": 53.2,
        "longitude": 5.65
    },
    {
        "name": "Eastermar",
        "latitude": 53.17466,
        "longitude": 6.05999
    },
    {
        "name": "Echtenerbrug",
        "latitude": 52.87141,
        "longitude": 5.82147
    },
    {
        "name": "Feanw\u00e2lden",
        "latitude": 53.23558,
        "longitude": 5.98832
    },
    {
        "name": "Ferwert",
        "latitude": 53.33784,
        "longitude": 5.82533
    },
    {
        "name": "Franeker",
        "latitude": 53.18546,
        "longitude": 5.54123
    },
    {
        "name": "Garyp",
        "latitude": 53.16667,
        "longitude": 5.96667
    },
    {
        "name": "Gorredijk",
        "latitude": 53.00659,
        "longitude": 6.06402
    },
    {
        "name": "Goutum",
        "latitude": 53.17734,
        "longitude": 5.8037
    },
    {
        "name": "Grou",
        "latitude": 53.09456,
        "longitude": 5.83745
    },
    {
        "name": "Gytsjerk",
        "latitude": 53.24293,
        "longitude": 5.89502
    },
    {
        "name": "Hallum",
        "latitude": 53.30657,
        "longitude": 5.78379
    },
    {
        "name": "Harkema",
        "latitude": 53.18333,
        "longitude": 6.13333
    },
    {
        "name": "Harlingen",
        "latitude": 53.17477,
        "longitude": 5.42244
    },
    {
        "name": "Haulerwijk",
        "latitude": 53.06468,
        "longitude": 6.33453
    },
    {
        "name": "Heechterp",
        "latitude": 53.20963,
        "longitude": 5.8225
    },
    {
        "name": "Heeg",
        "latitude": 52.9686,
        "longitude": 5.61075
    },
    {
        "name": "Heerenveen",
        "latitude": 52.95929,
        "longitude": 5.91854
    },
    {
        "name": "Hoek",
        "latitude": 53.20455,
        "longitude": 5.80192
    },
    {
        "name": "Hollum",
        "latitude": 53.4394,
        "longitude": 5.63805
    },
    {
        "name": "Holwerd",
        "latitude": 53.36815,
        "longitude": 5.90073
    },
    {
        "name": "Huizum",
        "latitude": 53.1917,
        "longitude": 5.81119
    },
    {
        "name": "Hurdegaryp",
        "latitude": 53.21333,
        "longitude": 5.94137
    },
    {
        "name": "IJlst",
        "latitude": 53.01009,
        "longitude": 5.62312
    },
    {
        "name": "Jirnsum",
        "latitude": 53.07753,
        "longitude": 5.79254
    },
    {
        "name": "Joure",
        "latitude": 52.9657,
        "longitude": 5.80301
    },
    {
        "name": "Jubbega",
        "latitude": 53.00396,
        "longitude": 6.12183
    },
    {
        "name": "Kollum",
        "latitude": 53.27695,
        "longitude": 6.15293
    },
    {
        "name": "Kollumerzwaag",
        "latitude": 53.26224,
        "longitude": 6.07544
    },
    {
        "name": "Kootstertille",
        "latitude": 53.21261,
        "longitude": 6.09209
    },
    {
        "name": "Koudum",
        "latitude": 52.91551,
        "longitude": 5.44834
    },
    {
        "name": "Langweer",
        "latitude": 52.95836,
        "longitude": 5.72173
    },
    {
        "name": "Leeuwarden",
        "latitude": 53.20139,
        "longitude": 5.80859
    },
    {
        "name": "Lemmer",
        "latitude": 52.84618,
        "longitude": 5.70912
    },
    {
        "name": "Makkum",
        "latitude": 53.05458,
        "longitude": 5.40231
    },
    {
        "name": "Mantgum",
        "latitude": 53.12865,
        "longitude": 5.71924
    },
    {
        "name": "Marrum",
        "latitude": 53.32277,
        "longitude": 5.80198
    },
    {
        "name": "Marsum",
        "latitude": 53.2105,
        "longitude": 5.72637
    },
    {
        "name": "Menaam",
        "latitude": 53.21797,
        "longitude": 5.66124
    },
    {
        "name": "Minnertsga",
        "latitude": 53.25104,
        "longitude": 5.59513
    },
    {
        "name": "Nes",
        "latitude": 53.44502,
        "longitude": 5.774
    },
    {
        "name": "Nieuwehorne",
        "latitude": 52.95113,
        "longitude": 6.06342
    },
    {
        "name": "Noardburgum",
        "latitude": 53.22135,
        "longitude": 6.00523
    },
    {
        "name": "Noordwolde",
        "latitude": 52.88964,
        "longitude": 6.14153
    },
    {
        "name": "Oentsjerk",
        "latitude": 53.25,
        "longitude": 5.9
    },
    {
        "name": "Oldeberkoop",
        "latitude": 52.93788,
        "longitude": 6.13089
    },
    {
        "name": "Oost-Vlieland",
        "latitude": 53.29703,
        "longitude": 5.07431
    },
    {
        "name": "Oosterwolde",
        "latitude": 52.99164,
        "longitude": 6.29096
    },
    {
        "name": "Opeinde",
        "latitude": 53.1341,
        "longitude": 6.05656
    },
    {
        "name": "Oppenhuizen",
        "latitude": 53.01194,
        "longitude": 5.69495
    },
    {
        "name": "Oranjewoud",
        "latitude": 52.94579,
        "longitude": 5.95038
    },
    {
        "name": "Oudega",
        "latitude": 53.12504,
        "longitude": 5.99888
    },
    {
        "name": "Oudehaske",
        "latitude": 52.95709,
        "longitude": 5.87095
    },
    {
        "name": "Oudemirdum",
        "latitude": 52.85019,
        "longitude": 5.53544
    },
    {
        "name": "Oudeschoot",
        "latitude": 52.93343,
        "longitude": 5.95579
    },
    {
        "name": "Rottevalle",
        "latitude": 53.14523,
        "longitude": 6.10411
    },
    {
        "name": "Scharnegoutum",
        "latitude": 53.06051,
        "longitude": 5.67822
    },
    {
        "name": "Schiermonnikoog",
        "latitude": 53.48025,
        "longitude": 6.15209
    },
    {
        "name": "Sexbierum",
        "latitude": 53.21823,
        "longitude": 5.48402
    },
    {
        "name": "Sint Annaparochie",
        "latitude": 53.2762,
        "longitude": 5.65727
    },
    {
        "name": "Sint Jacobiparochie",
        "latitude": 53.27291,
        "longitude": 5.60354
    },
    {
        "name": "Sint Nicolaasga",
        "latitude": 52.92293,
        "longitude": 5.74242
    },
    {
        "name": "Sintjohannesga",
        "latitude": 52.93157,
        "longitude": 5.85588
    },
    {
        "name": "Sneek",
        "latitude": 53.03297,
        "longitude": 5.6589
    },
    {
        "name": "Stadsfenne",
        "latitude": 53.03987,
        "longitude": 5.67844
    },
    {
        "name": "Stiens",
        "latitude": 53.26234,
        "longitude": 5.75769
    },
    {
        "name": "S\u00fbdwest Frysl\u00e2n",
        "latitude": 53.01056,
        "longitude": 5.5258
    },
    {
        "name": "Surhuisterveen",
        "latitude": 53.18477,
        "longitude": 6.17031
    },
    {
        "name": "Ternaard",
        "latitude": 53.38203,
        "longitude": 5.96523
    },
    {
        "name": "Tijnje",
        "latitude": 53.03058,
        "longitude": 5.99193
    },
    {
        "name": "Tinga",
        "latitude": 53.02064,
        "longitude": 5.64575
    },
    {
        "name": "Twijzel",
        "latitude": 53.23152,
        "longitude": 6.08952
    },
    {
        "name": "Twijzelerheide",
        "latitude": 53.24015,
        "longitude": 6.04591
    },
    {
        "name": "Tytsjerk",
        "latitude": 53.21343,
        "longitude": 5.90961
    },
    {
        "name": "Tzummarum",
        "latitude": 53.23733,
        "longitude": 5.54612
    },
    {
        "name": "Ureterp",
        "latitude": 53.09244,
        "longitude": 6.16718
    },
    {
        "name": "Waadhoeke",
        "latitude": 53.18947,
        "longitude": 5.50793
    },
    {
        "name": "Warga",
        "latitude": 53.15145,
        "longitude": 5.84404
    },
    {
        "name": "West-Terschelling",
        "latitude": 53.35911,
        "longitude": 5.21482
    },
    {
        "name": "Westeinde",
        "latitude": 53.20853,
        "longitude": 5.76812
    },
    {
        "name": "Wijnjewoude",
        "latitude": 53.05814,
        "longitude": 6.2047
    },
    {
        "name": "Wirdum",
        "latitude": 53.14893,
        "longitude": 5.80387
    },
    {
        "name": "Witmarsum",
        "latitude": 53.10452,
        "longitude": 5.46902
    },
    {
        "name": "Wolvega",
        "latitude": 52.87545,
        "longitude": 5.99691
    },
    {
        "name": "Wommels",
        "latitude": 53.10883,
        "longitude": 5.58749
    },
    {
        "name": "Workum",
        "latitude": 52.97969,
        "longitude": 5.4471
    },
    {
        "name": "Woudsend",
        "latitude": 52.94357,
        "longitude": 5.62843
    },
    {
        "name": "Zuiderburen",
        "latitude": 53.1734,
        "longitude": 5.84271
    },
    {
        "name": "'s-Heerenberg",
        "latitude": 51.8767,
        "longitude": 6.25877
    },
    {
        "name": "Aalst",
        "latitude": 51.7825,
        "longitude": 5.12778
    },
    {
        "name": "Aalten",
        "latitude": 51.925,
        "longitude": 6.58056
    },
    {
        "name": "Afferden",
        "latitude": 51.88,
        "longitude": 5.63472
    },
    {
        "name": "Alverna",
        "latitude": 51.80417,
        "longitude": 5.75972
    },
    {
        "name": "Ammerzoden",
        "latitude": 51.74917,
        "longitude": 5.22083
    },
    {
        "name": "Andelst",
        "latitude": 51.90833,
        "longitude": 5.72917
    },
    {
        "name": "Angeren",
        "latitude": 51.91583,
        "longitude": 5.95833
    },
    {
        "name": "Angerlo",
        "latitude": 51.99583,
        "longitude": 6.13472
    },
    {
        "name": "Anklaar",
        "latitude": 52.23111,
        "longitude": 5.98497
    },
    {
        "name": "Apeldoorn",
        "latitude": 52.21,
        "longitude": 5.96944
    },
    {
        "name": "Arnhem",
        "latitude": 51.98,
        "longitude": 5.91111
    },
    {
        "name": "Babberich",
        "latitude": 51.9075,
        "longitude": 6.11111
    },
    {
        "name": "Bakenberg",
        "latitude": 52.00511,
        "longitude": 5.8771
    },
    {
        "name": "Barneveld",
        "latitude": 52.14,
        "longitude": 5.58472
    },
    {
        "name": "Beek gem Montferland",
        "latitude": 51.90667,
        "longitude": 6.1875
    },
    {
        "name": "Beekbergen",
        "latitude": 52.16,
        "longitude": 5.96389
    },
    {
        "name": "Beesd",
        "latitude": 51.8875,
        "longitude": 5.19167
    },
    {
        "name": "Beltrum",
        "latitude": 52.06667,
        "longitude": 6.56389
    },
    {
        "name": "Bemmel",
        "latitude": 51.89167,
        "longitude": 5.89861
    },
    {
        "name": "Bennekom",
        "latitude": 51.99833,
        "longitude": 5.67639
    },
    {
        "name": "Berg en Bos",
        "latitude": 52.22009,
        "longitude": 5.9334
    },
    {
        "name": "Berg en Dal",
        "latitude": 51.82167,
        "longitude": 5.91667
    },
    {
        "name": "Bergharen",
        "latitude": 51.85083,
        "longitude": 5.66944
    },
    {
        "name": "Berkelland",
        "latitude": 52.10606,
        "longitude": 6.56748
    },
    {
        "name": "Beuningen",
        "latitude": 51.86083,
        "longitude": 5.76667
    },
    {
        "name": "Beusichem",
        "latitude": 51.95,
        "longitude": 5.29167
    },
    {
        "name": "Binnenstad",
        "latitude": 52.21304,
        "longitude": 5.95957
    },
    {
        "name": "Borculo",
        "latitude": 52.11583,
        "longitude": 6.52222
    },
    {
        "name": "Brakel",
        "latitude": 51.8175,
        "longitude": 5.09028
    },
    {
        "name": "Brakkenstein",
        "latitude": 51.81324,
        "longitude": 5.86539
    },
    {
        "name": "Bredevoort",
        "latitude": 51.94167,
        "longitude": 6.62083
    },
    {
        "name": "Bredeweg",
        "latitude": 51.76019,
        "longitude": 5.94189
    },
    {
        "name": "Brinkhorst",
        "latitude": 52.21302,
        "longitude": 5.95167
    },
    {
        "name": "Bruchem",
        "latitude": 51.78667,
        "longitude": 5.23611
    },
    {
        "name": "Brummelhof",
        "latitude": 52.20503,
        "longitude": 5.96789
    },
    {
        "name": "Brummen",
        "latitude": 52.09,
        "longitude": 6.15556
    },
    {
        "name": "Burgemeesterswijk",
        "latitude": 51.98943,
        "longitude": 5.89597
    },
    {
        "name": "Componistenkwartier",
        "latitude": 52.18977,
        "longitude": 5.96609
    },
    {
        "name": "Corlaer",
        "latitude": 52.21639,
        "longitude": 5.46535
    },
    {
        "name": "Culemborg",
        "latitude": 51.955,
        "longitude": 5.22778
    },
    {
        "name": "De Bouwhof",
        "latitude": 52.18546,
        "longitude": 5.94704
    },
    {
        "name": "De Haven",
        "latitude": 52.21045,
        "longitude": 5.97407
    },
    {
        "name": "De Heeze",
        "latitude": 52.20061,
        "longitude": 5.95365
    },
    {
        "name": "De Mheen",
        "latitude": 52.21954,
        "longitude": 5.99141
    },
    {
        "name": "Deest",
        "latitude": 51.89,
        "longitude": 5.66667
    },
    {
        "name": "Deil",
        "latitude": 51.88417,
        "longitude": 5.24306
    },
    {
        "name": "Dieren",
        "latitude": 52.0525,
        "longitude": 6.1
    },
    {
        "name": "Doesburg",
        "latitude": 52.0125,
        "longitude": 6.13889
    },
    {
        "name": "Doetinchem",
        "latitude": 51.965,
        "longitude": 6.28889
    },
    {
        "name": "Doornenburg",
        "latitude": 51.89,
        "longitude": 6.0
    },
    {
        "name": "Doornspijk",
        "latitude": 52.41833,
        "longitude": 5.81806
    },
    {
        "name": "Doornsteeg",
        "latitude": 52.23,
        "longitude": 5.45417
    },
    {
        "name": "Doorwerth",
        "latitude": 51.97917,
        "longitude": 5.79722
    },
    {
        "name": "Driehuizen",
        "latitude": 52.20879,
        "longitude": 5.94442
    },
    {
        "name": "Driel",
        "latitude": 51.95917,
        "longitude": 5.81389
    },
    {
        "name": "Drumpt",
        "latitude": 51.897,
        "longitude": 5.41043
    },
    {
        "name": "Druten",
        "latitude": 51.88833,
        "longitude": 5.60556
    },
    {
        "name": "Duiven",
        "latitude": 51.94667,
        "longitude": 6.01389
    },
    {
        "name": "Ede",
        "latitude": 52.03333,
        "longitude": 5.65833
    },
    {
        "name": "Ederveen",
        "latitude": 52.06333,
        "longitude": 5.57778
    },
    {
        "name": "Eefde",
        "latitude": 52.16667,
        "longitude": 6.225
    },
    {
        "name": "Eerbeek",
        "latitude": 52.105,
        "longitude": 6.05833
    },
    {
        "name": "Eibergen",
        "latitude": 52.1,
        "longitude": 6.64861
    },
    {
        "name": "Elburg",
        "latitude": 52.4475,
        "longitude": 5.84306
    },
    {
        "name": "Elden",
        "latitude": 51.95833,
        "longitude": 5.88194
    },
    {
        "name": "Ellecom",
        "latitude": 52.0325,
        "longitude": 6.0875
    },
    {
        "name": "Elspeet",
        "latitude": 52.29167,
        "longitude": 5.78889
    },
    {
        "name": "Elst",
        "latitude": 51.91917,
        "longitude": 5.84167
    },
    {
        "name": "Emst",
        "latitude": 52.31583,
        "longitude": 5.97361
    },
    {
        "name": "Epe",
        "latitude": 52.3475,
        "longitude": 5.98333
    },
    {
        "name": "Epse",
        "latitude": 52.225,
        "longitude": 6.2
    },
    {
        "name": "Ermelo",
        "latitude": 52.29833,
        "longitude": 5.62222
    },
    {
        "name": "Etten",
        "latitude": 51.91667,
        "longitude": 6.33611
    },
    {
        "name": "Gameren",
        "latitude": 51.80083,
        "longitude": 5.20417
    },
    {
        "name": "Garderen",
        "latitude": 52.23083,
        "longitude": 5.71389
    },
    {
        "name": "Geitenkamp",
        "latitude": 52.00379,
        "longitude": 5.93862
    },
    {
        "name": "Geldermalsen",
        "latitude": 51.88083,
        "longitude": 5.28889
    },
    {
        "name": "Geldermalsen-West",
        "latitude": 51.87968,
        "longitude": 5.28015
    },
    {
        "name": "Gendringen",
        "latitude": 51.87333,
        "longitude": 6.37639
    },
    {
        "name": "Gendt",
        "latitude": 51.8775,
        "longitude": 5.97083
    },
    {
        "name": "Giesbeek",
        "latitude": 51.99333,
        "longitude": 6.06667
    },
    {
        "name": "Gorssel",
        "latitude": 52.20167,
        "longitude": 6.20139
    },
    {
        "name": "Groesbeek",
        "latitude": 51.77667,
        "longitude": 5.93611
    },
    {
        "name": "Groessen",
        "latitude": 51.93167,
        "longitude": 6.02639
    },
    {
        "name": "Gulden Bodem",
        "latitude": 51.99428,
        "longitude": 5.8908
    },
    {
        "name": "Haaften",
        "latitude": 51.81583,
        "longitude": 5.21111
    },
    {
        "name": "Haalderen",
        "latitude": 51.8875,
        "longitude": 5.92917
    },
    {
        "name": "Harderwijk",
        "latitude": 52.34167,
        "longitude": 5.62083
    },
    {
        "name": "Harskamp",
        "latitude": 52.13,
        "longitude": 5.75278
    },
    {
        "name": "Hatert",
        "latitude": 51.80635,
        "longitude": 5.83057
    },
    {
        "name": "Hattem",
        "latitude": 52.475,
        "longitude": 6.06389
    },
    {
        "name": "Hattemerbroek",
        "latitude": 52.47417,
        "longitude": 6.02222
    },
    {
        "name": "Hedel",
        "latitude": 51.74802,
        "longitude": 5.26134
    },
    {
        "name": "Heelsum",
        "latitude": 51.98417,
        "longitude": 5.75833
    },
    {
        "name": "Heerde",
        "latitude": 52.38723,
        "longitude": 6.04016
    },
    {
        "name": "Heerewaarden",
        "latitude": 51.81769,
        "longitude": 5.393
    },
    {
        "name": "Hees",
        "latitude": 51.84136,
        "longitude": 5.82846
    },
    {
        "name": "Hengelo",
        "latitude": 52.05083,
        "longitude": 6.30972
    },
    {
        "name": "Hengstdal",
        "latitude": 51.83333,
        "longitude": 5.88333
    },
    {
        "name": "Herwijnen",
        "latitude": 51.82667,
        "longitude": 5.12917
    },
    {
        "name": "Het Loo",
        "latitude": 52.2339,
        "longitude": 5.95275
    },
    {
        "name": "Heteren",
        "latitude": 51.95667,
        "longitude": 5.75556
    },
    {
        "name": "Heumen",
        "latitude": 51.765,
        "longitude": 5.84444
    },
    {
        "name": "Hoogkamp",
        "latitude": 51.9963,
        "longitude": 5.88026
    },
    {
        "name": "Horssen",
        "latitude": 51.85583,
        "longitude": 5.60972
    },
    {
        "name": "Hummelo",
        "latitude": 52.00417,
        "longitude": 6.23333
    },
    {
        "name": "Hunnerberg",
        "latitude": 51.84209,
        "longitude": 5.87876
    },
    {
        "name": "Ingen",
        "latitude": 51.95917,
        "longitude": 5.48472
    },
    {
        "name": "Keijenborg",
        "latitude": 52.02917,
        "longitude": 6.29444
    },
    {
        "name": "Kerkdriel",
        "latitude": 51.77167,
        "longitude": 5.33472
    },
    {
        "name": "Kerschoten",
        "latitude": 52.23333,
        "longitude": 5.96667
    },
    {
        "name": "Kesteren",
        "latitude": 51.935,
        "longitude": 5.56944
    },
    {
        "name": "Kootwijkerbroek",
        "latitude": 52.15083,
        "longitude": 5.66944
    },
    {
        "name": "Laren",
        "latitude": 52.19417,
        "longitude": 6.36528
    },
    {
        "name": "Leesten",
        "latitude": 52.1279,
        "longitude": 6.23217
    },
    {
        "name": "Lent",
        "latitude": 51.86167,
        "longitude": 5.86667
    },
    {
        "name": "Leuth",
        "latitude": 51.83917,
        "longitude": 5.99167
    },
    {
        "name": "Lichtenvoorde",
        "latitude": 51.98667,
        "longitude": 6.56667
    },
    {
        "name": "Lienden",
        "latitude": 51.94833,
        "longitude": 5.51806
    },
    {
        "name": "Lindenholt",
        "latitude": 51.8327,
        "longitude": 5.7934
    },
    {
        "name": "Lobith",
        "latitude": 51.8625,
        "longitude": 6.11806
    },
    {
        "name": "Lochem",
        "latitude": 52.15917,
        "longitude": 6.41111
    },
    {
        "name": "Loenen",
        "latitude": 52.1175,
        "longitude": 6.01944
    },
    {
        "name": "Lunteren",
        "latitude": 52.085,
        "longitude": 5.62222
    },
    {
        "name": "Malburgen West",
        "latitude": 51.96811,
        "longitude": 5.89743
    },
    {
        "name": "Matendonk",
        "latitude": 52.19766,
        "longitude": 6.01115
    },
    {
        "name": "Matendreef",
        "latitude": 52.19993,
        "longitude": 5.98592
    },
    {
        "name": "Matengaarde",
        "latitude": 52.19793,
        "longitude": 5.9957
    },
    {
        "name": "Matenhoeve",
        "latitude": 52.19056,
        "longitude": 6.01338
    },
    {
        "name": "Matenhorst",
        "latitude": 52.20482,
        "longitude": 5.99304
    },
    {
        "name": "Matenveld",
        "latitude": 52.18767,
        "longitude": 5.99879
    },
    {
        "name": "Maurik",
        "latitude": 51.96083,
        "longitude": 5.42222
    },
    {
        "name": "Meteren",
        "latitude": 51.865,
        "longitude": 5.28333
    },
    {
        "name": "Nederhemert",
        "latitude": 51.76518,
        "longitude": 5.16817
    },
    {
        "name": "Nederhemert-Noord",
        "latitude": 51.76322,
        "longitude": 5.17305
    },
    {
        "name": "Nederwoud",
        "latitude": 52.10083,
        "longitude": 5.57083
    },
    {
        "name": "Neede",
        "latitude": 52.13417,
        "longitude": 6.61389
    },
    {
        "name": "Nijkerk",
        "latitude": 52.22,
        "longitude": 5.48611
    },
    {
        "name": "Nijkerkerveen",
        "latitude": 52.195,
        "longitude": 5.46667
    },
    {
        "name": "Nijmegen",
        "latitude": 51.8425,
        "longitude": 5.85278
    },
    {
        "name": "Nunspeet",
        "latitude": 52.37917,
        "longitude": 5.78611
    },
    {
        "name": "Ochten",
        "latitude": 51.91,
        "longitude": 5.56944
    },
    {
        "name": "Oldebroek",
        "latitude": 52.445,
        "longitude": 5.90139
    },
    {
        "name": "Ooij",
        "latitude": 51.85465,
        "longitude": 5.93915
    },
    {
        "name": "Oost Gelre",
        "latitude": 52.00425,
        "longitude": 6.54958
    },
    {
        "name": "Oostendorp",
        "latitude": 52.44722,
        "longitude": 5.85443
    },
    {
        "name": "Oosterbeek",
        "latitude": 51.98583,
        "longitude": 5.84583
    },
    {
        "name": "Oosterhout",
        "latitude": 51.88,
        "longitude": 5.82639
    },
    {
        "name": "Ooy",
        "latitude": 51.91917,
        "longitude": 6.05833
    },
    {
        "name": "Ooyerhoek",
        "latitude": 52.12838,
        "longitude": 6.22307
    },
    {
        "name": "Ophemert",
        "latitude": 51.845,
        "longitude": 5.3875
    },
    {
        "name": "Opheusden",
        "latitude": 51.93167,
        "longitude": 5.63194
    },
    {
        "name": "Opijnen",
        "latitude": 51.82917,
        "longitude": 5.29861
    },
    {
        "name": "Orden",
        "latitude": 52.20113,
        "longitude": 5.93417
    },
    {
        "name": "Otterlo",
        "latitude": 52.1,
        "longitude": 5.77222
    },
    {
        "name": "Oude IJsselstreek",
        "latitude": 51.89963,
        "longitude": 6.38078
    },
    {
        "name": "Overasselt",
        "latitude": 51.76,
        "longitude": 5.78889
    },
    {
        "name": "Pannerden",
        "latitude": 51.89083,
        "longitude": 6.03889
    },
    {
        "name": "Puiflijk",
        "latitude": 51.87833,
        "longitude": 5.59028
    },
    {
        "name": "Putten",
        "latitude": 52.25917,
        "longitude": 5.60694
    },
    {
        "name": "Renkum",
        "latitude": 51.97667,
        "longitude": 5.73333
    },
    {
        "name": "Rheden",
        "latitude": 52.005,
        "longitude": 6.02917
    },
    {
        "name": "Rivierenkwartier",
        "latitude": 52.18914,
        "longitude": 5.97665
    },
    {
        "name": "Rossum",
        "latitude": 51.80083,
        "longitude": 5.33333
    },
    {
        "name": "Rozendaal",
        "latitude": 52.00583,
        "longitude": 5.9625
    },
    {
        "name": "Ruurlo",
        "latitude": 52.08833,
        "longitude": 6.45
    },
    {
        "name": "Scherpenzeel",
        "latitude": 52.08,
        "longitude": 5.48889
    },
    {
        "name": "Silvolde",
        "latitude": 51.90917,
        "longitude": 6.3875
    },
    {
        "name": "Sluisoord",
        "latitude": 52.22291,
        "longitude": 5.98145
    },
    {
        "name": "Spainkbos",
        "latitude": 52.22228,
        "longitude": 5.94738
    },
    {
        "name": "Sprengenbos",
        "latitude": 52.21902,
        "longitude": 5.94163
    },
    {
        "name": "Sprengenweg-Noord",
        "latitude": 52.21839,
        "longitude": 5.95068
    },
    {
        "name": "Sprenkelaar",
        "latitude": 52.22512,
        "longitude": 5.99922
    },
    {
        "name": "Staatsliedenkwartier",
        "latitude": 52.19951,
        "longitude": 5.97691
    },
    {
        "name": "Steenderen",
        "latitude": 52.06417,
        "longitude": 6.1875
    },
    {
        "name": "Stegeslag",
        "latitude": 51.94151,
        "longitude": 6.06194
    },
    {
        "name": "Sterrenberg",
        "latitude": 51.9935,
        "longitude": 5.88387
    },
    {
        "name": "Terborg",
        "latitude": 51.92,
        "longitude": 6.35417
    },
    {
        "name": "Terschuur",
        "latitude": 52.165,
        "longitude": 5.51667
    },
    {
        "name": "Terwolde",
        "latitude": 52.28333,
        "longitude": 6.1
    },
    {
        "name": "Tiel",
        "latitude": 51.88667,
        "longitude": 5.42917
    },
    {
        "name": "Tolkamer",
        "latitude": 51.855,
        "longitude": 6.10278
    },
    {
        "name": "Tricht",
        "latitude": 51.89083,
        "longitude": 5.26806
    },
    {
        "name": "Twello",
        "latitude": 52.23667,
        "longitude": 6.10278
    },
    {
        "name": "Uddel",
        "latitude": 52.25917,
        "longitude": 5.78056
    },
    {
        "name": "Ugchelen",
        "latitude": 52.18464,
        "longitude": 5.93177
    },
    {
        "name": "Vaassen",
        "latitude": 52.28583,
        "longitude": 5.96667
    },
    {
        "name": "Valburg",
        "latitude": 51.91167,
        "longitude": 5.79028
    },
    {
        "name": "Valendries",
        "latitude": 51.80658,
        "longitude": 5.73445
    },
    {
        "name": "Varsseveld",
        "latitude": 51.94333,
        "longitude": 6.45833
    },
    {
        "name": "Velp",
        "latitude": 51.995,
        "longitude": 5.97361
    },
    {
        "name": "Vogelkwartier",
        "latitude": 52.19777,
        "longitude": 5.96721
    },
    {
        "name": "Voorst",
        "latitude": 52.17,
        "longitude": 6.14167
    },
    {
        "name": "Voorthuizen",
        "latitude": 52.18667,
        "longitude": 5.60556
    },
    {
        "name": "Vorden",
        "latitude": 52.105,
        "longitude": 6.30972
    },
    {
        "name": "Vredenburg",
        "latitude": 51.95355,
        "longitude": 5.90284
    },
    {
        "name": "Vuren",
        "latitude": 51.825,
        "longitude": 5.04583
    },
    {
        "name": "Waardenburg",
        "latitude": 51.8325,
        "longitude": 5.25694
    },
    {
        "name": "Wageningen",
        "latitude": 51.97,
        "longitude": 5.66667
    },
    {
        "name": "Wapenveld",
        "latitude": 52.42917,
        "longitude": 6.07361
    },
    {
        "name": "Warnsveld",
        "latitude": 52.1375,
        "longitude": 6.23056
    },
    {
        "name": "Wekerom",
        "latitude": 52.1125,
        "longitude": 5.71389
    },
    {
        "name": "Welgelegen",
        "latitude": 52.21397,
        "longitude": 5.97643
    },
    {
        "name": "West Betuwe",
        "latitude": 51.86158,
        "longitude": 5.20935
    },
    {
        "name": "Westeneng",
        "latitude": 52.1275,
        "longitude": 5.71528
    },
    {
        "name": "Westenenk",
        "latitude": 52.19624,
        "longitude": 5.95656
    },
    {
        "name": "Westervoort",
        "latitude": 51.95583,
        "longitude": 5.97222
    },
    {
        "name": "Wijchen",
        "latitude": 51.80917,
        "longitude": 5.725
    },
    {
        "name": "Winkewijert",
        "latitude": 52.19082,
        "longitude": 5.95794
    },
    {
        "name": "Winterswijk",
        "latitude": 51.9725,
        "longitude": 6.71944
    },
    {
        "name": "Wisch",
        "latitude": 51.92648,
        "longitude": 6.41705
    },
    {
        "name": "Wolfheze",
        "latitude": 52.00333,
        "longitude": 5.79028
    },
    {
        "name": "Woudhuis",
        "latitude": 52.21323,
        "longitude": 6.01124
    },
    {
        "name": "Zaltbommel",
        "latitude": 51.81,
        "longitude": 5.24444
    },
    {
        "name": "Zeddam",
        "latitude": 51.90333,
        "longitude": 6.25972
    },
    {
        "name": "Zelhem",
        "latitude": 52.00667,
        "longitude": 6.34861
    },
    {
        "name": "Zetten",
        "latitude": 51.92833,
        "longitude": 5.71389
    },
    {
        "name": "Zevenaar",
        "latitude": 51.93,
        "longitude": 6.07083
    },
    {
        "name": "Zevenhuizen",
        "latitude": 52.21816,
        "longitude": 5.97841
    },
    {
        "name": "Zoelen",
        "latitude": 51.9125,
        "longitude": 5.40278
    },
    {
        "name": "Zonnemaat",
        "latitude": 51.93115,
        "longitude": 6.06235
    },
    {
        "name": "Zuilichem",
        "latitude": 51.80917,
        "longitude": 5.13611
    },
    {
        "name": "Zutphen",
        "latitude": 52.13833,
        "longitude": 6.20139
    },
    {
        "name": "Aduard",
        "latitude": 53.25667,
        "longitude": 6.45972
    },
    {
        "name": "Appingedam",
        "latitude": 53.32167,
        "longitude": 6.85833
    },
    {
        "name": "Baflo",
        "latitude": 53.3625,
        "longitude": 6.51389
    },
    {
        "name": "Bedum",
        "latitude": 53.30083,
        "longitude": 6.60278
    },
    {
        "name": "Bellingwolde",
        "latitude": 53.11583,
        "longitude": 7.16528
    },
    {
        "name": "Blijham",
        "latitude": 53.10917,
        "longitude": 7.07639
    },
    {
        "name": "Coendersborg",
        "latitude": 53.1941,
        "longitude": 6.58944
    },
    {
        "name": "De Wijert",
        "latitude": 53.1945,
        "longitude": 6.57117
    },
    {
        "name": "Delfzijl",
        "latitude": 53.33,
        "longitude": 6.91806
    },
    {
        "name": "Eenrum",
        "latitude": 53.3625,
        "longitude": 6.45833
    },
    {
        "name": "Eexta",
        "latitude": 53.16386,
        "longitude": 6.98344
    },
    {
        "name": "Farmsum",
        "latitude": 53.32167,
        "longitude": 6.92639
    },
    {
        "name": "Gemeente Appingedam",
        "latitude": 53.31926,
        "longitude": 6.84864
    },
    {
        "name": "Gemeente Delfzijl",
        "latitude": 53.30019,
        "longitude": 6.93129
    },
    {
        "name": "Gemeente Groningen",
        "latitude": 53.22369,
        "longitude": 6.56479
    },
    {
        "name": "Gemeente Loppersum",
        "latitude": 53.33849,
        "longitude": 6.72149
    },
    {
        "name": "Gemeente Oldambt",
        "latitude": 53.16859,
        "longitude": 7.04224
    },
    {
        "name": "Gemeente Pekela",
        "latitude": 53.05969,
        "longitude": 6.9651
    },
    {
        "name": "Gemeente Stadskanaal",
        "latitude": 53.00005,
        "longitude": 6.98906
    },
    {
        "name": "Gemeente Veendam",
        "latitude": 53.08951,
        "longitude": 6.87923
    },
    {
        "name": "Glimmen",
        "latitude": 53.13917,
        "longitude": 6.62917
    },
    {
        "name": "Grijpskerk",
        "latitude": 53.2625,
        "longitude": 6.30833
    },
    {
        "name": "Groningen",
        "latitude": 53.21917,
        "longitude": 6.56667
    },
    {
        "name": "Grootegast",
        "latitude": 53.2125,
        "longitude": 6.27361
    },
    {
        "name": "Haren",
        "latitude": 53.17209,
        "longitude": 6.60931
    },
    {
        "name": "Harkstede",
        "latitude": 53.21333,
        "longitude": 6.69861
    },
    {
        "name": "Heiligerlee",
        "latitude": 53.15667,
        "longitude": 7.00972
    },
    {
        "name": "Helpman",
        "latitude": 53.19794,
        "longitude": 6.57978
    },
    {
        "name": "Hoogezand",
        "latitude": 53.16167,
        "longitude": 6.76111
    },
    {
        "name": "Korrewegwijk",
        "latitude": 53.23235,
        "longitude": 6.56804
    },
    {
        "name": "Leek",
        "latitude": 53.1625,
        "longitude": 6.37639
    },
    {
        "name": "Leens",
        "latitude": 53.36,
        "longitude": 6.37917
    },
    {
        "name": "Loppersum",
        "latitude": 53.33167,
        "longitude": 6.74722
    },
    {
        "name": "Marum",
        "latitude": 53.14417,
        "longitude": 6.2625
    },
    {
        "name": "Meeden",
        "latitude": 53.14,
        "longitude": 6.92639
    },
    {
        "name": "Middelstum",
        "latitude": 53.34667,
        "longitude": 6.64167
    },
    {
        "name": "Midden-Groningen",
        "latitude": 53.15113,
        "longitude": 6.83313
    },
    {
        "name": "Midwolda",
        "latitude": 53.195,
        "longitude": 7.01389
    },
    {
        "name": "Niekerk",
        "latitude": 53.225,
        "longitude": 6.35278
    },
    {
        "name": "Nieuwe Pekela",
        "latitude": 53.07917,
        "longitude": 6.96528
    },
    {
        "name": "Nieuwolda",
        "latitude": 53.24417,
        "longitude": 6.975
    },
    {
        "name": "Noordbroek",
        "latitude": 53.195,
        "longitude": 6.87361
    },
    {
        "name": "Noordhorn",
        "latitude": 53.26167,
        "longitude": 6.39583
    },
    {
        "name": "Obergum",
        "latitude": 53.33333,
        "longitude": 6.51667
    },
    {
        "name": "Oldehove",
        "latitude": 53.30333,
        "longitude": 6.39583
    },
    {
        "name": "Ommelanderwijk",
        "latitude": 53.08917,
        "longitude": 6.90556
    },
    {
        "name": "Onstwedde",
        "latitude": 53.035,
        "longitude": 7.04028
    },
    {
        "name": "Oosterhoogebrug",
        "latitude": 53.22892,
        "longitude": 6.60141
    },
    {
        "name": "Oosterpark",
        "latitude": 53.2237,
        "longitude": 6.5853
    },
    {
        "name": "Oude Pekela",
        "latitude": 53.10417,
        "longitude": 7.00972
    },
    {
        "name": "Reitdiep",
        "latitude": 53.24252,
        "longitude": 6.51957
    },
    {
        "name": "Sappemeer",
        "latitude": 53.16417,
        "longitude": 6.79028
    },
    {
        "name": "Scheemda",
        "latitude": 53.17333,
        "longitude": 6.97222
    },
    {
        "name": "Schildwolde",
        "latitude": 53.23327,
        "longitude": 6.81566
    },
    {
        "name": "Sellingen",
        "latitude": 52.94583,
        "longitude": 7.15139
    },
    {
        "name": "Selwerd",
        "latitude": 53.2352,
        "longitude": 6.5545
    },
    {
        "name": "Siddeburen",
        "latitude": 53.25,
        "longitude": 6.86806
    },
    {
        "name": "Slochteren",
        "latitude": 53.22078,
        "longitude": 6.80547
    },
    {
        "name": "Spijk",
        "latitude": 53.39,
        "longitude": 6.8375
    },
    {
        "name": "Stadskanaal",
        "latitude": 52.98947,
        "longitude": 6.9504
    },
    {
        "name": "Ten Boer",
        "latitude": 53.27583,
        "longitude": 6.69444
    },
    {
        "name": "Ter Apel",
        "latitude": 52.87667,
        "longitude": 7.05972
    },
    {
        "name": "Tuikwerd",
        "latitude": 53.31667,
        "longitude": 6.9
    },
    {
        "name": "Uithuizen",
        "latitude": 53.4075,
        "longitude": 6.67083
    },
    {
        "name": "Uithuizermeeden",
        "latitude": 53.41417,
        "longitude": 6.72361
    },
    {
        "name": "Ulrum",
        "latitude": 53.35917,
        "longitude": 6.33333
    },
    {
        "name": "Usquert",
        "latitude": 53.4025,
        "longitude": 6.61111
    },
    {
        "name": "Veendam",
        "latitude": 53.10667,
        "longitude": 6.87917
    },
    {
        "name": "Vlagtwedde",
        "latitude": 53.0275,
        "longitude": 7.10833
    },
    {
        "name": "Wagenborgen",
        "latitude": 53.25583,
        "longitude": 6.93333
    },
    {
        "name": "Warffum",
        "latitude": 53.3925,
        "longitude": 6.55833
    },
    {
        "name": "Westerlee",
        "latitude": 53.14583,
        "longitude": 6.9875
    },
    {
        "name": "Westerwolde",
        "latitude": 53.028,
        "longitude": 7.15671
    },
    {
        "name": "Wildervank",
        "latitude": 53.08083,
        "longitude": 6.8625
    },
    {
        "name": "Winschoten",
        "latitude": 53.14417,
        "longitude": 7.03472
    },
    {
        "name": "Winsum",
        "latitude": 53.33,
        "longitude": 6.52083
    },
    {
        "name": "Zoutkamp",
        "latitude": 53.33917,
        "longitude": 6.30417
    },
    {
        "name": "Zuidbroek",
        "latitude": 53.16333,
        "longitude": 6.86111
    },
    {
        "name": "Zuidhorn",
        "latitude": 53.24667,
        "longitude": 6.40278
    },
    {
        "name": "Abdissenbosch",
        "latitude": 50.91667,
        "longitude": 6.03333
    },
    {
        "name": "Amby",
        "latitude": 50.86215,
        "longitude": 5.73226
    },
    {
        "name": "America",
        "latitude": 51.43667,
        "longitude": 5.97917
    },
    {
        "name": "Amstenrade",
        "latitude": 50.93917,
        "longitude": 5.92361
    },
    {
        "name": "Arcen",
        "latitude": 51.47667,
        "longitude": 6.18056
    },
    {
        "name": "Baarlo",
        "latitude": 51.33083,
        "longitude": 6.09444
    },
    {
        "name": "Banholt",
        "latitude": 50.79,
        "longitude": 5.80833
    },
    {
        "name": "Beegden",
        "latitude": 51.18917,
        "longitude": 5.91944
    },
    {
        "name": "Beek",
        "latitude": 50.94083,
        "longitude": 5.79722
    },
    {
        "name": "Beersdal",
        "latitude": 50.90597,
        "longitude": 5.9644
    },
    {
        "name": "Beesel",
        "latitude": 51.26833,
        "longitude": 6.03889
    },
    {
        "name": "Belfort",
        "latitude": 50.84698,
        "longitude": 5.65991
    },
    {
        "name": "Berg",
        "latitude": 50.86167,
        "longitude": 5.78333
    },
    {
        "name": "Beringe",
        "latitude": 51.33667,
        "longitude": 5.94861
    },
    {
        "name": "Biesland",
        "latitude": 50.8411,
        "longitude": 5.67573
    },
    {
        "name": "Bleijerheide",
        "latitude": 50.85538,
        "longitude": 6.06789
    },
    {
        "name": "Blitterswijck",
        "latitude": 51.53083,
        "longitude": 6.10833
    },
    {
        "name": "Bocholtz",
        "latitude": 50.81833,
        "longitude": 6.00556
    },
    {
        "name": "Borgharen",
        "latitude": 50.8775,
        "longitude": 5.6875
    },
    {
        "name": "Born",
        "latitude": 51.03167,
        "longitude": 5.80972
    },
    {
        "name": "Brabander",
        "latitude": 51.53583,
        "longitude": 5.96806
    },
    {
        "name": "Brachterbeek",
        "latitude": 51.14694,
        "longitude": 5.90446
    },
    {
        "name": "Broekhem",
        "latitude": 50.87119,
        "longitude": 5.82069
    },
    {
        "name": "Broeksittard",
        "latitude": 51.0029,
        "longitude": 5.89511
    },
    {
        "name": "Brukske",
        "latitude": 51.52101,
        "longitude": 5.9927
    },
    {
        "name": "Brunssum",
        "latitude": 50.94667,
        "longitude": 5.97083
    },
    {
        "name": "Buchten",
        "latitude": 51.04333,
        "longitude": 5.80972
    },
    {
        "name": "Budschop",
        "latitude": 51.28511,
        "longitude": 5.75898
    },
    {
        "name": "Bunde",
        "latitude": 50.89667,
        "longitude": 5.73194
    },
    {
        "name": "Chevremont",
        "latitude": 50.87554,
        "longitude": 6.05981
    },
    {
        "name": "De Heeg",
        "latitude": 50.82454,
        "longitude": 5.72309
    },
    {
        "name": "Doenrade",
        "latitude": 50.9675,
        "longitude": 5.90694
    },
    {
        "name": "Egchel",
        "latitude": 51.31417,
        "longitude": 5.97222
    },
    {
        "name": "Eijsden",
        "latitude": 50.78,
        "longitude": 5.7177
    },
    {
        "name": "Eijsden-Margraten",
        "latitude": 50.8009,
        "longitude": 5.77408
    },
    {
        "name": "Einighausen",
        "latitude": 51.00167,
        "longitude": 5.82778
    },
    {
        "name": "Elsloo",
        "latitude": 50.94917,
        "longitude": 5.77083
    },
    {
        "name": "Geleen",
        "latitude": 50.97417,
        "longitude": 5.82917
    },
    {
        "name": "Gennep",
        "latitude": 51.69833,
        "longitude": 5.97361
    },
    {
        "name": "Gracht",
        "latitude": 50.85175,
        "longitude": 6.02793
    },
    {
        "name": "Grashoek",
        "latitude": 51.36083,
        "longitude": 5.94306
    },
    {
        "name": "Grevenbicht",
        "latitude": 51.03833,
        "longitude": 5.775
    },
    {
        "name": "Gronsveld",
        "latitude": 50.81083,
        "longitude": 5.73056
    },
    {
        "name": "Gulpen",
        "latitude": 50.81583,
        "longitude": 5.88889
    },
    {
        "name": "Gulpen-Wittem",
        "latitude": 50.81374,
        "longitude": 5.89296
    },
    {
        "name": "Guttecoven",
        "latitude": 51.015,
        "longitude": 5.81806
    },
    {
        "name": "Haanrade",
        "latitude": 50.87981,
        "longitude": 6.07411
    },
    {
        "name": "Haelen",
        "latitude": 51.23583,
        "longitude": 5.95694
    },
    {
        "name": "Heel",
        "latitude": 51.17917,
        "longitude": 5.89444
    },
    {
        "name": "Heer",
        "latitude": 50.83836,
        "longitude": 5.72989
    },
    {
        "name": "Heerlen",
        "latitude": 50.88365,
        "longitude": 5.98154
    },
    {
        "name": "Hegelsom",
        "latitude": 51.43917,
        "longitude": 6.03889
    },
    {
        "name": "Heide",
        "latitude": 51.06833,
        "longitude": 5.87222
    },
    {
        "name": "Heijen",
        "latitude": 51.675,
        "longitude": 5.98056
    },
    {
        "name": "Heksenberg",
        "latitude": 50.92068,
        "longitude": 5.97373
    },
    {
        "name": "Helden",
        "latitude": 51.31917,
        "longitude": 6.0
    },
    {
        "name": "Herkenbosch",
        "latitude": 51.15333,
        "longitude": 6.06389
    },
    {
        "name": "Herten",
        "latitude": 51.18083,
        "longitude": 5.9625
    },
    {
        "name": "Heugem",
        "latitude": 50.82791,
        "longitude": 5.70774
    },
    {
        "name": "Heythuysen",
        "latitude": 51.25,
        "longitude": 5.89861
    },
    {
        "name": "Hoensbroek",
        "latitude": 50.92387,
        "longitude": 5.92528
    },
    {
        "name": "Holtum",
        "latitude": 51.0475,
        "longitude": 5.82222
    },
    {
        "name": "Holz",
        "latitude": 50.86415,
        "longitude": 6.07424
    },
    {
        "name": "Hopel",
        "latitude": 50.89245,
        "longitude": 6.05046
    },
    {
        "name": "Houthem",
        "latitude": 50.8725,
        "longitude": 5.79306
    },
    {
        "name": "Hulsberg",
        "latitude": 50.88917,
        "longitude": 5.85556
    },
    {
        "name": "Husken",
        "latitude": 50.89567,
        "longitude": 5.95648
    },
    {
        "name": "Kaalheide",
        "latitude": 50.86505,
        "longitude": 6.03643
    },
    {
        "name": "Kakert",
        "latitude": 50.90414,
        "longitude": 6.00463
    },
    {
        "name": "Keent",
        "latitude": 51.24218,
        "longitude": 5.70079
    },
    {
        "name": "Kelpen-Oler",
        "latitude": 51.21817,
        "longitude": 5.82602
    },
    {
        "name": "Kerensheide",
        "latitude": 50.9721,
        "longitude": 5.77666
    },
    {
        "name": "Kerkrade",
        "latitude": 50.86583,
        "longitude": 6.0625
    },
    {
        "name": "Kessel",
        "latitude": 51.29167,
        "longitude": 6.05417
    },
    {
        "name": "Klimmen",
        "latitude": 50.87583,
        "longitude": 5.88056
    },
    {
        "name": "Koningsbosch",
        "latitude": 51.05167,
        "longitude": 5.95833
    },
    {
        "name": "Koningslust",
        "latitude": 51.3575,
        "longitude": 5.99306
    },
    {
        "name": "Kruisberg",
        "latitude": 50.94234,
        "longitude": 5.96519
    },
    {
        "name": "Kunrade",
        "latitude": 50.87769,
        "longitude": 5.93107
    },
    {
        "name": "Landgraaf",
        "latitude": 50.91333,
        "longitude": 6.05722
    },
    {
        "name": "Lauradorp",
        "latitude": 50.91229,
        "longitude": 6.04591
    },
    {
        "name": "Leeuwen",
        "latitude": 51.21032,
        "longitude": 5.99862
    },
    {
        "name": "Leuken",
        "latitude": 51.25288,
        "longitude": 5.7346
    },
    {
        "name": "Leunen",
        "latitude": 51.51,
        "longitude": 5.97917
    },
    {
        "name": "Lichtenberg",
        "latitude": 50.9022,
        "longitude": 6.02523
    },
    {
        "name": "Limbricht",
        "latitude": 51.01167,
        "longitude": 5.8375
    },
    {
        "name": "Limmel",
        "latitude": 50.86718,
        "longitude": 5.70719
    },
    {
        "name": "Lindenheuvel",
        "latitude": 50.98509,
        "longitude": 5.81667
    },
    {
        "name": "Linne",
        "latitude": 51.155,
        "longitude": 5.93889
    },
    {
        "name": "Lottum",
        "latitude": 51.46167,
        "longitude": 6.16111
    },
    {
        "name": "Maasbracht",
        "latitude": 51.13929,
        "longitude": 5.88627
    },
    {
        "name": "Maasbree",
        "latitude": 51.3575,
        "longitude": 6.04861
    },
    {
        "name": "Maastricht",
        "latitude": 50.84833,
        "longitude": 5.68889
    },
    {
        "name": "Malberg",
        "latitude": 50.86244,
        "longitude": 5.65419
    },
    {
        "name": "Margraten",
        "latitude": 50.82083,
        "longitude": 5.82083
    },
    {
        "name": "Mariarade",
        "latitude": 50.92906,
        "longitude": 5.92738
    },
    {
        "name": "Mechelen",
        "latitude": 50.79583,
        "longitude": 5.92639
    },
    {
        "name": "Meerlo",
        "latitude": 51.51333,
        "longitude": 6.08472
    },
    {
        "name": "Meerssen",
        "latitude": 50.8875,
        "longitude": 5.75
    },
    {
        "name": "Meezenbroek",
        "latitude": 50.8968,
        "longitude": 5.99051
    },
    {
        "name": "Meijel",
        "latitude": 51.34417,
        "longitude": 5.88472
    },
    {
        "name": "Melderslo",
        "latitude": 51.46167,
        "longitude": 6.08611
    },
    {
        "name": "Melick",
        "latitude": 51.15917,
        "longitude": 6.01667
    },
    {
        "name": "Merkelbeek",
        "latitude": 50.95389,
        "longitude": 5.94069
    },
    {
        "name": "Merselo",
        "latitude": 51.53,
        "longitude": 5.92778
    },
    {
        "name": "Merum",
        "latitude": 51.17333,
        "longitude": 5.95972
    },
    {
        "name": "Milsbeek",
        "latitude": 51.725,
        "longitude": 5.94861
    },
    {
        "name": "Moesel",
        "latitude": 51.23828,
        "longitude": 5.71778
    },
    {
        "name": "Montfort",
        "latitude": 51.12583,
        "longitude": 5.94861
    },
    {
        "name": "Mook",
        "latitude": 51.7525,
        "longitude": 5.88194
    },
    {
        "name": "Munstergeleen",
        "latitude": 50.975,
        "longitude": 5.86389
    },
    {
        "name": "Nederweert",
        "latitude": 51.28583,
        "longitude": 5.74861
    },
    {
        "name": "Neerbeek",
        "latitude": 50.95,
        "longitude": 5.81528
    },
    {
        "name": "Nieuw-Lotbroek",
        "latitude": 50.91283,
        "longitude": 5.92798
    },
    {
        "name": "Nieuwdorp",
        "latitude": 50.96216,
        "longitude": 5.77297
    },
    {
        "name": "Nuth",
        "latitude": 50.9175,
        "longitude": 5.88611
    },
    {
        "name": "Obbicht",
        "latitude": 51.02833,
        "longitude": 5.78056
    },
    {
        "name": "Offenbeek",
        "latitude": 51.28225,
        "longitude": 6.095
    },
    {
        "name": "Oirlo",
        "latitude": 51.51167,
        "longitude": 6.0375
    },
    {
        "name": "Oirsbeek",
        "latitude": 50.95083,
        "longitude": 5.90833
    },
    {
        "name": "Oostrum",
        "latitude": 51.52917,
        "longitude": 6.01667
    },
    {
        "name": "Ophoven",
        "latitude": 50.99036,
        "longitude": 5.85868
    },
    {
        "name": "Ospel",
        "latitude": 51.2975,
        "longitude": 5.78472
    },
    {
        "name": "Ottersum",
        "latitude": 51.70333,
        "longitude": 5.98333
    },
    {
        "name": "Oud-Caberg",
        "latitude": 50.86539,
        "longitude": 5.66444
    },
    {
        "name": "Overhoven",
        "latitude": 51.00869,
        "longitude": 5.86628
    },
    {
        "name": "Panningen",
        "latitude": 51.32667,
        "longitude": 5.97917
    },
    {
        "name": "Passart",
        "latitude": 50.92389,
        "longitude": 5.94674
    },
    {
        "name": "Peij",
        "latitude": 51.09417,
        "longitude": 5.89583
    },
    {
        "name": "Posterholt",
        "latitude": 51.12333,
        "longitude": 6.03472
    },
    {
        "name": "Pottenberg",
        "latitude": 50.85135,
        "longitude": 5.65668
    },
    {
        "name": "Puth",
        "latitude": 50.95417,
        "longitude": 5.87361
    },
    {
        "name": "Reuver",
        "latitude": 51.28417,
        "longitude": 6.07778
    },
    {
        "name": "Roermond",
        "latitude": 51.19417,
        "longitude": 5.9875
    },
    {
        "name": "Roosteren",
        "latitude": 51.08333,
        "longitude": 5.81806
    },
    {
        "name": "Rothem",
        "latitude": 50.87667,
        "longitude": 5.73889
    },
    {
        "name": "Scharn",
        "latitude": 50.85,
        "longitude": 5.73333
    },
    {
        "name": "Schilberg",
        "latitude": 51.09917,
        "longitude": 5.88611
    },
    {
        "name": "Schimmert",
        "latitude": 50.90667,
        "longitude": 5.82361
    },
    {
        "name": "Schinnen",
        "latitude": 50.94333,
        "longitude": 5.88889
    },
    {
        "name": "Schinveld",
        "latitude": 50.96917,
        "longitude": 5.97917
    },
    {
        "name": "Sevenum",
        "latitude": 51.4125,
        "longitude": 6.0375
    },
    {
        "name": "Sibbe",
        "latitude": 50.84417,
        "longitude": 5.82639
    },
    {
        "name": "Simpelveld",
        "latitude": 50.83417,
        "longitude": 5.98194
    },
    {
        "name": "Sint Joost",
        "latitude": 51.1175,
        "longitude": 5.89861
    },
    {
        "name": "Sint Odili\u00ebnberg",
        "latitude": 51.14333,
        "longitude": 6.0
    },
    {
        "name": "Sittard",
        "latitude": 50.99833,
        "longitude": 5.86944
    },
    {
        "name": "Spaubeek",
        "latitude": 50.94,
        "longitude": 5.84306
    },
    {
        "name": "Spekholzerheide",
        "latitude": 50.85559,
        "longitude": 6.02471
    },
    {
        "name": "Stadbroek",
        "latitude": 51.00187,
        "longitude": 5.87656
    },
    {
        "name": "Stein",
        "latitude": 50.96917,
        "longitude": 5.76667
    },
    {
        "name": "Stramproy",
        "latitude": 51.19417,
        "longitude": 5.71944
    },
    {
        "name": "Tegelen",
        "latitude": 51.34417,
        "longitude": 6.13611
    },
    {
        "name": "Terwinselen",
        "latitude": 50.86659,
        "longitude": 6.02471
    },
    {
        "name": "Thorn",
        "latitude": 51.16167,
        "longitude": 5.84167
    },
    {
        "name": "Tienray",
        "latitude": 51.495,
        "longitude": 6.09306
    },
    {
        "name": "Ubachsberg",
        "latitude": 50.85333,
        "longitude": 5.94861
    },
    {
        "name": "Ulestraten",
        "latitude": 50.90583,
        "longitude": 5.78194
    },
    {
        "name": "Urmond",
        "latitude": 50.99083,
        "longitude": 5.77222
    },
    {
        "name": "Vaals",
        "latitude": 50.77083,
        "longitude": 6.01806
    },
    {
        "name": "Valkenburg",
        "latitude": 50.86523,
        "longitude": 5.83205
    },
    {
        "name": "Valkenburg aan de Geul",
        "latitude": 50.85711,
        "longitude": 5.83489
    },
    {
        "name": "Veltum",
        "latitude": 51.51954,
        "longitude": 5.96032
    },
    {
        "name": "Venlo",
        "latitude": 51.37,
        "longitude": 6.16806
    },
    {
        "name": "Venray",
        "latitude": 51.525,
        "longitude": 5.975
    },
    {
        "name": "Vijlen",
        "latitude": 50.78833,
        "longitude": 5.96528
    },
    {
        "name": "Vlodrop",
        "latitude": 51.13333,
        "longitude": 6.07639
    },
    {
        "name": "Voerendaal",
        "latitude": 50.88327,
        "longitude": 5.92978
    },
    {
        "name": "Vrieheide",
        "latitude": 50.92192,
        "longitude": 5.96701
    },
    {
        "name": "Wanssum",
        "latitude": 51.53583,
        "longitude": 6.07639
    },
    {
        "name": "Waubach",
        "latitude": 50.91833,
        "longitude": 6.05
    },
    {
        "name": "Weert",
        "latitude": 51.25167,
        "longitude": 5.70694
    },
    {
        "name": "Well",
        "latitude": 51.55,
        "longitude": 6.08889
    },
    {
        "name": "Wellerlooi",
        "latitude": 51.53417,
        "longitude": 6.13611
    },
    {
        "name": "Wessem",
        "latitude": 51.15954,
        "longitude": 5.88146
    },
    {
        "name": "Wijlre",
        "latitude": 50.83333,
        "longitude": 5.89583
    },
    {
        "name": "Wijnandsrade",
        "latitude": 50.90583,
        "longitude": 5.88333
    },
    {
        "name": "Wolder",
        "latitude": 50.83752,
        "longitude": 5.65938
    },
    {
        "name": "Ysselsteyn",
        "latitude": 51.49,
        "longitude": 5.89722
    },
    {
        "name": "'s Gravenmoer",
        "latitude": 51.65594,
        "longitude": 4.94076
    },
    {
        "name": "'s-Hertogenbosch",
        "latitude": 51.69917,
        "longitude": 5.30417
    },
    {
        "name": "'t Hofke",
        "latitude": 51.44943,
        "longitude": 5.51926
    },
    {
        "name": "Aalburg",
        "latitude": 51.75482,
        "longitude": 5.13156
    },
    {
        "name": "Aalst",
        "latitude": 51.39667,
        "longitude": 5.47778
    },
    {
        "name": "Aarle-Rixtel",
        "latitude": 51.50976,
        "longitude": 5.63839
    },
    {
        "name": "Abcoven",
        "latitude": 51.5275,
        "longitude": 5.08333
    },
    {
        "name": "Akert",
        "latitude": 51.41407,
        "longitude": 5.5596
    },
    {
        "name": "Almkerk",
        "latitude": 51.77083,
        "longitude": 4.95972
    },
    {
        "name": "Alphen",
        "latitude": 51.48167,
        "longitude": 4.95833
    },
    {
        "name": "Andel",
        "latitude": 51.78333,
        "longitude": 5.05833
    },
    {
        "name": "Asten",
        "latitude": 51.40417,
        "longitude": 5.74861
    },
    {
        "name": "Baardwijk",
        "latitude": 51.69246,
        "longitude": 5.09628
    },
    {
        "name": "Baarle-Nassau",
        "latitude": 51.4475,
        "longitude": 4.92917
    },
    {
        "name": "Bakel",
        "latitude": 51.50333,
        "longitude": 5.74028
    },
    {
        "name": "Bavel",
        "latitude": 51.56583,
        "longitude": 4.83056
    },
    {
        "name": "Beek",
        "latitude": 51.5289,
        "longitude": 5.63382
    },
    {
        "name": "Beers",
        "latitude": 51.72583,
        "longitude": 5.82778
    },
    {
        "name": "Belcrum",
        "latitude": 51.59911,
        "longitude": 4.76994
    },
    {
        "name": "Bergeijk",
        "latitude": 51.30182,
        "longitude": 5.33946
    },
    {
        "name": "Bergen op Zoom",
        "latitude": 51.495,
        "longitude": 4.29167
    },
    {
        "name": "Berghem",
        "latitude": 51.76991,
        "longitude": 5.56827
    },
    {
        "name": "Berlicum",
        "latitude": 51.6775,
        "longitude": 5.4
    },
    {
        "name": "Besoijen",
        "latitude": 51.68333,
        "longitude": 5.05
    },
    {
        "name": "Best",
        "latitude": 51.5075,
        "longitude": 5.39028
    },
    {
        "name": "Besterd",
        "latitude": 51.5638,
        "longitude": 5.08658
    },
    {
        "name": "Biesdonk",
        "latitude": 51.60613,
        "longitude": 4.78515
    },
    {
        "name": "Bitswijk",
        "latitude": 51.6687,
        "longitude": 5.60921
    },
    {
        "name": "Blaarthem",
        "latitude": 51.42501,
        "longitude": 5.45784
    },
    {
        "name": "Bladel",
        "latitude": 51.36833,
        "longitude": 5.22083
    },
    {
        "name": "Boekel",
        "latitude": 51.60333,
        "longitude": 5.675
    },
    {
        "name": "Bosschenhoofd",
        "latitude": 51.56083,
        "longitude": 4.54028
    },
    {
        "name": "Boxmeer",
        "latitude": 51.64667,
        "longitude": 5.94722
    },
    {
        "name": "Boxtel",
        "latitude": 51.59083,
        "longitude": 5.32917
    },
    {
        "name": "Brand",
        "latitude": 51.45839,
        "longitude": 5.62427
    },
    {
        "name": "Breda",
        "latitude": 51.58656,
        "longitude": 4.77596
    },
    {
        "name": "Breugel",
        "latitude": 51.5175,
        "longitude": 5.51111
    },
    {
        "name": "Broekhoven",
        "latitude": 51.54801,
        "longitude": 5.09175
    },
    {
        "name": "Budel",
        "latitude": 51.27167,
        "longitude": 5.575
    },
    {
        "name": "Budel-Dorplein",
        "latitude": 51.23667,
        "longitude": 5.5875
    },
    {
        "name": "Budel-Schoot",
        "latitude": 51.2475,
        "longitude": 5.56528
    },
    {
        "name": "Chaam",
        "latitude": 51.50583,
        "longitude": 4.86111
    },
    {
        "name": "Coevering",
        "latitude": 51.41742,
        "longitude": 5.57463
    },
    {
        "name": "Cranendonck",
        "latitude": 51.30417,
        "longitude": 5.58889
    },
    {
        "name": "Cuijk",
        "latitude": 51.73083,
        "longitude": 5.87917
    },
    {
        "name": "De Blaak",
        "latitude": 51.54626,
        "longitude": 5.04465
    },
    {
        "name": "De Doornakkers",
        "latitude": 51.43844,
        "longitude": 5.50887
    },
    {
        "name": "De Kruiskamp",
        "latitude": 51.69978,
        "longitude": 5.26032
    },
    {
        "name": "De Reit",
        "latitude": 51.56038,
        "longitude": 5.04932
    },
    {
        "name": "De Rompert",
        "latitude": 51.71667,
        "longitude": 5.31667
    },
    {
        "name": "Den Dungen",
        "latitude": 51.665,
        "longitude": 5.37222
    },
    {
        "name": "Deuteren",
        "latitude": 51.68667,
        "longitude": 5.26667
    },
    {
        "name": "Diessen",
        "latitude": 51.47583,
        "longitude": 5.175
    },
    {
        "name": "Dinteloord",
        "latitude": 51.635,
        "longitude": 4.36944
    },
    {
        "name": "Dommelen",
        "latitude": 51.34624,
        "longitude": 5.43394
    },
    {
        "name": "Dongen",
        "latitude": 51.62667,
        "longitude": 4.93889
    },
    {
        "name": "Donk",
        "latitude": 51.53843,
        "longitude": 5.62914
    },
    {
        "name": "Doonheide",
        "latitude": 51.56667,
        "longitude": 5.69444
    },
    {
        "name": "Dorst",
        "latitude": 51.59,
        "longitude": 4.85694
    },
    {
        "name": "Duizel",
        "latitude": 51.36833,
        "longitude": 5.29722
    },
    {
        "name": "Eckart",
        "latitude": 51.4732,
        "longitude": 5.49449
    },
    {
        "name": "Eerde",
        "latitude": 51.60417,
        "longitude": 5.49861
    },
    {
        "name": "Eerschot",
        "latitude": 51.56833,
        "longitude": 5.47361
    },
    {
        "name": "Eersel",
        "latitude": 51.3575,
        "longitude": 5.31806
    },
    {
        "name": "Eindhoven",
        "latitude": 51.44083,
        "longitude": 5.47778
    },
    {
        "name": "Ekenrooi",
        "latitude": 51.39656,
        "longitude": 5.48624
    },
    {
        "name": "Elshout",
        "latitude": 51.70083,
        "longitude": 5.14167
    },
    {
        "name": "Enschot",
        "latitude": 51.57846,
        "longitude": 5.13885
    },
    {
        "name": "Erp",
        "latitude": 51.6,
        "longitude": 5.60694
    },
    {
        "name": "Esch",
        "latitude": 51.61083,
        "longitude": 5.29028
    },
    {
        "name": "Fijnaart",
        "latitude": 51.6375,
        "longitude": 4.46944
    },
    {
        "name": "Gageldonk",
        "latitude": 51.60167,
        "longitude": 4.73889
    },
    {
        "name": "Geenhoven",
        "latitude": 51.35935,
        "longitude": 5.46021
    },
    {
        "name": "Geertruidenberg",
        "latitude": 51.70167,
        "longitude": 4.85694
    },
    {
        "name": "Geffen",
        "latitude": 51.74,
        "longitude": 5.46389
    },
    {
        "name": "Geldrop",
        "latitude": 51.42167,
        "longitude": 5.55972
    },
    {
        "name": "Gemert",
        "latitude": 51.55583,
        "longitude": 5.69028
    },
    {
        "name": "Gemonde",
        "latitude": 51.61833,
        "longitude": 5.35694
    },
    {
        "name": "Genderen",
        "latitude": 51.73583,
        "longitude": 5.0875
    },
    {
        "name": "Genoenhuis",
        "latitude": 51.40917,
        "longitude": 5.53889
    },
    {
        "name": "Gerwen",
        "latitude": 51.49,
        "longitude": 5.5625
    },
    {
        "name": "Giessen",
        "latitude": 51.79,
        "longitude": 5.03056
    },
    {
        "name": "Gilze",
        "latitude": 51.54417,
        "longitude": 4.94028
    },
    {
        "name": "Ginneken",
        "latitude": 51.56593,
        "longitude": 4.7931
    },
    {
        "name": "Goirle",
        "latitude": 51.52083,
        "longitude": 5.06667
    },
    {
        "name": "Grasrijk",
        "latitude": 51.43916,
        "longitude": 5.41544
    },
    {
        "name": "Grave",
        "latitude": 51.75902,
        "longitude": 5.73882
    },
    {
        "name": "Groenewoud",
        "latitude": 51.5386,
        "longitude": 5.09028
    },
    {
        "name": "Haaren",
        "latitude": 51.6025,
        "longitude": 5.22222
    },
    {
        "name": "Haarsteeg",
        "latitude": 51.71167,
        "longitude": 5.19861
    },
    {
        "name": "Halsteren",
        "latitude": 51.52834,
        "longitude": 4.26785
    },
    {
        "name": "Handel",
        "latitude": 51.58,
        "longitude": 5.70972
    },
    {
        "name": "Hapert",
        "latitude": 51.36833,
        "longitude": 5.25694
    },
    {
        "name": "Haps",
        "latitude": 51.68917,
        "longitude": 5.86111
    },
    {
        "name": "Heerle",
        "latitude": 51.51917,
        "longitude": 4.35972
    },
    {
        "name": "Heesch",
        "latitude": 51.73362,
        "longitude": 5.52672
    },
    {
        "name": "Heesterakker",
        "latitude": 51.4861,
        "longitude": 5.49681
    },
    {
        "name": "Heeswijk-Dinther",
        "latitude": 51.65083,
        "longitude": 5.475
    },
    {
        "name": "Heeze",
        "latitude": 51.3828,
        "longitude": 5.57145
    },
    {
        "name": "Helmond",
        "latitude": 51.48167,
        "longitude": 5.66111
    },
    {
        "name": "Helvoirt",
        "latitude": 51.63167,
        "longitude": 5.23056
    },
    {
        "name": "Herpen",
        "latitude": 51.77167,
        "longitude": 5.64167
    },
    {
        "name": "Heusden",
        "latitude": 51.38417,
        "longitude": 5.76389
    },
    {
        "name": "Heusdenhout",
        "latitude": 51.58811,
        "longitude": 4.8193
    },
    {
        "name": "Hilvarenbeek",
        "latitude": 51.48583,
        "longitude": 5.1375
    },
    {
        "name": "Hoeven",
        "latitude": 51.57917,
        "longitude": 4.58333
    },
    {
        "name": "Hoge Vucht",
        "latitude": 51.60794,
        "longitude": 4.7915
    },
    {
        "name": "Hooge Mierde",
        "latitude": 51.3875,
        "longitude": 5.12917
    },
    {
        "name": "Hooge Zwaluwe",
        "latitude": 51.6875,
        "longitude": 4.74444
    },
    {
        "name": "Hoogeloon",
        "latitude": 51.3975,
        "longitude": 5.26806
    },
    {
        "name": "Hoogerheide",
        "latitude": 51.42417,
        "longitude": 4.325
    },
    {
        "name": "Huijbergen",
        "latitude": 51.4325,
        "longitude": 4.37639
    },
    {
        "name": "Jagershoef",
        "latitude": 51.4733,
        "longitude": 5.4672
    },
    {
        "name": "Kalsdonk",
        "latitude": 51.53973,
        "longitude": 4.47111
    },
    {
        "name": "Klein-Zundert",
        "latitude": 51.48083,
        "longitude": 4.65417
    },
    {
        "name": "Klundert",
        "latitude": 51.665,
        "longitude": 4.53472
    },
    {
        "name": "Korvel",
        "latitude": 51.54954,
        "longitude": 5.07079
    },
    {
        "name": "Krooswijk",
        "latitude": 51.64665,
        "longitude": 4.59203
    },
    {
        "name": "Kruisland",
        "latitude": 51.56917,
        "longitude": 4.40972
    },
    {
        "name": "Lage Mierde",
        "latitude": 51.40583,
        "longitude": 5.14722
    },
    {
        "name": "Lakerlopen",
        "latitude": 51.43791,
        "longitude": 5.50106
    },
    {
        "name": "Langenboom",
        "latitude": 51.70417,
        "longitude": 5.73056
    },
    {
        "name": "Leende",
        "latitude": 51.35083,
        "longitude": 5.55417
    },
    {
        "name": "Leest",
        "latitude": 51.60983,
        "longitude": 5.54312
    },
    {
        "name": "Lepelstraat",
        "latitude": 51.54833,
        "longitude": 4.27639
    },
    {
        "name": "Liempde",
        "latitude": 51.56917,
        "longitude": 5.37222
    },
    {
        "name": "Lierop",
        "latitude": 51.41917,
        "longitude": 5.67917
    },
    {
        "name": "Lieshout",
        "latitude": 51.52036,
        "longitude": 5.59479
    },
    {
        "name": "Liessel",
        "latitude": 51.41333,
        "longitude": 5.82083
    },
    {
        "name": "Lievendaal",
        "latitude": 51.44219,
        "longitude": 5.43405
    },
    {
        "name": "Lith",
        "latitude": 51.80583,
        "longitude": 5.43889
    },
    {
        "name": "Loon op Zand",
        "latitude": 51.6275,
        "longitude": 5.075
    },
    {
        "name": "Loosbroek",
        "latitude": 51.67833,
        "longitude": 5.50694
    },
    {
        "name": "Loven",
        "latitude": 51.5648,
        "longitude": 5.09748
    },
    {
        "name": "Luyksgestel",
        "latitude": 51.28917,
        "longitude": 5.32361
    },
    {
        "name": "Maarheeze",
        "latitude": 51.31167,
        "longitude": 5.61667
    },
    {
        "name": "Maaskantje",
        "latitude": 51.65833,
        "longitude": 5.37083
    },
    {
        "name": "Made",
        "latitude": 51.67667,
        "longitude": 4.79306
    },
    {
        "name": "Mariahout",
        "latitude": 51.54083,
        "longitude": 5.57222
    },
    {
        "name": "Meerhoven",
        "latitude": 51.44267,
        "longitude": 5.41102
    },
    {
        "name": "Meerveldhoven",
        "latitude": 51.41705,
        "longitude": 5.41618
    },
    {
        "name": "Megen",
        "latitude": 51.82167,
        "longitude": 5.5625
    },
    {
        "name": "Meierijstad",
        "latitude": 51.59968,
        "longitude": 5.50278
    },
    {
        "name": "Melle",
        "latitude": 51.66244,
        "longitude": 5.63367
    },
    {
        "name": "Middelbeers",
        "latitude": 51.46667,
        "longitude": 5.25
    },
    {
        "name": "Middelrode",
        "latitude": 51.66417,
        "longitude": 5.41944
    },
    {
        "name": "Mierlo",
        "latitude": 51.44,
        "longitude": 5.61944
    },
    {
        "name": "Milheeze",
        "latitude": 51.50167,
        "longitude": 5.77917
    },
    {
        "name": "Moerdijk",
        "latitude": 51.70167,
        "longitude": 4.62639
    },
    {
        "name": "Molenhoek",
        "latitude": 51.71113,
        "longitude": 5.36809
    },
    {
        "name": "Muschberg en Geestenberg",
        "latitude": 51.44384,
        "longitude": 5.52329
    },
    {
        "name": "Naastenbest",
        "latitude": 51.50484,
        "longitude": 5.38579
    },
    {
        "name": "Neerkant",
        "latitude": 51.36833,
        "longitude": 5.86667
    },
    {
        "name": "Nieuw-Vossemeer",
        "latitude": 51.59,
        "longitude": 4.21806
    },
    {
        "name": "Nieuwkuijk",
        "latitude": 51.69,
        "longitude": 5.18194
    },
    {
        "name": "Nijnsel",
        "latitude": 51.55083,
        "longitude": 5.48333
    },
    {
        "name": "Nispen",
        "latitude": 51.48331,
        "longitude": 4.46131
    },
    {
        "name": "Nistelrode",
        "latitude": 51.70417,
        "longitude": 5.5625
    },
    {
        "name": "Noordgeest",
        "latitude": 51.50917,
        "longitude": 4.27917
    },
    {
        "name": "Noordhoek",
        "latitude": 51.6425,
        "longitude": 4.53194
    },
    {
        "name": "Nuenen",
        "latitude": 51.47,
        "longitude": 5.55278
    },
    {
        "name": "Odiliapeel",
        "latitude": 51.64333,
        "longitude": 5.70556
    },
    {
        "name": "Oerle",
        "latitude": 51.42255,
        "longitude": 5.37163
    },
    {
        "name": "Oirschot",
        "latitude": 51.505,
        "longitude": 5.31389
    },
    {
        "name": "Oisterwijk",
        "latitude": 51.57917,
        "longitude": 5.18889
    },
    {
        "name": "Oosteind",
        "latitude": 51.64418,
        "longitude": 4.89784
    },
    {
        "name": "Oostelbeers",
        "latitude": 51.47171,
        "longitude": 5.26897
    },
    {
        "name": "Oosterhout",
        "latitude": 51.645,
        "longitude": 4.85972
    },
    {
        "name": "Orthen",
        "latitude": 51.70613,
        "longitude": 5.30468
    },
    {
        "name": "Oss",
        "latitude": 51.765,
        "longitude": 5.51806
    },
    {
        "name": "Ossendrecht",
        "latitude": 51.39417,
        "longitude": 4.32639
    },
    {
        "name": "Oud Gastel",
        "latitude": 51.58667,
        "longitude": 4.45972
    },
    {
        "name": "Overloon",
        "latitude": 51.57167,
        "longitude": 5.94722
    },
    {
        "name": "Princenhage",
        "latitude": 51.57632,
        "longitude": 4.73906
    },
    {
        "name": "Prinsenbeek",
        "latitude": 51.59833,
        "longitude": 4.7125
    },
    {
        "name": "Putte",
        "latitude": 51.36,
        "longitude": 4.39583
    },
    {
        "name": "Quirijnstok",
        "latitude": 51.5843,
        "longitude": 5.0981
    },
    {
        "name": "Raam",
        "latitude": 51.65967,
        "longitude": 5.63637
    },
    {
        "name": "Raamsdonk",
        "latitude": 51.6875,
        "longitude": 4.90833
    },
    {
        "name": "Raamsdonksveer",
        "latitude": 51.69667,
        "longitude": 4.87361
    },
    {
        "name": "Ravenstein",
        "latitude": 51.79667,
        "longitude": 5.65
    },
    {
        "name": "Reek",
        "latitude": 51.74583,
        "longitude": 5.68194
    },
    {
        "name": "Reusel",
        "latitude": 51.3625,
        "longitude": 5.16528
    },
    {
        "name": "Riethoven",
        "latitude": 51.35417,
        "longitude": 5.3875
    },
    {
        "name": "Rijen",
        "latitude": 51.59083,
        "longitude": 4.91944
    },
    {
        "name": "Rijsbergen",
        "latitude": 51.5175,
        "longitude": 4.69722
    },
    {
        "name": "Rijswijk",
        "latitude": 51.7975,
        "longitude": 5.025
    },
    {
        "name": "Roosendaal",
        "latitude": 51.53083,
        "longitude": 4.46528
    },
    {
        "name": "Rucphen",
        "latitude": 51.53167,
        "longitude": 4.55833
    },
    {
        "name": "Salderes",
        "latitude": 51.51505,
        "longitude": 5.38991
    },
    {
        "name": "Schaijk",
        "latitude": 51.74583,
        "longitude": 5.63194
    },
    {
        "name": "Schijndel",
        "latitude": 51.6225,
        "longitude": 5.43194
    },
    {
        "name": "Schutsboom",
        "latitude": 51.46152,
        "longitude": 5.6226
    },
    {
        "name": "Sint Anthonis",
        "latitude": 51.62667,
        "longitude": 5.88194
    },
    {
        "name": "Sint Willebrord",
        "latitude": 51.54833,
        "longitude": 4.58889
    },
    {
        "name": "Sint-Michielsgestel",
        "latitude": 51.64167,
        "longitude": 5.35278
    },
    {
        "name": "Sint-Oedenrode",
        "latitude": 51.5675,
        "longitude": 5.45972
    },
    {
        "name": "Soerendonk",
        "latitude": 51.30083,
        "longitude": 5.575
    },
    {
        "name": "Someren",
        "latitude": 51.385,
        "longitude": 5.71111
    },
    {
        "name": "Someren-Eind",
        "latitude": 51.3575,
        "longitude": 5.73333
    },
    {
        "name": "Son",
        "latitude": 51.51136,
        "longitude": 5.49282
    },
    {
        "name": "Speelheide",
        "latitude": 51.50607,
        "longitude": 5.40519
    },
    {
        "name": "Sprundel",
        "latitude": 51.5375,
        "longitude": 4.59722
    },
    {
        "name": "Stampersgat",
        "latitude": 51.61333,
        "longitude": 4.44444
    },
    {
        "name": "Standdaarbuiten",
        "latitude": 51.61333,
        "longitude": 4.51389
    },
    {
        "name": "Steenbergen",
        "latitude": 51.58417,
        "longitude": 4.31944
    },
    {
        "name": "Steensel",
        "latitude": 51.37667,
        "longitude": 5.35278
    },
    {
        "name": "Stepekolk",
        "latitude": 51.455,
        "longitude": 5.61251
    },
    {
        "name": "Terheijden",
        "latitude": 51.64333,
        "longitude": 4.75417
    },
    {
        "name": "Teteringen",
        "latitude": 51.60917,
        "longitude": 4.82083
    },
    {
        "name": "Theereheide",
        "latitude": 51.63843,
        "longitude": 5.33729
    },
    {
        "name": "Tilburg",
        "latitude": 51.55551,
        "longitude": 5.0913
    },
    {
        "name": "Tivoli",
        "latitude": 51.42069,
        "longitude": 5.50818
    },
    {
        "name": "Tongelre",
        "latitude": 51.44889,
        "longitude": 5.51978
    },
    {
        "name": "Uden",
        "latitude": 51.66083,
        "longitude": 5.61944
    },
    {
        "name": "Udenhout",
        "latitude": 51.60917,
        "longitude": 5.14306
    },
    {
        "name": "Ulvenhout",
        "latitude": 51.54907,
        "longitude": 4.79931
    },
    {
        "name": "Vaartbroek",
        "latitude": 51.47954,
        "longitude": 5.49806
    },
    {
        "name": "Valkenswaard",
        "latitude": 51.35083,
        "longitude": 5.45972
    },
    {
        "name": "Veen",
        "latitude": 51.7775,
        "longitude": 5.10833
    },
    {
        "name": "Veghel",
        "latitude": 51.61667,
        "longitude": 5.54861
    },
    {
        "name": "Veldhoven",
        "latitude": 51.41833,
        "longitude": 5.40278
    },
    {
        "name": "Ven",
        "latitude": 51.64,
        "longitude": 5.55
    },
    {
        "name": "Venhorst",
        "latitude": 51.60833,
        "longitude": 5.7375
    },
    {
        "name": "Villapark",
        "latitude": 51.44144,
        "longitude": 5.49385
    },
    {
        "name": "Vliedberg",
        "latitude": 51.68961,
        "longitude": 5.19031
    },
    {
        "name": "Vlierden",
        "latitude": 51.445,
        "longitude": 5.75833
    },
    {
        "name": "Vlokhoven",
        "latitude": 51.46667,
        "longitude": 5.48333
    },
    {
        "name": "Voldijn",
        "latitude": 51.40052,
        "longitude": 5.47196
    },
    {
        "name": "Volkel",
        "latitude": 51.6425,
        "longitude": 5.65417
    },
    {
        "name": "Vorstenbosch",
        "latitude": 51.6525,
        "longitude": 5.55
    },
    {
        "name": "Vught",
        "latitude": 51.65333,
        "longitude": 5.2875
    },
    {
        "name": "Waalre",
        "latitude": 51.38667,
        "longitude": 5.44444
    },
    {
        "name": "Waalwijk",
        "latitude": 51.6825,
        "longitude": 5.07083
    },
    {
        "name": "Wagenberg",
        "latitude": 51.665,
        "longitude": 4.74861
    },
    {
        "name": "Wanroij",
        "latitude": 51.6575,
        "longitude": 5.81806
    },
    {
        "name": "Waspik",
        "latitude": 51.68667,
        "longitude": 4.94444
    },
    {
        "name": "Waterdonken",
        "latitude": 51.60959,
        "longitude": 4.80452
    },
    {
        "name": "Welberg",
        "latitude": 51.57667,
        "longitude": 4.33056
    },
    {
        "name": "Werkendam",
        "latitude": 51.81,
        "longitude": 4.89444
    },
    {
        "name": "Wernhout",
        "latitude": 51.455,
        "longitude": 4.64167
    },
    {
        "name": "Westerhoven",
        "latitude": 51.3325,
        "longitude": 5.39583
    },
    {
        "name": "Wijbosch",
        "latitude": 51.61667,
        "longitude": 5.46806
    },
    {
        "name": "Wilhelminadorp",
        "latitude": 51.49742,
        "longitude": 5.39223
    },
    {
        "name": "Wisselaar",
        "latitude": 51.61285,
        "longitude": 4.78444
    },
    {
        "name": "Woensdrecht",
        "latitude": 51.42897,
        "longitude": 4.30355
    },
    {
        "name": "Woenselse Heide",
        "latitude": 51.48333,
        "longitude": 5.46667
    },
    {
        "name": "Woudrichem",
        "latitude": 51.815,
        "longitude": 5.00139
    },
    {
        "name": "Wouw",
        "latitude": 51.52167,
        "longitude": 4.39028
    },
    {
        "name": "Zandberg",
        "latitude": 51.57333,
        "longitude": 4.78472
    },
    {
        "name": "Zeeland",
        "latitude": 51.6975,
        "longitude": 5.67639
    },
    {
        "name": "Zeelst",
        "latitude": 51.42421,
        "longitude": 5.41566
    },
    {
        "name": "Zegge",
        "latitude": 51.55667,
        "longitude": 4.51806
    },
    {
        "name": "Zeilberg",
        "latitude": 51.45469,
        "longitude": 5.81878
    },
    {
        "name": "Zesgehuchten",
        "latitude": 51.41667,
        "longitude": 5.55
    },
    {
        "name": "Zevenbergschen Hoek",
        "latitude": 51.6725,
        "longitude": 4.67917
    },
    {
        "name": "Zijtaart",
        "latitude": 51.5925,
        "longitude": 5.54167
    },
    {
        "name": "Zonderwijk",
        "latitude": 51.41141,
        "longitude": 5.39361
    },
    {
        "name": "Zundert",
        "latitude": 51.47167,
        "longitude": 4.65556
    },
    {
        "name": "'s-Graveland",
        "latitude": 52.2442,
        "longitude": 5.1211
    },
    {
        "name": "'t Horntje",
        "latitude": 53.0056,
        "longitude": 4.7861
    },
    {
        "name": "'t Kabel",
        "latitude": 52.2561,
        "longitude": 4.6497
    },
    {
        "name": "'t Nopeind",
        "latitude": 52.41,
        "longitude": 4.9636
    },
    {
        "name": "'t Veld",
        "latitude": 52.7392,
        "longitude": 4.8556
    },
    {
        "name": "'t Zand",
        "latitude": 52.83667,
        "longitude": 4.75556
    },
    {
        "name": "Aagtdorp",
        "latitude": 52.6889,
        "longitude": 4.7019
    },
    {
        "name": "Aalsmeer",
        "latitude": 52.25917,
        "longitude": 4.75972
    },
    {
        "name": "Aalsmeerderbrug",
        "latitude": 52.2758,
        "longitude": 4.75
    },
    {
        "name": "Aartswoud",
        "latitude": 52.7444,
        "longitude": 4.9536
    },
    {
        "name": "Abbekerk",
        "latitude": 52.73167,
        "longitude": 5.01806
    },
    {
        "name": "Abbenes",
        "latitude": 52.2339,
        "longitude": 4.5894
    },
    {
        "name": "Akersloot",
        "latitude": 52.5603,
        "longitude": 4.7283
    },
    {
        "name": "Alkmaar",
        "latitude": 52.63167,
        "longitude": 4.74861
    },
    {
        "name": "Amstelveen",
        "latitude": 52.30083,
        "longitude": 4.86389
    },
    {
        "name": "Amsterdam",
        "latitude": 52.37403,
        "longitude": 4.88969
    },
    {
        "name": "Amsterdam-Zuidoost",
        "latitude": 52.3075,
        "longitude": 4.97222
    },
    {
        "name": "Andijk",
        "latitude": 52.75,
        "longitude": 5.22
    },
    {
        "name": "Ankeveen",
        "latitude": 52.2653,
        "longitude": 5.0989
    },
    {
        "name": "Ankeveense Rade",
        "latitude": 52.25891,
        "longitude": 5.1016
    },
    {
        "name": "Assendelft",
        "latitude": 52.46666667,
        "longitude": 4.75
    },
    {
        "name": "Avenhorn",
        "latitude": 52.6175,
        "longitude": 4.95139
    },
    {
        "name": "Badhoevedorp",
        "latitude": 52.3381,
        "longitude": 4.7803
    },
    {
        "name": "Bakkum",
        "latitude": 52.5583,
        "longitude": 4.6567
    },
    {
        "name": "Bangert",
        "latitude": 52.73582,
        "longitude": 5.1801
    },
    {
        "name": "Bargen",
        "latitude": 53.08416667,
        "longitude": 4.83472222
    },
    {
        "name": "Barsingerhorn",
        "latitude": 52.78527778,
        "longitude": 4.84166667
    },
    {
        "name": "Beemster",
        "latitude": 52.55,
        "longitude": 4.9278
    },
    {
        "name": "Beets",
        "latitude": 52.5892,
        "longitude": 4.9775
    },
    {
        "name": "Beinsdorp",
        "latitude": 52.2872,
        "longitude": 4.5944
    },
    {
        "name": "Belt",
        "latitude": 52.9042,
        "longitude": 4.9539
    },
    {
        "name": "Bennebroek",
        "latitude": 52.32083,
        "longitude": 4.59861
    },
    {
        "name": "Benningbroek",
        "latitude": 52.7031,
        "longitude": 5.0097
    },
    {
        "name": "Bentveld",
        "latitude": 52.3658,
        "longitude": 4.5717
    },
    {
        "name": "Bergen",
        "latitude": 52.6703,
        "longitude": 4.7054
    },
    {
        "name": "Berkhout",
        "latitude": 52.64083,
        "longitude": 5.00139
    },
    {
        "name": "Berkmeer",
        "latitude": 52.6856,
        "longitude": 4.8983
    },
    {
        "name": "Beverwijk",
        "latitude": 52.48333,
        "longitude": 4.65694
    },
    {
        "name": "Bijlmermeer",
        "latitude": 52.31861,
        "longitude": 4.96528
    },
    {
        "name": "Bijvanck",
        "latitude": 52.28585,
        "longitude": 5.26534
    },
    {
        "name": "Binnenstad",
        "latitude": 52.372,
        "longitude": 4.896
    },
    {
        "name": "Blaricum",
        "latitude": 52.2725,
        "longitude": 5.24167
    },
    {
        "name": "Blauwe Keet",
        "latitude": 52.8956,
        "longitude": 4.7819
    },
    {
        "name": "Bloemendaal",
        "latitude": 52.4025,
        "longitude": 4.62222
    },
    {
        "name": "Blokker",
        "latitude": 52.66917,
        "longitude": 5.11806
    },
    {
        "name": "Bobeldijk",
        "latitude": 52.6536,
        "longitude": 5.0044
    },
    {
        "name": "Boekel",
        "latitude": 52.59,
        "longitude": 4.7533
    },
    {
        "name": "Boesingheliede",
        "latitude": 52.3583,
        "longitude": 4.7283
    },
    {
        "name": "Bos en Lommer",
        "latitude": 52.37865,
        "longitude": 4.850507
    },
    {
        "name": "Bovenkarspel",
        "latitude": 52.7,
        "longitude": 5.25
    },
    {
        "name": "Breezand",
        "latitude": 52.89,
        "longitude": 4.80417
    },
    {
        "name": "Bregtdorp",
        "latitude": 52.71666667,
        "longitude": 4.68333333
    },
    {
        "name": "Breukeleveen",
        "latitude": 52.1781,
        "longitude": 5.0692
    },
    {
        "name": "Broek in Waterland",
        "latitude": 52.43417,
        "longitude": 4.99583
    },
    {
        "name": "Broek op Langedijk",
        "latitude": 52.67417,
        "longitude": 4.80556
    },
    {
        "name": "Buiksloot",
        "latitude": 52.3989,
        "longitude": 4.9221
    },
    {
        "name": "Buikslotermeer",
        "latitude": 52.4035,
        "longitude": 4.9374
    },
    {
        "name": "Buitenkaag",
        "latitude": 52.2197,
        "longitude": 4.5608
    },
    {
        "name": "Buitenveldert",
        "latitude": 52.33,
        "longitude": 4.8742
    },
    {
        "name": "Burgerbrug",
        "latitude": 52.7481,
        "longitude": 4.7022
    },