[
    {
        "name": "Aleysk",
        "latitude": 52.4926,
        "longitude": 82.7822
    },
    {
        "name": "Aleyskiy Rayon",
        "latitude": 52.41667,
        "longitude": 82.75
    },
    {
        "name": "Altayskoye",
        "latitude": 51.95333,
        "longitude": 85.3325
    },
    {
        "name": "Anton\u2019yevka",
        "latitude": 51.9961,
        "longitude": 83.974
    },
    {
        "name": "Aya",
        "latitude": 51.94532,
        "longitude": 85.80168
    },
    {
        "name": "Barnaul",
        "latitude": 53.36056,
        "longitude": 83.76361
    },
    {
        "name": "Barnaul Urban Okrug",
        "latitude": 53.33087,
        "longitude": 83.64441
    },
    {
        "name": "Bastan",
        "latitude": 51.85889,
        "longitude": 79.47444
    },
    {
        "name": "Bayevo",
        "latitude": 53.27065,
        "longitude": 80.77921
    },
    {
        "name": "Bayunovskiye Klyuchi",
        "latitude": 53.32806,
        "longitude": 84.18222
    },
    {
        "name": "Belokurikha",
        "latitude": 51.9959,
        "longitude": 84.9896
    },
    {
        "name": "Beloyarsk",
        "latitude": 53.4461,
        "longitude": 83.9048
    },
    {
        "name": "Ber\u00ebzovka",
        "latitude": 52.35111,
        "longitude": 85.82722
    },
    {
        "name": "Biysk",
        "latitude": 52.53639,
        "longitude": 85.20722
    },
    {
        "name": "Blagoveshchenka",
        "latitude": 52.83333,
        "longitude": 79.86667
    },
    {
        "name": "Bobrovka",
        "latitude": 53.18361,
        "longitude": 83.87639
    },
    {
        "name": "Borovikha",
        "latitude": 53.5072,
        "longitude": 83.8379
    },
    {
        "name": "Burla",
        "latitude": 53.3362,
        "longitude": 78.3301
    },
    {
        "name": "Bystryanka",
        "latitude": 52.28611,
        "longitude": 85.82833
    },
    {
        "name": "Bystryy Istok",
        "latitude": 52.371,
        "longitude": 84.3873
    },
    {
        "name": "Charyshskoye",
        "latitude": 51.3978,
        "longitude": 83.5598
    },
    {
        "name": "Cheremnoye",
        "latitude": 53.16972,
        "longitude": 83.21333
    },
    {
        "name": "Gal\u2019bshtadt",
        "latitude": 53.2264,
        "longitude": 78.9845
    },
    {
        "name": "Gon\u2019ba",
        "latitude": 53.4172,
        "longitude": 83.5747
    },
    {
        "name": "Gornyak",
        "latitude": 50.99417,
        "longitude": 81.46611
    },
    {
        "name": "Grishkovka",
        "latitude": 53.1487,
        "longitude": 78.751
    },
    {
        "name": "Inya",
        "latitude": 53.5044,
        "longitude": 82.6712
    },
    {
        "name": "Kalmanka",
        "latitude": 52.89917,
        "longitude": 83.54333
    },
    {
        "name": "Kalmanskiy Rayon",
        "latitude": 53.0,
        "longitude": 83.5
    },
    {
        "name": "Kamen\u2019-na-Obi",
        "latitude": 53.7884,
        "longitude": 81.3423
    },
    {
        "name": "Khabarskiy Rayon",
        "latitude": 53.58333,
        "longitude": 79.5
    },
    {
        "name": "Khabary",
        "latitude": 53.62588,
        "longitude": 79.5345
    },
    {
        "name": "Klyuchi",
        "latitude": 52.25303,
        "longitude": 79.16868
    },
    {
        "name": "Kosikha",
        "latitude": 53.36167,
        "longitude": 84.58222
    },
    {
        "name": "Kosikhinskiy Rayon",
        "latitude": 53.41667,
        "longitude": 84.58333
    },
    {
        "name": "Krasnogorskoye",
        "latitude": 52.2953,
        "longitude": 86.1979
    },
    {
        "name": "Krasnoshchekovo",
        "latitude": 51.67083,
        "longitude": 82.72889
    },
    {
        "name": "Krasnyy Yar",
        "latitude": 52.3575,
        "longitude": 85.33806
    },
    {
        "name": "Krutikha",
        "latitude": 53.9599,
        "longitude": 81.2093
    },
    {
        "name": "Kulunda",
        "latitude": 52.566,
        "longitude": 78.9385
    },
    {
        "name": "Kulundinskiy Rayon",
        "latitude": 52.58333,
        "longitude": 79.0
    },
    {
        "name": "Kur\u2019inskiy Rayon",
        "latitude": 51.41667,
        "longitude": 82.41667
    },
    {
        "name": "Kusak",
        "latitude": 53.2238,
        "longitude": 78.9337
    },
    {
        "name": "Kytmanovo",
        "latitude": 53.4593,
        "longitude": 85.4479
    },
    {
        "name": "Lebyazh\u2019ye",
        "latitude": 53.24361,
        "longitude": 83.65333
    },
    {
        "name": "Lesnoye",
        "latitude": 52.46926,
        "longitude": 85.25547
    },
    {
        "name": "Logovskoye",
        "latitude": 53.4943,
        "longitude": 84.2016
    },
    {
        "name": "Loktevskiy Rayon",
        "latitude": 51.0,
        "longitude": 81.58333
    },
    {
        "name": "Malinovoye Ozero",
        "latitude": 51.67528,
        "longitude": 79.7825
    },
    {
        "name": "Malougrenevo",
        "latitude": 52.5568,
        "longitude": 85.33908
    },
    {
        "name": "Mamontovo",
        "latitude": 52.7055,
        "longitude": 81.6244
    },
    {
        "name": "Mamontovskiy Rayon",
        "latitude": 52.66667,
        "longitude": 81.75
    },
    {
        "name": "Martynovo",
        "latitude": 53.26667,
        "longitude": 85.88333
    },
    {
        "name": "Mikhaylovskiy Rayon",
        "latitude": 51.75,
        "longitude": 79.66667
    },
    {
        "name": "Mikhaylovskoye",
        "latitude": 51.82389,
        "longitude": 79.71722
    },
    {
        "name": "Nagornyy",
        "latitude": 52.7959,
        "longitude": 83.5498
    },
    {
        "name": "Nalobikha",
        "latitude": 53.2009,
        "longitude": 84.6
    },
    {
        "name": "Natsional\u2019nyy Rayon Nemetskiy",
        "latitude": 53.25,
        "longitude": 79.0
    },
    {
        "name": "Nauchnyy Gorodok",
        "latitude": 53.4203,
        "longitude": 83.521
    },
    {
        "name": "Nikolayevka",
        "latitude": 51.92556,
        "longitude": 79.41583
    },
    {
        "name": "Novichikha",
        "latitude": 52.204,
        "longitude": 81.3877
    },
    {
        "name": "Novichikhinskiy Rayon",
        "latitude": 52.16667,
        "longitude": 81.41667
    },
    {
        "name": "Novikovo",
        "latitude": 52.62231,
        "longitude": 85.96392
    },
    {
        "name": "Novoaltaysk",
        "latitude": 53.3917,
        "longitude": 83.9363
    },
    {
        "name": "Novosilikatnyy",
        "latitude": 53.30972,
        "longitude": 83.62389
    },
    {
        "name": "Novotyryshkino",
        "latitude": 52.0833,
        "longitude": 84.9089
    },
    {
        "name": "Novyye Zori",
        "latitude": 53.24778,
        "longitude": 83.425
    },
    {
        "name": "Pankrushikha",
        "latitude": 53.83194,
        "longitude": 80.34056
    },
    {
        "name": "Pankrushikhinskiy Rayon",
        "latitude": 53.83333,
        "longitude": 80.33333
    },
    {
        "name": "Pavlovsk",
        "latitude": 53.31861,
        "longitude": 82.98222
    },
    {
        "name": "Pavlovskiy Rayon",
        "latitude": 53.25,
        "longitude": 83.0
    },
    {
        "name": "Pervomayskiy",
        "latitude": 52.9173,
        "longitude": 81.6624
    },
    {
        "name": "Pervomayskiy Rayon",
        "latitude": 53.41667,
        "longitude": 84.08333
    },
    {
        "name": "Pervomayskoye",
        "latitude": 52.59888,
        "longitude": 85.25769
    },
    {
        "name": "Petropavlovskiy Rayon",
        "latitude": 52.16667,
        "longitude": 84.25
    },
    {
        "name": "Petropavlovskoye",
        "latitude": 52.0712,
        "longitude": 84.107
    },
    {
        "name": "Podsosnovo",
        "latitude": 53.3721,
        "longitude": 78.9184
    },
    {
        "name": "Pospelikha",
        "latitude": 51.95,
        "longitude": 81.76667
    },
    {
        "name": "Pospelikhinskiy Rayon",
        "latitude": 51.83333,
        "longitude": 81.66667
    },
    {
        "name": "Rebrikha",
        "latitude": 53.07333,
        "longitude": 82.34083
    },
    {
        "name": "Rebrikhinskiy Rayon",
        "latitude": 53.0,
        "longitude": 82.25
    },
    {
        "name": "Rodino",
        "latitude": 52.49783,
        "longitude": 80.20294
    },
    {
        "name": "Rodinskiy Rayon",
        "latitude": 52.5,
        "longitude": 80.33333
    },
    {
        "name": "Romanovo",
        "latitude": 52.6182,
        "longitude": 81.2271
    },
    {
        "name": "Romanovskiy Rayon",
        "latitude": 52.58333,
        "longitude": 81.16667
    },
    {
        "name": "Rubtsovsk",
        "latitude": 51.51473,
        "longitude": 81.20613
    },
    {
        "name": "Rubtsovskiy Rayon",
        "latitude": 51.5,
        "longitude": 81.33333
    },
    {
        "name": "Sannikovo",
        "latitude": 53.3448,
        "longitude": 83.9749
    },
    {
        "name": "Severka",
        "latitude": 52.13333,
        "longitude": 79.28333
    },
    {
        "name": "Shakhi",
        "latitude": 53.3361,
        "longitude": 83.3624
    },
    {
        "name": "Shelabolikha",
        "latitude": 53.4131,
        "longitude": 82.6167
    },
    {
        "name": "Shelabolikhinskiy Rayon",
        "latitude": 53.41667,
        "longitude": 82.25
    },
    {
        "name": "Shipunovo",
        "latitude": 52.1582,
        "longitude": 82.2173
    },
    {
        "name": "Shipunovskiy Rayon",
        "latitude": 52.33333,
        "longitude": 82.08333
    },
    {
        "name": "Shubenka",
        "latitude": 52.6551,
        "longitude": 85.09858
    },
    {
        "name": "Shul\u2019gin Log",
        "latitude": 52.16985,
        "longitude": 85.85573
    },
    {
        "name": "Sibirskiy",
        "latitude": 53.5777,
        "longitude": 83.7577
    },
    {
        "name": "Slavgorod",
        "latitude": 52.9978,
        "longitude": 78.6449
    },
    {
        "name": "Slavgorodskoye",
        "latitude": 53.0214,
        "longitude": 78.6435
    },
    {
        "name": "Smolenskiy Rayon",
        "latitude": 52.16667,
        "longitude": 84.91667
    },
    {
        "name": "Smolenskoye",
        "latitude": 52.30447,
        "longitude": 85.0785
    },
    {
        "name": "Sokolovo",
        "latitude": 52.5318,
        "longitude": 84.7896
    },
    {
        "name": "Soloneshenskiy Rayon",
        "latitude": 51.66667,
        "longitude": 84.5
    },
    {
        "name": "Soloneshnoye",
        "latitude": 51.6544,
        "longitude": 84.3197
    },
    {
        "name": "Solton",
        "latitude": 52.8429,
        "longitude": 86.4787
    },
    {
        "name": "Soltonskiy Rayon",
        "latitude": 52.83333,
        "longitude": 86.5
    },
    {
        "name": "Sorokino",
        "latitude": 53.75,
        "longitude": 84.91667
    },
    {
        "name": "Sovetskoye",
        "latitude": 52.28556,
        "longitude": 85.41424
    },
    {
        "name": "Srostki",
        "latitude": 52.4209,
        "longitude": 85.69923
    },
    {
        "name": "Stan-Bekhtemir",
        "latitude": 52.60665,
        "longitude": 85.62619
    },
    {
        "name": "Staroaleyskoye",
        "latitude": 51.00611,
        "longitude": 82.0
    },
    {
        "name": "Starobelokurikha",
        "latitude": 52.05206,
        "longitude": 85.08765
    },
    {
        "name": "Staryy Togul",
        "latitude": 53.4291,
        "longitude": 85.9006
    },
    {
        "name": "Stukovo",
        "latitude": 53.21278,
        "longitude": 83.33778
    },
    {
        "name": "Sych\u00ebvka",
        "latitude": 52.0512,
        "longitude": 84.7788
    },
    {
        "name": "Tabuny",
        "latitude": 52.7773,
        "longitude": 78.7896
    },
    {
        "name": "Tal\u2019menka",
        "latitude": 53.8183,
        "longitude": 83.5677
    },
    {
        "name": "Tal\u2019menskiy Rayon",
        "latitude": 53.75,
        "longitude": 83.41667
    },
    {
        "name": "Togul",
        "latitude": 53.467,
        "longitude": 85.9128
    },
    {
        "name": "Togul\u2019skiy Rayon",
        "latitude": 53.66667,
        "longitude": 86.08333
    },
    {
        "name": "Topchikha",
        "latitude": 52.8192,
        "longitude": 83.1185
    },
    {
        "name": "Topol\u2019noye",
        "latitude": 51.5105,
        "longitude": 84.4813
    },
    {
        "name": "Troitskoye",
        "latitude": 52.9822,
        "longitude": 84.68
    },
    {
        "name": "Tselinnoye",
        "latitude": 53.07822,
        "longitude": 85.65363
    },
    {
        "name": "Tyumentsevo",
        "latitude": 53.3224,
        "longitude": 81.498
    },
    {
        "name": "Tyumentsevskiy Rayon",
        "latitude": 53.25,
        "longitude": 81.5
    },
    {
        "name": "Uglovskoye",
        "latitude": 51.3557,
        "longitude": 80.1942
    },
    {
        "name": "Ust\u2019-Charyshskaya Pristan\u2019",
        "latitude": 52.3934,
        "longitude": 83.6635
    },
    {
        "name": "Ust\u2019-Isha",
        "latitude": 52.18201,
        "longitude": 85.96757
    },
    {
        "name": "Ust\u2019-Kalmanka",
        "latitude": 52.1207,
        "longitude": 83.305
    },
    {
        "name": "Ust\u2019yanka",
        "latitude": 53.4527,
        "longitude": 78.7425
    },
    {
        "name": "Usyatskoye",
        "latitude": 52.56806,
        "longitude": 85.76085
    },
    {
        "name": "Verkh-Katunskoye",
        "latitude": 52.45,
        "longitude": 85.43162
    },
    {
        "name": "Verkh-Suetka",
        "latitude": 53.30401,
        "longitude": 80.04675
    },
    {
        "name": "Verkhniy Bekhtemir",
        "latitude": 52.76582,
        "longitude": 85.91011
    },
    {
        "name": "Veseloyarsk",
        "latitude": 51.28737,
        "longitude": 81.10703
    },
    {
        "name": "Vlasikha",
        "latitude": 53.29722,
        "longitude": 83.57417
    },
    {
        "name": "Volchikha",
        "latitude": 52.01356,
        "longitude": 80.35715
    },
    {
        "name": "Volchikhinskiy Rayon",
        "latitude": 52.08333,
        "longitude": 80.5
    },
    {
        "name": "Yarovoye",
        "latitude": 52.9273,
        "longitude": 78.58
    },
    {
        "name": "Yegor\u2019yevskiy Rayon",
        "latitude": 51.75,
        "longitude": 81.0
    },
    {
        "name": "Yel\u2019tsovskiy Rayon",
        "latitude": 53.25,
        "longitude": 86.41667
    },
    {
        "name": "Yuzhnyy",
        "latitude": 53.25417,
        "longitude": 83.69361
    },
    {
        "name": "Zalesovo",
        "latitude": 53.99389,
        "longitude": 84.74306
    },
    {
        "name": "Zarinsk",
        "latitude": 53.7074,
        "longitude": 84.9493
    },
    {
        "name": "Zarinskiy Rayon",
        "latitude": 53.91667,
        "longitude": 85.33333
    },
    {
        "name": "Zarya",
        "latitude": 52.59696,
        "longitude": 85.1757
    },
    {
        "name": "Zaton",
        "latitude": 53.29361,
        "longitude": 83.80722
    },
    {
        "name": "Zav\u2019yalovo",
        "latitude": 52.83805,
        "longitude": 80.9197
    },
    {
        "name": "Zav\u2019yalovskiy Rayon",
        "latitude": 52.91667,
        "longitude": 81.0
    },
    {
        "name": "Zmeinogorsk",
        "latitude": 51.15776,
        "longitude": 82.19534
    },
    {
        "name": "Zonal\u2019noye",
        "latitude": 52.6665,
        "longitude": 84.9331
    },
    {
        "name": "Zudilovo",
        "latitude": 53.4927,
        "longitude": 83.8937
    },
    {
        "name": "Aktash",
        "latitude": 50.3,
        "longitude": 87.73333
    },
    {
        "name": "Artybash",
        "latitude": 51.79278,
        "longitude": 87.27611
    },
    {
        "name": "Belyashi",
        "latitude": 49.709,
        "longitude": 87.423
    },
    {
        "name": "Chemal",
        "latitude": 51.41111,
        "longitude": 86.005
    },
    {
        "name": "Cherga",
        "latitude": 51.56889,
        "longitude": 85.5625
    },
    {
        "name": "Choya",
        "latitude": 52.0108,
        "longitude": 86.5467
    },
    {
        "name": "Elekmonar",
        "latitude": 51.45889,
        "longitude": 85.98778
    },
    {
        "name": "Gorno-Altaysk",
        "latitude": 51.96056,
        "longitude": 85.91892
    },
    {
        "name": "Inya",
        "latitude": 50.45611,
        "longitude": 86.62667
    },
    {
        "name": "Iogach",
        "latitude": 51.78167,
        "longitude": 87.26306
    },
    {
        "name": "Kosh-Agach",
        "latitude": 49.99273,
        "longitude": 88.67598
    },
    {
        "name": "Manzherok",
        "latitude": 51.83028,
        "longitude": 85.775
    },
    {
        "name": "Mayma",
        "latitude": 52.01577,
        "longitude": 85.90963
    },
    {
        "name": "Mayminskiy Rayon",
        "latitude": 51.83333,
        "longitude": 86.0
    },
    {
        "name": "Onguday",
        "latitude": 50.75,
        "longitude": 86.15
    },
    {
        "name": "Ongudayskiy Rayon",
        "latitude": 50.66667,
        "longitude": 86.5
    },
    {
        "name": "Shebalino",
        "latitude": 51.29167,
        "longitude": 85.67722
    },
    {
        "name": "Shebalinskiy Rayon",
        "latitude": 51.33333,
        "longitude": 85.5
    },
    {
        "name": "Souzga",
        "latitude": 51.88722,
        "longitude": 85.84944
    },
    {
        "name": "Tashanta",
        "latitude": 49.71573,
        "longitude": 89.19425
    },
    {
        "name": "Turochak",
        "latitude": 52.2576,
        "longitude": 87.1224
    },
    {
        "name": "Ust\u2019-Kan",
        "latitude": 50.9276,
        "longitude": 84.761
    },
    {
        "name": "Ust\u2019-Koksa",
        "latitude": 50.2696,
        "longitude": 85.6108
    },
    {
        "name": "Ust\u2019-Koksinskiy Rayon",
        "latitude": 50.16667,
        "longitude": 85.58333
    },
    {
        "name": "Ust\u2019-Ulagan",
        "latitude": 50.63258,
        "longitude": 87.96046
    },
    {
        "name": "Arkhara",
        "latitude": 49.42447,
        "longitude": 130.08569
    },
    {
        "name": "Arkharinskiy Rayon",
        "latitude": 49.5,
        "longitude": 130.66667
    },
    {
        "name": "Belogorsk",
        "latitude": 50.91644,
        "longitude": 128.47726
    },
    {
        "name": "Belogorskiy Rayon",
        "latitude": 50.75,
        "longitude": 128.5
    },
    {
        "name": "Blagoveshchensk",
        "latitude": 50.27961,
        "longitude": 127.5405
    },
    {
        "name": "Blagoveshchenskiy Rayon",
        "latitude": 50.75,
        "longitude": 127.5
    },
    {
        "name": "Bureya",
        "latitude": 49.81212,
        "longitude": 129.81278
    },
    {
        "name": "Bureyskiy Rayon",
        "latitude": 50.0,
        "longitude": 130.0
    },
    {
        "name": "Ekimchan",
        "latitude": 53.06972,
        "longitude": 132.94011
    },
    {
        "name": "Gorod Blagoveshchensk",
        "latitude": 50.4,
        "longitude": 127.6
    },
    {
        "name": "Gorod Raychikhinsk",
        "latitude": 49.75,
        "longitude": 129.41667
    },
    {
        "name": "Ivanovskiy Rayon",
        "latitude": 50.45611,
        "longitude": 127.99778
    },
    {
        "name": "Konstantinovka",
        "latitude": 49.61876,
        "longitude": 127.99025
    },
    {
        "name": "Konstantinovskiy Rayon",
        "latitude": 49.75,
        "longitude": 128.16667
    },
    {
        "name": "Magdagachi",
        "latitude": 53.45398,
        "longitude": 125.80932
    },
    {
        "name": "Magdagachinskiy Rayon",
        "latitude": 53.33333,
        "longitude": 126.0
    },
    {
        "name": "Mazanovskiy Rayon",
        "latitude": 52.16667,
        "longitude": 129.5
    },
    {
        "name": "Mikhaylovskiy Rayon",
        "latitude": 49.75,
        "longitude": 128.75
    },
    {
        "name": "Never",
        "latitude": 53.97946,
        "longitude": 124.15777
    },
    {
        "name": "Novobureyskiy",
        "latitude": 49.79695,
        "longitude": 129.87443
    },
    {
        "name": "Novoraychikhinsk",
        "latitude": 49.78423,
        "longitude": 129.59051
    },
    {
        "name": "Oktyabr\u2019skiy Rayon",
        "latitude": 50.33333,
        "longitude": 129.0
    },
    {
        "name": "Ovsyanka",
        "latitude": 53.57868,
        "longitude": 126.89623
    },
    {
        "name": "Poyarkovo",
        "latitude": 49.62678,
        "longitude": 128.65352
    },
    {
        "name": "Raychikhinsk",
        "latitude": 49.78998,
        "longitude": 129.40992
    },
    {
        "name": "Romnenskiy Rayon",
        "latitude": 51.0,
        "longitude": 130.0
    },
    {
        "name": "Romny",
        "latitude": 50.7207,
        "longitude": 129.29122
    },
    {
        "name": "Selemdzhinskiy Rayon",
        "latitude": 52.5,
        "longitude": 132.0
    },
    {
        "name": "Seryshevo",
        "latitude": 51.09391,
        "longitude": 128.38258
    },
    {
        "name": "Seryshevskiy Rayon",
        "latitude": 51.16667,
        "longitude": 128.5
    },
    {
        "name": "Shimanovsk",
        "latitude": 52.00575,
        "longitude": 127.67756
    },
    {
        "name": "Shimanovskiy Rayon",
        "latitude": 52.16667,
        "longitude": 127.5
    },
    {
        "name": "Shirokiy",
        "latitude": 49.75907,
        "longitude": 129.51988
    },
    {
        "name": "Sivaki",
        "latitude": 52.6343,
        "longitude": 126.74777
    },
    {
        "name": "Skovorodino",
        "latitude": 53.98473,
        "longitude": 123.9403
    },
    {
        "name": "Skovorodinskiy Rayon",
        "latitude": 53.83333,
        "longitude": 123.5
    },
    {
        "name": "Solovjevsk",
        "latitude": 54.23333,
        "longitude": 124.43333
    },
    {
        "name": "Srednebelaya",
        "latitude": 50.65854,
        "longitude": 128.00932
    },
    {
        "name": "Svobodnenskiy Rayon",
        "latitude": 51.5,
        "longitude": 127.83333
    },
    {
        "name": "Svobodnyy",
        "latitude": 51.37525,
        "longitude": 128.14097
    },
    {
        "name": "Takhtamygda",
        "latitude": 54.11031,
        "longitude": 123.60802
    },
    {
        "name": "Talakan",
        "latitude": 50.26378,
        "longitude": 130.26755
    },
    {
        "name": "Taldan",
        "latitude": 53.68981,
        "longitude": 124.8149
    },
    {
        "name": "Tambovka",
        "latitude": 50.09968,
        "longitude": 128.05724
    },
    {
        "name": "Tambovskiy Rayon",
        "latitude": 50.08333,
        "longitude": 128.0
    },
    {
        "name": "Tokur",
        "latitude": 53.13531,
        "longitude": 132.88996
    },
    {
        "name": "Tsiolkovskiy",
        "latitude": 51.76694,
        "longitude": 128.11472
    },
    {
        "name": "Tygda",
        "latitude": 53.11169,
        "longitude": 126.32907
    },
    {
        "name": "Tynda",
        "latitude": 55.156,
        "longitude": 124.72479
    },
    {
        "name": "Tyndinskiy Rayon",
        "latitude": 55.33333,
        "longitude": 123.5
    },
    {
        "name": "Urusha",
        "latitude": 54.05303,
        "longitude": 122.88561
    },
    {
        "name": "Ushumun",
        "latitude": 52.78633,
        "longitude": 126.53767
    },
    {
        "name": "Yekaterinoslavka",
        "latitude": 50.37344,
        "longitude": 129.10957
    },
    {
        "name": "Yerofey Pavlovich",
        "latitude": 53.96305,
        "longitude": 121.95805
    },
    {
        "name": "Zavitinsk",
        "latitude": 50.11118,
        "longitude": 129.44156
    },
    {
        "name": "Zavitinskiy Rayon",
        "latitude": 50.16667,
        "longitude": 129.5
    },
    {
        "name": "Zeya",
        "latitude": 53.73601,
        "longitude": 127.257
    },
    {
        "name": "Zeyskiy Rayon",
        "latitude": 54.5,
        "longitude": 128.5
    },
    {
        "name": "Arkhangel\u2019sk",
        "latitude": 64.5401,
        "longitude": 40.5433
    },
    {
        "name": "Ber\u00ebznik",
        "latitude": 62.852,
        "longitude": 42.7071
    },
    {
        "name": "Cheremushskiy",
        "latitude": 61.27306,
        "longitude": 47.26361
    },
    {
        "name": "Dvinskoy",
        "latitude": 62.1519,
        "longitude": 45.1184
    },
    {
        "name": "Il\u2019insko-Podomskoye",
        "latitude": 61.11444,
        "longitude": 47.97861
    },
    {
        "name": "Ileza",
        "latitude": 61.05328,
        "longitude": 43.90021
    },
    {
        "name": "Isakogorka",
        "latitude": 64.446,
        "longitude": 40.6531
    },
    {
        "name": "Kamenka",
        "latitude": 65.8835,
        "longitude": 44.1272
    },
    {
        "name": "Kargopol\u2019",
        "latitude": 61.50359,
        "longitude": 38.9486
    },
    {
        "name": "Kargopol\u2019skiy Rayon",
        "latitude": 61.33333,
        "longitude": 39.0
    },
    {
        "name": "Karpogory",
        "latitude": 64.00189,
        "longitude": 44.44513
    },
    {
        "name": "Katunino",
        "latitude": 64.3862,
        "longitude": 40.6298
    },
    {
        "name": "Kharitonovo",
        "latitude": 61.40092,
        "longitude": 47.49779
    },
    {
        "name": "Kholmogorskiy Rayon",
        "latitude": 64.08333,
        "longitude": 41.66667
    },
    {
        "name": "Kholmogory",
        "latitude": 64.2229,
        "longitude": 41.656
    },
    {
        "name": "Kizema",
        "latitude": 61.11304,
        "longitude": 44.83017
    },
    {
        "name": "Kodino",
        "latitude": 63.71976,
        "longitude": 39.64465
    },
    {
        "name": "Kon\u00ebvo",
        "latitude": 62.11745,
        "longitude": 39.33131
    },
    {
        "name": "Konosha",
        "latitude": 60.9736,
        "longitude": 40.257
    },
    {
        "name": "Koryazhma",
        "latitude": 61.31433,
        "longitude": 47.16914
    },
    {
        "name": "Kotlas",
        "latitude": 61.25745,
        "longitude": 46.64963
    },
    {
        "name": "Kotlasskiy Rayon",
        "latitude": 61.16667,
        "longitude": 46.33333
    },
    {
        "name": "Krasnoborsk",
        "latitude": 61.55978,
        "longitude": 45.93396
    },
    {
        "name": "Kuloy",
        "latitude": 61.03049,
        "longitude": 42.49252
    },
    {
        "name": "Lenskiy Rayon",
        "latitude": 62.0,
        "longitude": 48.66667
    },
    {
        "name": "Leshukonskiy Rayon",
        "latitude": 65.0,
        "longitude": 47.0
    },
    {
        "name": "Leshukonskoye",
        "latitude": 64.8977,
        "longitude": 45.7655
    },
    {
        "name": "Loyga",
        "latitude": 61.07845,
        "longitude": 44.6075
    },
    {
        "name": "Lukovetskiy",
        "latitude": 64.2956,
        "longitude": 41.9211
    },
    {
        "name": "Mezen\u2019",
        "latitude": 65.8401,
        "longitude": 44.2542
    },
    {
        "name": "Mezenskiy Rayon",
        "latitude": 65.75,
        "longitude": 44.0
    },
    {
        "name": "Mirnyy",
        "latitude": 61.33289,
        "longitude": 44.53598
    },
    {
        "name": "Novodvinsk",
        "latitude": 64.4165,
        "longitude": 40.8122
    },
    {
        "name": "Nyandoma",
        "latitude": 61.6656,
        "longitude": 40.2013
    },
    {
        "name": "Nyandomskiy Rayon",
        "latitude": 62.0,
        "longitude": 40.66667
    },
    {
        "name": "Oksovskiy",
        "latitude": 62.60623,
        "longitude": 39.89845
    },
    {
        "name": "Onega",
        "latitude": 63.90692,
        "longitude": 38.11112
    },
    {
        "name": "Onezhskiy Rayon",
        "latitude": 63.33333,
        "longitude": 38.0
    },
    {
        "name": "Pinega",
        "latitude": 64.69969,
        "longitude": 43.39016
    },
    {
        "name": "Pinezhskiy Rayon",
        "latitude": 64.66667,
        "longitude": 43.0
    },
    {
        "name": "Plesetsk",
        "latitude": 62.70804,
        "longitude": 40.29159
    },
    {
        "name": "Podyuga",
        "latitude": 61.095,
        "longitude": 40.86472
    },
    {
        "name": "Primorskiy Rayon",
        "latitude": 65.0,
        "longitude": 41.0
    },
    {
        "name": "Privodino",
        "latitude": 61.07599,
        "longitude": 46.50238
    },
    {
        "name": "Puksoozero",
        "latitude": 62.5903,
        "longitude": 40.6066
    },
    {
        "name": "Rochegda",
        "latitude": 62.6678,
        "longitude": 43.4133
    },
    {
        "name": "Samoded",
        "latitude": 63.6083,
        "longitude": 40.5111
    },
    {
        "name": "Severodvinsk",
        "latitude": 64.5635,
        "longitude": 39.8302
    },
    {
        "name": "Shalakusha",
        "latitude": 62.22472,
        "longitude": 40.25389
    },
    {
        "name": "Shangaly",
        "latitude": 61.12842,
        "longitude": 43.33427
    },
    {
        "name": "Shenkursk",
        "latitude": 62.1091,
        "longitude": 42.89595
    },
    {
        "name": "Shenkurskiy Rayon",
        "latitude": 62.25,
        "longitude": 42.41667
    },
    {
        "name": "Shipitsyno",
        "latitude": 61.28056,
        "longitude": 46.52083
    },
    {
        "name": "Sol\u2019vychegodsk",
        "latitude": 61.33046,
        "longitude": 46.91559
    },
    {
        "name": "Solginskiy",
        "latitude": 61.05,
        "longitude": 41.34278
    },
    {
        "name": "Udimskiy",
        "latitude": 61.14171,
        "longitude": 45.91443
    },
    {
        "name": "Urdoma",
        "latitude": 61.75335,
        "longitude": 48.5442
    },
    {
        "name": "Ust\u2019-Shonosha",
        "latitude": 61.1531,
        "longitude": 41.343
    },
    {
        "name": "Ust\u2019yanskiy Rayon",
        "latitude": 61.33333,
        "longitude": 43.66667
    },
    {
        "name": "Uyemskiy",
        "latitude": 64.4743,
        "longitude": 40.8524
    },
    {
        "name": "Vas\u2019kovo",
        "latitude": 64.4122,
        "longitude": 40.4639
    },
    {
        "name": "Vel\u2019sk",
        "latitude": 61.07006,
        "longitude": 42.0983
    },
    {
        "name": "Vel\u2019skiy Rayon",
        "latitude": 61.0,
        "longitude": 42.0
    },
    {
        "name": "Verkhnyaya Toyma",
        "latitude": 62.2347,
        "longitude": 45.0009
    },
    {
        "name": "Voloshka",
        "latitude": 61.33139,
        "longitude": 40.08583
    },
    {
        "name": "Vychegodskiy",
        "latitude": 61.24702,
        "longitude": 46.89842
    },
    {
        "name": "Yagry",
        "latitude": 64.59417,
        "longitude": 39.81028
    },
    {
        "name": "Yarensk",
        "latitude": 62.16755,
        "longitude": 49.09162
    },
    {
        "name": "Yemetsk",
        "latitude": 63.47191,
        "longitude": 41.78023
    },
    {
        "name": "Yemtsa",
        "latitude": 63.07337,
        "longitude": 40.33285
    },
    {
        "name": "Yertsevo",
        "latitude": 60.7966,
        "longitude": 40.086
    },
    {
        "name": "Akhtubinsk",
        "latitude": 48.27955,
        "longitude": 46.17217
    },
    {
        "name": "Akhtubinskiy Rayon",
        "latitude": 48.16667,
        "longitude": 46.25
    },
    {
        "name": "Aksarayskiy",
        "latitude": 46.79244,
        "longitude": 48.01188
    },
    {
        "name": "Astrakhan",
        "latitude": 46.34968,
        "longitude": 48.04076
    },
    {
        "name": "Chyorny Yar",
        "latitude": 48.06242,
        "longitude": 46.10911
    },
    {
        "name": "Ikryanoye",
        "latitude": 46.09323,
        "longitude": 47.73078
    },
    {
        "name": "Kamyzyak",
        "latitude": 46.10995,
        "longitude": 48.07364
    },
    {
        "name": "Kapustin Yar",
        "latitude": 48.58175,
        "longitude": 45.74481
    },
    {
        "name": "Karalat",
        "latitude": 45.91555,
        "longitude": 48.30683
    },
    {
        "name": "Kharabali",
        "latitude": 47.41958,
        "longitude": 47.25678
    },
    {
        "name": "Kirovskiy",
        "latitude": 45.84639,
        "longitude": 48.12472
    },
    {
        "name": "Krasnoyarskiy Rayon",
        "latitude": 46.83333,
        "longitude": 48.25
    },
    {
        "name": "Krasnyy Yar",
        "latitude": 46.53314,
        "longitude": 48.34559
    },
    {
        "name": "Krasnyye Barrikady",
        "latitude": 46.2045,
        "longitude": 47.8535
    },
    {
        "name": "Liman",
        "latitude": 45.78457,
        "longitude": 47.22405
    },
    {
        "name": "Limanskiy Rayon",
        "latitude": 45.83333,
        "longitude": 47.25
    },
    {
        "name": "Marfino",
        "latitude": 46.40852,
        "longitude": 48.71398
    },
    {
        "name": "Mumra",
        "latitude": 45.77251,
        "longitude": 47.65398
    },
    {
        "name": "Nachalovo",
        "latitude": 46.338,
        "longitude": 48.20128
    },
    {
        "name": "Narimanov",
        "latitude": 46.6927,
        "longitude": 47.8498
    },
    {
        "name": "Nizhniy Baskunchak",
        "latitude": 48.21978,
        "longitude": 46.83105
    },
    {
        "name": "Oranzherei",
        "latitude": 45.84756,
        "longitude": 47.56635
    },
    {
        "name": "Poldn\u00ebvoye",
        "latitude": 45.85568,
        "longitude": 47.95241
    },
    {
        "name": "Privolzhskiy Rayon",
        "latitude": 46.25,
        "longitude": 48.16667
    },
    {
        "name": "Sasykoli",
        "latitude": 47.55153,
        "longitude": 46.99679
    },
    {
        "name": "Sizyy Bugor",
        "latitude": 46.21343,
        "longitude": 48.50462
    },
    {
        "name": "Solyanka",
        "latitude": 46.3889,
        "longitude": 48.01755
    },
    {
        "name": "Starokucherganovka",
        "latitude": 46.32476,
        "longitude": 47.9555
    },
    {
        "name": "Tambovka",
        "latitude": 47.31528,
        "longitude": 47.37773
    },
    {
        "name": "Trudfront",
        "latitude": 45.9346,
        "longitude": 47.66929
    },
    {
        "name": "Tumak",
        "latitude": 46.23436,
        "longitude": 48.50627
    },
    {
        "name": "Uvary",
        "latitude": 46.04575,
        "longitude": 48.03558
    },
    {
        "name": "Verkhniy Baskunchak",
        "latitude": 48.22564,
        "longitude": 46.72169
    },
    {
        "name": "Volgo-Kaspiyskiy",
        "latitude": 46.20306,
        "longitude": 47.91869
    },
    {
        "name": "Volodarskiy",
        "latitude": 46.40134,
        "longitude": 48.54093
    },
    {
        "name": "Yaksatovo",
        "latitude": 46.24343,
        "longitude": 48.01514
    },
    {
        "name": "Yandyki",
        "latitude": 45.76913,
        "longitude": 47.12577
    },
    {
        "name": "Yenotayevka",
        "latitude": 47.24559,
        "longitude": 47.02814
    },
    {
        "name": "Zenzeli",
        "latitude": 45.92407,
        "longitude": 47.04739
    },
    {
        "name": "Znamensk",
        "latitude": 48.5842,
        "longitude": 45.7338
    },
    {
        "name": "Alekseyevka",
        "latitude": 50.6309,
        "longitude": 38.6903
    },
    {
        "name": "Bekhteyevka",
        "latitude": 50.80758,
        "longitude": 37.21789
    },
    {
        "name": "Belgorod",
        "latitude": 50.61074,
        "longitude": 36.58015
    },
    {
        "name": "Belgorodskiy Rayon",
        "latitude": 50.5,
        "longitude": 36.5
    },
    {
        "name": "Bessonovka",
        "latitude": 50.52644,
        "longitude": 36.30107
    },
    {
        "name": "Borisovka",
        "latitude": 50.60155,
        "longitude": 36.01549
    },
    {
        "name": "Borisovskiy Rayon",
        "latitude": 50.58333,
        "longitude": 36.0
    },
    {
        "name": "Chernyanka",
        "latitude": 50.94095,
        "longitude": 37.80693
    },
    {
        "name": "Chernyanskiy Rayon",
        "latitude": 51.0,
        "longitude": 37.91667
    },
    {
        "name": "Golovchino",
        "latitude": 50.5341,
        "longitude": 35.797
    },
    {
        "name": "Grayvoron",
        "latitude": 50.4767,
        "longitude": 35.6773
    },
    {
        "name": "Grayvoronskiy Rayon",
        "latitude": 50.5,
        "longitude": 35.66667
    },
    {
        "name": "Gubkin",
        "latitude": 51.28167,
        "longitude": 37.54583
    },
    {
        "name": "Ilovka",
        "latitude": 50.7053,
        "longitude": 38.637
    },
    {
        "name": "Ivnya",
        "latitude": 51.06294,
        "longitude": 36.13426
    },
    {
        "name": "Ivnyanskiy Rayon",
        "latitude": 51.0,
        "longitude": 36.25
    },
    {
        "name": "Korocha",
        "latitude": 50.8132,
        "longitude": 37.18598
    },
    {
        "name": "Korochanskiy Rayon",
        "latitude": 50.83333,
        "longitude": 37.25
    },
    {
        "name": "Krasnaya Yaruga",
        "latitude": 50.80083,
        "longitude": 35.65833
    },
    {
        "name": "Krasnenskiy Rayon",
        "latitude": 50.91667,
        "longitude": 38.58333
    },
    {
        "name": "Krasnogvardeyskiy Rayon",
        "latitude": 50.66667,
        "longitude": 38.33333
    },
    {
        "name": "Krasnogvardeyskoye",
        "latitude": 50.6492,
        "longitude": 38.4036
    },
    {
        "name": "Krasnoyaruzhskiy Rayon",
        "latitude": 50.83333,
        "longitude": 35.5
    },
    {
        "name": "Krasnoye",
        "latitude": 50.9297,
        "longitude": 38.6817
    },
    {
        "name": "Livenka",
        "latitude": 50.4491,
        "longitude": 38.2959
    },
    {
        "name": "Maslova Pristan\u2019",
        "latitude": 50.45758,
        "longitude": 36.72038
    },
    {
        "name": "Mayskiy",
        "latitude": 50.51988,
        "longitude": 36.45878
    },
    {
        "name": "Novaya Tavolzhanka",
        "latitude": 50.35123,
        "longitude": 36.8298
    },
    {
        "name": "Novooskol\u2019skiy Rayon",
        "latitude": 50.75,
        "longitude": 37.83333
    },
    {
        "name": "Novyy Oskol",
        "latitude": 50.7633,
        "longitude": 37.86402
    },
    {
        "name": "Prokhorovka",
        "latitude": 51.03741,
        "longitude": 36.73252
    },
    {
        "name": "Prokhorovskiy Rayon",
        "latitude": 51.00447,
        "longitude": 36.74875
    },
    {
        "name": "Proletarskiy",
        "latitude": 50.79139,
        "longitude": 35.77306
    },
    {
        "name": "Pyatnitskoye",
        "latitude": 50.4233,
        "longitude": 37.8273
    },
    {
        "name": "Rakitnoye",
        "latitude": 50.8389,
        "longitude": 35.8515
    },
    {
        "name": "Rakityanskiy Rayon",
        "latitude": 50.83333,
        "longitude": 35.91667
    },
    {
        "name": "Razumnoye",
        "latitude": 50.53439,
        "longitude": 36.68462
    },
    {
        "name": "Rogovatoye",
        "latitude": 51.23,
        "longitude": 38.3818
    },
    {
        "name": "Roven\u2019skiy Rayon",
        "latitude": 50.0,
        "longitude": 39.0
    },
    {
        "name": "Severnyy",
        "latitude": 50.67704,
        "longitude": 36.55324
    },
    {
        "name": "Shebekino",
        "latitude": 50.40967,
        "longitude": 36.9136
    },
    {
        "name": "Shebekinskiy Rayon",
        "latitude": 50.5,
        "longitude": 37.0
    },
    {
        "name": "Skorodnoye",
        "latitude": 51.07101,
        "longitude": 37.22756
    },
    {
        "name": "Staryy Oskol",
        "latitude": 51.29667,
        "longitude": 37.84167
    },
    {
        "name": "Stroitel\u2019",
        "latitude": 50.78543,
        "longitude": 36.4831
    },
    {
        "name": "Tomarovka",
        "latitude": 50.68338,
        "longitude": 36.23309
    },
    {
        "name": "Troitskiy",
        "latitude": 51.3588,
        "longitude": 37.5253
    },
    {
        "name": "Urazovo",
        "latitude": 50.0836,
        "longitude": 38.0395
    },
    {
        "name": "Valuyki",
        "latitude": 50.2035,
        "longitude": 38.1067
    },
    {
        "name": "Valuyskiy Rayon",
        "latitude": 50.16667,
        "longitude": 38.0
    },
    {
        "name": "Veydelevka",
        "latitude": 50.1521,
        "longitude": 38.4492
    },
    {
        "name": "Volokonovka",
        "latitude": 50.4827,
        "longitude": 37.8563
    },
    {
        "name": "Volokonovskiy Rayon",
        "latitude": 50.5,
        "longitude": 37.83333
    },
    {
        "name": "Yakovlevo",
        "latitude": 50.86033,
        "longitude": 36.44784
    },
    {
        "name": "Yakovlevskiy Rayon",
        "latitude": 50.83333,
        "longitude": 36.41667
    },
    {
        "name": "Zasosna",
        "latitude": 50.6307,
        "longitude": 38.3965
    },
    {
        "name": "Altukhovo",
        "latitude": 52.67559,
        "longitude": 34.36703
    },
    {
        "name": "Ardon\u2019",
        "latitude": 52.73524,
        "longitude": 32.30857
    },
    {
        "name": "Belyye Berega",
        "latitude": 53.20851,
        "longitude": 34.66405
    },
    {
        "name": "Brasovskiy Rayon",
        "latitude": 52.66667,
        "longitude": 34.75
    },
    {
        "name": "Bryansk",
        "latitude": 53.25209,
        "longitude": 34.37167
    },
    {
        "name": "Bryanskiy Rayon",
        "latitude": 53.25,
        "longitude": 34.41667
    },
    {
        "name": "Bytosh\u2019",
        "latitude": 53.81861,
        "longitude": 34.09116
    },
    {
        "name": "Churovichi",
        "latitude": 52.1693,
        "longitude": 31.9926
    },
    {
        "name": "Dobrun\u2019",
        "latitude": 53.18512,
        "longitude": 34.24625
    },
    {
        "name": "Dubrovka",
        "latitude": 53.6907,
        "longitude": 33.5071
    },
    {
        "name": "Dubrovskiy Rayon",
        "latitude": 53.66667,
        "longitude": 33.41667
    },
    {
        "name": "Dyat\u2019kovo",
        "latitude": 53.59782,
        "longitude": 34.33825
    },
    {
        "name": "Dyat\u2019kovskiy Rayon",
        "latitude": 53.66667,
        "longitude": 34.25
    },
    {
        "name": "Glinishchevo",
        "latitude": 53.30416,
        "longitude": 34.06523
    },
    {
        "name": "Gordeyevka",
        "latitude": 52.9569,
        "longitude": 31.9703
    },
    {
        "name": "Gordeyevskiy Rayon",
        "latitude": 52.91667,
        "longitude": 31.91667
    },
    {
        "name": "Gorod Bryansk",
        "latitude": 53.25,
        "longitude": 34.41667
    },
    {
        "name": "Gorod Dyat\u2019kovo",
        "latitude": 53.6,
        "longitude": 34.35
    },
    {
        "name": "Ivanovka",
        "latitude": 53.34694,
        "longitude": 34.21917
    },
    {
        "name": "Ivot",
        "latitude": 53.67556,
        "longitude": 34.18722
    },
    {
        "name": "Karachev",
        "latitude": 53.12292,
        "longitude": 34.98517
    },
    {
        "name": "Kletnya",
        "latitude": 53.38967,
        "longitude": 33.21714
    },
    {
        "name": "Kletnyanskiy Rayon",
        "latitude": 53.33333,
        "longitude": 33.16667
    },
    {
        "name": "Klimovo",
        "latitude": 52.38053,
        "longitude": 32.19233
    },
    {
        "name": "Klimovskiy Rayon",
        "latitude": 52.25,
        "longitude": 32.16667
    },
    {
        "name": "Klintsovskiy Rayon",
        "latitude": 52.75,
        "longitude": 32.16667
    },
    {
        "name": "Klintsy",
        "latitude": 52.76019,
        "longitude": 32.23935
    },
    {
        "name": "Kokino",
        "latitude": 52.4964,
        "longitude": 34.7808
    },
    {
        "name": "Kokorevka",
        "latitude": 52.5874,
        "longitude": 34.2692
    },
    {
        "name": "Komarichi",
        "latitude": 52.4151,
        "longitude": 34.7905
    },
    {
        "name": "Komarichskiy Rayon",
        "latitude": 52.41667,
        "longitude": 34.75
    },
    {
        "name": "Korzhovka-Golubovka",
        "latitude": 52.76742,
        "longitude": 32.35362
    },
    {
        "name": "Krasnaya Gora",
        "latitude": 52.9995,
        "longitude": 31.6023
    },
    {
        "name": "Krasnogorskiy Rayon",
        "latitude": 53.0,
        "longitude": 31.5
    },
    {
        "name": "Lokot\u2019",
        "latitude": 52.565,
        "longitude": 34.5776
    },
    {
        "name": "Lopandino",
        "latitude": 52.4666,
        "longitude": 34.8163
    },
    {
        "name": "Lyubokhna",
        "latitude": 53.50332,
        "longitude": 34.38847
    },
    {
        "name": "Lyubovsho",
        "latitude": 52.9851,
        "longitude": 31.5422
    },
    {
        "name": "Mglin",
        "latitude": 53.05907,
        "longitude": 32.84753
    },
    {
        "name": "Mglinskiy Rayon",
        "latitude": 53.16667,
        "longitude": 32.83333
    },
    {
        "name": "Navlinskiy Rayon",
        "latitude": 52.83333,
        "longitude": 34.41667
    },
    {
        "name": "Navlya",
        "latitude": 52.82544,
        "longitude": 34.4996
    },
    {
        "name": "Net\u2019inka",
        "latitude": 53.34778,
        "longitude": 34.19111
    },
    {
        "name": "Novozybkov",
        "latitude": 52.5396,
        "longitude": 31.9275
    },
    {
        "name": "Novozybkovskiy Rayon",
        "latitude": 52.58333,
        "longitude": 31.83333
    },
    {
        "name": "Novyy Ropsk",
        "latitude": 52.29781,
        "longitude": 32.31206
    },
    {
        "name": "Pochep",
        "latitude": 52.9336,
        "longitude": 33.4464
    },
    {
        "name": "Pochepskiy Rayon",
        "latitude": 52.91667,
        "longitude": 33.5
    },
    {
        "name": "Pogar",
        "latitude": 52.55399,
        "longitude": 33.25907
    },
    {
        "name": "Pogarskiy Rayon",
        "latitude": 52.5,
        "longitude": 33.25
    },
    {
        "name": "Put\u00ebvka",
        "latitude": 53.25833,
        "longitude": 34.28778
    },
    {
        "name": "Raditsa-Krylovka",
        "latitude": 53.31712,
        "longitude": 34.35742
    },
    {
        "name": "Rognedino",
        "latitude": 53.80147,
        "longitude": 33.5576
    },
    {
        "name": "Rognedinskiy Rayon",
        "latitude": 53.83333,
        "longitude": 33.66667
    },
    {
        "name": "Rzhanitsa",
        "latitude": 53.42844,
        "longitude": 33.92297
    },
    {
        "name": "Sachkovichi",
        "latitude": 52.3459,
        "longitude": 32.2246
    },
    {
        "name": "Sel\u2019tso",
        "latitude": 53.36831,
        "longitude": 34.10328
    },
    {
        "name": "Seshcha",
        "latitude": 53.7361,
        "longitude": 33.3387
    },
    {
        "name": "Sevsk",
        "latitude": 52.1491,
        "longitude": 34.4926
    },
    {
        "name": "Sevskiy Rayon",
        "latitude": 52.08333,
        "longitude": 34.41667
    },
    {
        "name": "Star\u2019",
        "latitude": 53.62362,
        "longitude": 34.15183
    },
    {
        "name": "Starodub",
        "latitude": 52.58444,
        "longitude": 32.76333
    },
    {
        "name": "Starodubskiy Rayon",
        "latitude": 52.5,
        "longitude": 32.75
    },
    {
        "name": "Suponevo",
        "latitude": 53.20492,
        "longitude": 34.29597
    },
    {
        "name": "Surazh",
        "latitude": 53.01747,
        "longitude": 32.39178
    },
    {
        "name": "Surazhskiy Rayon",
        "latitude": 53.08333,
        "longitude": 32.41667
    },
    {
        "name": "Suz\u00ebmka",
        "latitude": 52.31834,
        "longitude": 34.07899
    },
    {
        "name": "Suzemskiy Rayon",
        "latitude": 52.41667,
        "longitude": 34.16667
    },
    {
        "name": "Sven\u2019",
        "latitude": 53.18222,
        "longitude": 34.55111
    },
    {
        "name": "Trubchevsk",
        "latitude": 52.5798,
        "longitude": 33.7644
    },
    {
        "name": "Trubchevskiy Rayon",
        "latitude": 52.58333,
        "longitude": 33.75
    },
    {
        "name": "Unecha",
        "latitude": 52.84591,
        "longitude": 32.67394
    },
    {
        "name": "Unechskiy Rayon",
        "latitude": 52.83333,
        "longitude": 32.83333
    },
    {
        "name": "Vygonichi",
        "latitude": 53.09855,
        "longitude": 34.06728
    },
    {
        "name": "Vygonichskiy Rayon",
        "latitude": 53.08333,
        "longitude": 34.0
    },
    {
        "name": "Vyshkov",
        "latitude": 52.4764,
        "longitude": 31.6873
    },
    {
        "name": "Zamishevo",
        "latitude": 52.5395,
        "longitude": 32.0129
    },
    {
        "name": "Zaymishche",
        "latitude": 52.7264,
        "longitude": 32.2334
    },
    {
        "name": "Zhiryatino",
        "latitude": 53.2228,
        "longitude": 33.7306
    },
    {
        "name": "Zhiryatinskiy Rayon",
        "latitude": 53.25,
        "longitude": 33.58333
    },
    {
        "name": "Zhukovka",
        "latitude": 53.53395,
        "longitude": 33.72798
    },
    {
        "name": "Zhukovskiy Rayon",
        "latitude": 53.5,
        "longitude": 33.83333
    },
    {
        "name": "Zlynka",
        "latitude": 52.4267,
        "longitude": 31.7378
    },
    {
        "name": "Achkhoy-Martan",
        "latitude": 43.18997,
        "longitude": 45.28373
    },
    {
        "name": "Achkhoy-Martanovskiy Rayon",
        "latitude": 43.08333,
        "longitude": 45.25
    },
    {
        "name": "Alkhan-Kala",
        "latitude": 43.25861,
        "longitude": 45.53917
    },
    {
        "name": "Alkhan-Yurt",
        "latitude": 43.23179,
        "longitude": 45.57228
    },
    {
        "name": "Alkhazurovo",
        "latitude": 43.0639,
        "longitude": 45.65134
    },
    {
        "name": "Alleroy",
        "latitude": 43.21711,
        "longitude": 46.28209
    },
    {
        "name": "Alpatovo",
        "latitude": 43.7028,
        "longitude": 45.24154
    },
    {
        "name": "Argun",
        "latitude": 43.29713,
        "longitude": 45.87454
    },
    {
        "name": "Assinovskaya",
        "latitude": 43.24167,
        "longitude": 45.18194
    },
    {
        "name": "Avtury",
        "latitude": 43.16345,
        "longitude": 46.00152
    },
    {
        "name": "Bachi-Yurt",
        "latitude": 43.22417,
        "longitude": 46.19423
    },
    {
        "name": "Bamut",
        "latitude": 43.15986,
        "longitude": 45.19734
    },
    {
        "name": "Belgatoy",
        "latitude": 43.18995,
        "longitude": 45.83082
    },
    {
        "name": "Benoy-Yurt",
        "latitude": 43.69305,
        "longitude": 45.05025
    },
    {
        "name": "Borzoy",
        "latitude": 42.84147,
        "longitude": 45.62746
    },
    {
        "name": "Chechen-Aul",
        "latitude": 43.2,
        "longitude": 45.78889
    },
    {
        "name": "Chiri-Yurt",
        "latitude": 43.08869,
        "longitude": 45.74323
    },
    {
        "name": "Duba-Yurt",
        "latitude": 43.03534,
        "longitude": 45.73046
    },
    {
        "name": "Dyshne-Vedeno",
        "latitude": 42.96435,
        "longitude": 46.11578
    },
    {
        "name": "Dzhalka",
        "latitude": 43.3186,
        "longitude": 45.98787
    },
    {
        "name": "Elin-Yurt",
        "latitude": 43.67306,
        "longitude": 44.95889
    },
    {
        "name": "Engel\u2019-Yurt",
        "latitude": 43.32633,
        "longitude": 46.36048
    },
    {
        "name": "Gekhi",
        "latitude": 43.16354,
        "longitude": 45.47238
    },
    {
        "name": "Germenchuk",
        "latitude": 43.1857,
        "longitude": 45.921
    },
    {
        "name": "Gerzel\u2019-Aul",
        "latitude": 43.24728,
        "longitude": 46.40249
    },
    {
        "name": "Goragorskiy",
        "latitude": 43.5002,
        "longitude": 45.08574
    },
    {
        "name": "Goyty",
        "latitude": 43.16417,
        "longitude": 45.62278
    },
    {
        "name": "Grebenskaya",
        "latitude": 43.53086,
        "longitude": 46.37174
    },
    {
        "name": "Groznenskiy Rayon",
        "latitude": 43.33333,
        "longitude": 45.5
    },
    {
        "name": "Groznyy",
        "latitude": 43.31195,
        "longitude": 45.68895
    },
    {
        "name": "Gudermes",
        "latitude": 43.35071,
        "longitude": 46.10925
    },
    {
        "name": "Gudermesskiy Rayon",
        "latitude": 43.33333,
        "longitude": 46.16667
    },
    {
        "name": "Ilaskhan-Yurt",
        "latitude": 43.2791,
        "longitude": 46.10229
    },
    {
        "name": "Ishcherskaya",
        "latitude": 43.71359,
        "longitude": 45.13371
    },
    {
        "name": "Ishkhoy-Yurt",
        "latitude": 43.21278,
        "longitude": 46.38936
    },
    {
        "name": "Itum-Kali",
        "latitude": 42.73552,
        "longitude": 45.57574
    },
    {
        "name": "Itum-Kalinskiy Rayon",
        "latitude": 42.73611,
        "longitude": 45.5725
    },
    {
        "name": "Kalinovskaya",
        "latitude": 43.57383,
        "longitude": 45.5209
    },
    {
        "name": "Kargalinskaya",
        "latitude": 43.74381,
        "longitude": 46.47821
    },
    {
        "name": "Katyr-Yurt",
        "latitude": 43.17164,
        "longitude": 45.36991
    },
    {
        "name": "Khambi-Irze",
        "latitude": 43.23502,
        "longitude": 45.45302
    },
    {
        "name": "Khankala",
        "latitude": 43.30212,
        "longitude": 45.75564
    },
    {
        "name": "Kulary",
        "latitude": 43.23972,
        "longitude": 45.50417
    },
    {
        "name": "Kurchaloy",
        "latitude": 43.20184,
        "longitude": 46.0881
    },
    {
        "name": "Lakha N\u00ebvre",
        "latitude": 43.62271,
        "longitude": 45.33969
    },
    {
        "name": "Lakkha N\u00ebvre",
        "latitude": 43.61033,
        "longitude": 45.24542
    },
    {
        "name": "Martan-Chu",
        "latitude": 43.06366,
        "longitude": 45.56217
    },
    {
        "name": "Mayrtup",
        "latitude": 43.20348,
        "longitude": 46.13215
    },
    {
        "name": "Mesker-Yurt",
        "latitude": 43.25147,
        "longitude": 45.90716
    },
    {
        "name": "Nadterechnyy Rayon",
        "latitude": 43.58333,
        "longitude": 45.25
    },
    {
        "name": "Naurskaya",
        "latitude": 43.65075,
        "longitude": 45.31173
    },
    {
        "name": "Naurskiy Rayon",
        "latitude": 43.66667,
        "longitude": 45.5
    },
    {
        "name": "Nogamerzin-Yurt",
        "latitude": 43.65361,
        "longitude": 44.88889
    },
    {
        "name": "Novyye Atagi",
        "latitude": 43.13528,
        "longitude": 45.77306
    },
    {
        "name": "Nozhay-Yurt",
        "latitude": 43.0929,
        "longitude": 46.37868
    },
    {
        "name": "Nozhay-Yurtovskiy Rayon",
        "latitude": 43.08333,
        "longitude": 46.41667
    },
    {
        "name": "Oyskhara",
        "latitude": 43.26402,
        "longitude": 46.24803
    },
    {
        "name": "Pervomayskaya",
        "latitude": 43.40331,
        "longitude": 45.52343
    },
    {
        "name": "Petropavlovskaya",
        "latitude": 43.37944,
        "longitude": 45.82611
    },
    {
        "name": "Prigorodnoye",
        "latitude": 43.25303,
        "longitude": 45.75808
    },
    {
        "name": "Roshni-Chu",
        "latitude": 43.08954,
        "longitude": 45.45435
    },
    {
        "name": "Samashki",
        "latitude": 43.28935,
        "longitude": 45.29786
    },
    {
        "name": "Sernovodsk",
        "latitude": 43.31277,
        "longitude": 45.15969
    },
    {
        "name": "Serzhen\u2019-Yurt",
        "latitude": 43.12265,
        "longitude": 45.98583
    },
    {
        "name": "Shaami-Yurt",
        "latitude": 43.22647,
        "longitude": 45.38815
    },
    {
        "name": "Shalazhi",
        "latitude": 43.09476,
        "longitude": 45.35898
    },
    {
        "name": "Shali",
        "latitude": 43.14806,
        "longitude": 45.90194
    },
    {
        "name": "Shalinskiy Rayon",
        "latitude": 43.16667,
        "longitude": 45.91667
    },
    {
        "name": "Shatoy",
        "latitude": 42.87143,
        "longitude": 45.68865
    },
    {
        "name": "Sh\u00eblkovskaya",
        "latitude": 43.50804,
        "longitude": 46.34016
    },
    {
        "name": "Shelkovskiy Rayon",
        "latitude": 43.58333,
        "longitude": 46.0
    },
    {
        "name": "Staraya Sunzha",
        "latitude": 43.33542,
        "longitude": 45.74377
    },
    {
        "name": "Staryye Atagi",
        "latitude": 43.12028,
        "longitude": 45.74056
    },
    {
        "name": "Tolstoy-Yurt",
        "latitude": 43.44548,
        "longitude": 45.77901
    },
    {
        "name": "Tsentoroy",
        "latitude": 43.00658,
        "longitude": 46.22235
    },
    {
        "name": "Tsotsin-Yurt",
        "latitude": 43.24206,
        "longitude": 46.00013
    },
    {
        "name": "Urus-Martan",
        "latitude": 43.13053,
        "longitude": 45.53791
    },
    {
        "name": "Urus-Martanovskiy Rayon",
        "latitude": 43.08333,
        "longitude": 45.58333
    },
    {
        "name": "Valerik",
        "latitude": 43.17972,
        "longitude": 45.40806
    },
    {
        "name": "Vedeno",
        "latitude": 42.96892,
        "longitude": 46.09611
    },
    {
        "name": "Vedenskiy Rayon",
        "latitude": 43.0,
        "longitude": 46.08333
    },
    {
        "name": "Yalkhoy-Mokhk",
        "latitude": 43.10528,
        "longitude": 46.19045
    },
    {
        "name": "Zakan-Yurt",
        "latitude": 43.26224,
        "longitude": 45.42307
    },
    {
        "name": "Zandak",
        "latitude": 43.0571,
        "longitude": 46.45566
    },
    {
        "name": "Znamenskoye",
        "latitude": 43.67898,
        "longitude": 45.12867
    },
    {
        "name": "Agapovka",
        "latitude": 53.2973,
        "longitude": 59.1348
    },
    {
        "name": "Agapovskiy Rayon",
        "latitude": 53.33333,
        "longitude": 59.33333
    },
    {
        "name": "Argayash",
        "latitude": 55.4888,
        "longitude": 60.8767
    },
    {
        "name": "Asha",
        "latitude": 54.9973,
        "longitude": 57.2722
    },
    {
        "name": "Ashinskiy Rayon",
        "latitude": 55.0,
        "longitude": 57.5
    },
    {
        "name": "Bakal",
        "latitude": 54.9417,
        "longitude": 58.8083
    },
    {
        "name": "Bazhovo",
        "latitude": 55.05955,
        "longitude": 61.60445
    },
    {
        "name": "Berdyaush",
        "latitude": 55.1619,
        "longitude": 59.1464
    },
    {
        "name": "Bobrovka",
        "latitude": 54.047,
        "longitude": 61.7455
    },
    {
        "name": "Bredy",
        "latitude": 52.41528,
        "longitude": 60.34111
    },
    {
        "name": "Brodokalmak",
        "latitude": 55.5748,
        "longitude": 62.082
    },
    {
        "name": "Chebarkul\u2019",
        "latitude": 54.9749,
        "longitude": 60.3633
    },
    {
        "name": "Chebarkul\u2019skiy Rayon",
        "latitude": 54.83333,
        "longitude": 60.5
    },
    {
        "name": "Chelyabinsk",
        "latitude": 55.15402,
        "longitude": 61.42915
    },
    {
        "name": "Cheremshanka",
        "latitude": 56.1192,
        "longitude": 60.26804
    },
    {
        "name": "Chesma",
        "latitude": 53.81111,
        "longitude": 60.65333
    },
    {
        "name": "Dolgoderevenskoye",
        "latitude": 55.34444,
        "longitude": 61.34444
    },
    {
        "name": "Fershampenuaz",
        "latitude": 53.5202,
        "longitude": 59.8117
    },
    {
        "name": "Gornyak",
        "latitude": 55.13446,
        "longitude": 61.68268
    },
    {
        "name": "Gorod Chelyabinsk",
        "latitude": 55.16553,
        "longitude": 61.41673
    },
    {
        "name": "Kanashevo",
        "latitude": 55.2169,
        "longitude": 62.0634
    },
    {
        "name": "Karabash",
        "latitude": 55.4808,
        "longitude": 60.2157
    },
    {
        "name": "Kartalinskiy Rayon",
        "latitude": 53.0,
        "longitude": 60.5
    },
    {
        "name": "Kartaly",
        "latitude": 53.05285,
        "longitude": 60.64903
    },
    {
        "name": "Kasli",
        "latitude": 55.8909,
        "longitude": 60.7616
    },
    {
        "name": "Katav-Ivanovsk",
        "latitude": 54.75306,
        "longitude": 58.19556
    },
    {
        "name": "Katav-Ivanovskiy Rayon",
        "latitude": 54.75,
        "longitude": 58.25
    },
    {
        "name": "Kizil\u2019skiy Rayon",
        "latitude": 52.75,
        "longitude": 59.41667
    },
    {
        "name": "Kopeysk",
        "latitude": 55.11722,
        "longitude": 61.62823
    },
    {
        "name": "Korkino",
        "latitude": 54.8913,
        "longitude": 61.3969
    },
    {
        "name": "Koyelga",
        "latitude": 54.65224,
        "longitude": 60.9049
    },
    {
        "name": "Krasnogorskiy",
        "latitude": 54.6025,
        "longitude": 61.231
    },
    {
        "name": "Kropach\u00ebvo",
        "latitude": 55.0112,
        "longitude": 57.9896
    },
    {
        "name": "Kunashak",
        "latitude": 55.7032,
        "longitude": 61.5498
    },
    {
        "name": "Kusa",
        "latitude": 55.33833,
        "longitude": 59.44056
    },
    {
        "name": "Kyshtym",
        "latitude": 55.714,
        "longitude": 60.5528
    },
    {
        "name": "Leninsk",
        "latitude": 54.90306,
        "longitude": 59.8675
    },
    {
        "name": "Lokomotivnyy",
        "latitude": 53.0118,
        "longitude": 60.5684
    },
    {
        "name": "Magnitka",
        "latitude": 55.3475,
        "longitude": 59.69611
    },
    {
        "name": "Magnitogorsk",
        "latitude": 53.41861,
        "longitude": 59.04722
    },
    {
        "name": "Mezhevoy",
        "latitude": 55.17111,
        "longitude": 58.78139
    },
    {
        "name": "Miass",
        "latitude": 55.045,
        "longitude": 60.10833
    },
    {
        "name": "Miasskoye",
        "latitude": 55.2784,
        "longitude": 61.8905
    },
    {
        "name": "Muslyumovo",
        "latitude": 55.6133,
        "longitude": 61.626
    },
    {
        "name": "Nagaybakskiy Rayon",
        "latitude": 53.58333,
        "longitude": 59.75
    },
    {
        "name": "Nizhniy Ufaley",
        "latitude": 55.91528,
        "longitude": 59.98417
    },
    {
        "name": "Novogornyy",
        "latitude": 55.63,
        "longitude": 60.7919
    },
    {
        "name": "Novosineglazovskiy",
        "latitude": 55.03928,
        "longitude": 61.3768
    },
    {
        "name": "Nyazepetrovsk",
        "latitude": 56.05306,
        "longitude": 59.60278
    },
    {
        "name": "Nyazepetrovskiy Rayon",
        "latitude": 56.0,
        "longitude": 59.58333
    },
    {
        "name": "Oktyabr\u2019skiy Rayon",
        "latitude": 54.41667,
        "longitude": 62.75
    },
    {
        "name": "Ozersk",
        "latitude": 55.75556,
        "longitude": 60.70278
    },
    {
        "name": "Parizh",
        "latitude": 53.2974,
        "longitude": 60.1005
    },
    {
        "name": "Plast",
        "latitude": 54.36914,
        "longitude": 60.81361
    },
    {
        "name": "Poletayevo",
        "latitude": 55.0336,
        "longitude": 61.1138
    },
    {
        "name": "Potanino",
        "latitude": 55.1786,
        "longitude": 61.6222
    },
    {
        "name": "Roshchino",
        "latitude": 55.31012,
        "longitude": 61.26363
    },
    {
        "name": "Roza",
        "latitude": 54.9163,
        "longitude": 61.4586
    },
    {
        "name": "Sargazy",
        "latitude": 55.02064,
        "longitude": 61.24985
    },
    {
        "name": "Satka",
        "latitude": 55.0425,
        "longitude": 59.04
    },
    {
        "name": "Satkinskiy Rayon",
        "latitude": 55.0,
        "longitude": 59.0
    },
    {
        "name": "Selezyan",
        "latitude": 54.90583,
        "longitude": 61.82444
    },
    {
        "name": "Sim",
        "latitude": 54.993,
        "longitude": 57.6982
    },
    {
        "name": "Snezhinsk",
        "latitude": 56.085,
        "longitude": 60.73139
    },
    {
        "name": "Sosnovskiy Rayon",
        "latitude": 55.25,
        "longitude": 61.16667
    },
    {
        "name": "Starokamyshinsk",
        "latitude": 55.03912,
        "longitude": 61.58778
    },
    {
        "name": "Syrostan",
        "latitude": 55.0634,
        "longitude": 59.9002
    },
    {
        "name": "Tayginka",
        "latitude": 55.6244,
        "longitude": 60.5076
    },
    {
        "name": "Timiryazevskiy",
        "latitude": 54.92917,
        "longitude": 60.7625
    },
    {
        "name": "Tr\u00ebkhgornyy",
        "latitude": 54.815,
        "longitude": 58.45917
    },
    {
        "name": "Troitsk",
        "latitude": 54.0979,
        "longitude": 61.5773
    },
    {
        "name": "Turgoyak",
        "latitude": 55.15,
        "longitude": 60.11833
    },
    {
        "name": "Tyubuk",
        "latitude": 56.05521,
        "longitude": 60.9405
    },
    {
        "name": "Ust\u2019-Bagaryak",
        "latitude": 56.13278,
        "longitude": 61.84722
    },
    {
        "name": "Ust\u2019-Katav",
        "latitude": 54.9366,
        "longitude": 58.1757
    },
    {
        "name": "Uvel\u2019skiy",
        "latitude": 54.4446,
        "longitude": 61.3574
    },
    {
        "name": "Uvel\u2019skiy Rayon",
        "latitude": 54.5,
        "longitude": 61.5
    },
    {
        "name": "Uyskiy Rayon",
        "latitude": 54.33333,
        "longitude": 60.08333
    },
    {
        "name": "Uyskoye",
        "latitude": 54.3775,
        "longitude": 60.00472
    },
    {
        "name": "Vakhrushevo",
        "latitude": 55.2317,
        "longitude": 61.7173
    },
    {
        "name": "Varna",
        "latitude": 53.38194,
        "longitude": 60.97472
    },
    {
        "name": "Varnenskiy Rayon",
        "latitude": 53.25,
        "longitude": 61.08333
    },
    {
        "name": "Velikopetrovka",
        "latitude": 53.25042,
        "longitude": 60.48606
    },
    {
        "name": "Verkhneural\u2019sk",
        "latitude": 53.87694,
        "longitude": 59.21056
    },
    {
        "name": "Verkhniy Ufaley",
        "latitude": 56.0556,
        "longitude": 60.2397
    },
    {
        "name": "Vishn\u00ebvogorsk",
        "latitude": 55.9913,
        "longitude": 60.6579
    },
    {
        "name": "Vyazovaya",
        "latitude": 54.905,
        "longitude": 58.35611
    },
    {
        "name": "Yemanzhelinka",
        "latitude": 54.801,
        "longitude": 61.2989
    },
    {
        "name": "Yemanzhelinsk",
        "latitude": 54.75472,
        "longitude": 61.32083
    },
    {
        "name": "Yetkul\u2019",
        "latitude": 54.8221,
        "longitude": 61.588
    },
    {
        "name": "Yuryuzan\u2019",
        "latitude": 54.86333,
        "longitude": 58.42194
    },
    {
        "name": "Yuzhnoural\u2019sk",
        "latitude": 54.4418,
        "longitude": 61.2536
    },
    {
        "name": "Zheleznodorozhnyy",
        "latitude": 55.10183,
        "longitude": 61.54926
    },
    {
        "name": "Zlatoust",
        "latitude": 55.17111,
        "longitude": 59.65083
    },
    {
        "name": "Anadyr",
        "latitude": 64.73424,
        "longitude": 177.5103
    },
    {
        "name": "Anadyrskiy Rayon",
        "latitude": 65.0,
        "longitude": 173.0
    },
    {
        "name": "Beringovskiy",
        "latitude": 63.06101,
        "longitude": 179.35046
    },
    {
        "name": "Bilibino",
        "latitude": 68.05464,
        "longitude": 166.43721
    },
    {
        "name": "Egvekinot",
        "latitude": 66.32166,
        "longitude": -179.12198
    },
    {
        "name": "Lavrentiya",
        "latitude": 65.58604,
        "longitude": -171.02082
    },
    {
        "name": "Lorino",
        "latitude": 65.50306,
        "longitude": -171.70387
    },
    {
        "name": "Pevek",
        "latitude": 69.70287,
        "longitude": 170.29993
    },
    {
        "name": "Provideniya",
        "latitude": 64.42289,
        "longitude": -173.22641
    },
    {
        "name": "Providenskiy Rayon",
        "latitude": 65.25,
        "longitude": -175.0
    },
    {
        "name": "Alatyr\u2019",
        "latitude": 54.8421,
        "longitude": 46.5813
    },
    {
        "name": "Alatyrskiy Rayon",
        "latitude": 54.91667,
        "longitude": 46.75
    },
    {
        "name": "Alikovo",
        "latitude": 55.73827,
        "longitude": 46.75493
    },
    {
        "name": "Alikovskiy Rayon",
        "latitude": 55.75,
        "longitude": 46.75
    },
    {
        "name": "Atlashevo",
        "latitude": 56.01235,
        "longitude": 47.55615
    },
    {
        "name": "Batyrevo",
        "latitude": 55.0675,
        "longitude": 47.61111
    },
    {
        "name": "Batyrevskiy Rayon",
        "latitude": 55.08333,
        "longitude": 47.5
    },
    {
        "name": "Buinsk",
        "latitude": 55.195,
        "longitude": 47.0608
    },
    {
        "name": "Cheboksarskiy Rayon",
        "latitude": 56.08333,
        "longitude": 47.25
    },
    {
        "name": "Cheboksary",
        "latitude": 56.13222,
        "longitude": 47.25194
    },
    {
        "name": "Ibresi",
        "latitude": 55.3011,
        "longitude": 47.038
    },
    {
        "name": "Ibresinskiy Rayon",
        "latitude": 55.25,
        "longitude": 47.0
    },
    {
        "name": "Ishley",
        "latitude": 56.02317,
        "longitude": 47.05054
    },
    {
        "name": "Kanash",
        "latitude": 55.50962,
        "longitude": 47.49127
    },
    {
        "name": "Kanashskiy Rayon",
        "latitude": 55.5,
        "longitude": 47.41667
    },
    {
        "name": "Kirya",
        "latitude": 55.08102,
        "longitude": 46.86091
    },
    {
        "name": "Komsomol'skoye",
        "latitude": 55.25667,
        "longitude": 47.54608
    },
    {
        "name": "Komsomol\u2019skiy Rayon",
        "latitude": 55.25,
        "longitude": 47.5
    },
    {
        "name": "Kozlovka",
        "latitude": 55.84284,
        "longitude": 48.2492
    },
    {
        "name": "Kozlovskiy Rayon",
        "latitude": 55.83333,
        "longitude": 48.16667
    },
    {
        "name": "Krasnoarmeyskiy Rayon",
        "latitude": 55.75,
        "longitude": 47.16667
    },
    {
        "name": "Krasnoarmeyskoye",
        "latitude": 55.76813,
        "longitude": 47.17244
    },
    {
        "name": "Krasnochetayskiy Rayon",
        "latitude": 55.66667,
        "longitude": 46.25
    },
    {
        "name": "Krasnyye Chetai",
        "latitude": 55.68871,
        "longitude": 46.13865
    },
    {
        "name": "Kugesi",
        "latitude": 56.02895,
        "longitude": 47.29255
    },
    {
        "name": "Mariinskiy Posad",
        "latitude": 56.11497,
        "longitude": 47.71805
    },
    {
        "name": "Mariinsko-Posadskiy Rayon",
        "latitude": 55.91667,
        "longitude": 47.83333
    },
    {
        "name": "Morgaushi",
        "latitude": 55.9643,
        "longitude": 46.7743
    },
    {
        "name": "Morgaushskiy Rayon",
        "latitude": 56.0,
        "longitude": 46.75
    },
    {
        "name": "Novocheboksarsk",
        "latitude": 56.11095,
        "longitude": 47.47755
    },
    {
        "name": "Novyye Lapsary",
        "latitude": 56.0685,
        "longitude": 47.2142
    },
    {
        "name": "Poretskiy Rayon",
        "latitude": 55.16667,
        "longitude": 46.41667
    },
    {
        "name": "Poretskoye",
        "latitude": 55.19742,
        "longitude": 46.32908
    },
    {
        "name": "Shemursha",
        "latitude": 54.88663,
        "longitude": 47.51893
    },
    {
        "name": "Shemurshinskiy Rayon",
        "latitude": 54.91667,
        "longitude": 47.5
    },
    {
        "name": "Shikhazany",
        "latitude": 55.56047,
        "longitude": 47.39297
    },
    {
        "name": "Shumerlinskiy Rayon",
        "latitude": 55.5,
        "longitude": 46.5
    },
    {
        "name": "Shumerlya",
        "latitude": 55.5005,
        "longitude": 46.41288
    },
    {
        "name": "Tsivil\u2019sk",
        "latitude": 55.86974,
        "longitude": 47.47874
    },
    {
        "name": "Tsivil\u2019skiy Rayon",
        "latitude": 55.83333,
        "longitude": 47.5
    },
    {
        "name": "Urmarskiy Rayon",
        "latitude": 55.66667,
        "longitude": 47.91667
    },
    {
        "name": "Urmary",
        "latitude": 55.67894,
        "longitude": 47.94396
    },
    {
        "name": "Vurnarskiy Rayon",
        "latitude": 55.5,
        "longitude": 46.91667
    },
    {
        "name": "Vurnary",
        "latitude": 55.49044,
        "longitude": 46.96479
    },
    {
        "name": "Yadrin",
        "latitude": 55.94052,
        "longitude": 46.20622
    },
    {
        "name": "Yadrinskiy Rayon",
        "latitude": 55.91667,
        "longitude": 46.33333
    },
    {
        "name": "Yal\u2019chikskiy Rayon",
        "latitude": 55.16667,
        "longitude": 47.91667
    },
    {
        "name": "Yantikovo",
        "latitude": 55.82158,
        "longitude": 47.91036
    },
    {
        "name": "Yantikovskiy Rayon",
        "latitude": 55.5,
        "longitude": 47.83333
    },
    {
        "name": "Arkhipovka",
        "latitude": 56.66292,
        "longitude": 41.25434
    },
    {
        "name": "Bogorodskoye",
        "latitude": 57.04695,
        "longitude": 41.01354
    },
    {
        "name": "Dulyapino",
        "latitude": 57.25783,
        "longitude": 40.81471
    },
    {
        "name": "Furmanov",
        "latitude": 57.25363,
        "longitude": 41.10849
    },
    {
        "name": "Gavrilov Posad",
        "latitude": 56.5593,
        "longitude": 40.121
    },
    {
        "name": "Il\u2019inskoye-Khovanskoye",
        "latitude": 56.9718,
        "longitude": 39.7684
    },
    {
        "name": "Ivanovo",
        "latitude": 56.99719,
        "longitude": 40.97139
    },
    {
        "name": "Ivanovskiy Rayon",
        "latitude": 57.0,
        "longitude": 41.0
    },
    {
        "name": "Kamenka",
        "latitude": 57.39214,
        "longitude": 41.79383
    },
    {
        "name": "Kaminskiy",
        "latitude": 57.15159,
        "longitude": 41.47318
    },
    {
        "name": "Kineshemskiy Rayon",
        "latitude": 57.33333,
        "longitude": 42.33333
    },
    {
        "name": "Kineshma",
        "latitude": 57.43914,
        "longitude": 42.12894
    },
    {
        "name": "Kitovo",
        "latitude": 56.86586,
        "longitude": 41.28246
    },
    {
        "name": "Kokhma",
        "latitude": 56.93487,
        "longitude": 41.0915
    },
    {
        "name": "Kolobovo",
        "latitude": 56.70199,
        "longitude": 41.34173
    },
    {
        "name": "Komsomol\u2019sk",
        "latitude": 57.02913,
        "longitude": 40.37266
    },
    {
        "name": "Komsomol\u2019skiy Rayon",
        "latitude": 57.08333,
        "longitude": 40.41667
    },
    {
        "name": "Kuznechikha",
        "latitude": 57.21607,
        "longitude": 42.33477
    },
    {
        "name": "Lezhnevo",
        "latitude": 56.77508,
        "longitude": 40.89174
    },
    {
        "name": "Lezhnevskiy Rayon",
        "latitude": 56.75,
        "longitude": 40.91667
    },
    {
        "name": "Lukh",
        "latitude": 57.01242,
        "longitude": 42.25838
    },
    {
        "name": "Lukhskiy Rayon",
        "latitude": 57.0,
        "longitude": 42.41667
    },
    {
        "name": "Markovo",
        "latitude": 57.0185,
        "longitude": 40.49465
    },
    {
        "name": "Navoloki",
        "latitude": 57.46572,
        "longitude": 41.96344
    },
    {
        "name": "Nerl\u2019",
        "latitude": 56.66285,
        "longitude": 40.38931
    },
    {
        "name": "Novo-Talitsy",
        "latitude": 57.00392,
        "longitude": 40.85936
    },
    {
        "name": "Novopistsovo",
        "latitude": 57.32177,
        "longitude": 41.8531
    },
    {
        "name": "Novoye Leushino",
        "latitude": 56.80732,
        "longitude": 40.51443
    },
    {
        "name": "Novyye Gorki",
        "latitude": 56.72535,
        "longitude": 41.06014
    },
    {
        "name": "Palekh",
        "latitude": 56.80256,
        "longitude": 41.85508
    },
    {
        "name": "Palekhskiy Rayon",
        "latitude": 56.83333,
        "longitude": 42.0
    },
    {
        "name": "Pestyaki",
        "latitude": 56.7086,
        "longitude": 42.66954
    },
    {
        "name": "Pestyakovskiy Rayon",
        "latitude": 56.58333,
        "longitude": 42.66667
    },
    {
        "name": "Petrovskiy",
        "latitude": 56.6421,
        "longitude": 40.32026
    },
    {
        "name": "Pistsovo",
        "latitude": 57.17904,
        "longitude": 40.52983
    },
    {
        "name": "Pl\u00ebs",
        "latitude": 57.45862,
        "longitude": 41.51579
    },
    {
        "name": "Privolzhsk",
        "latitude": 57.38698,
        "longitude": 41.28666
    },
    {
        "name": "Privolzhskiy Rayon",
        "latitude": 57.33333,
        "longitude": 41.33333
    },
    {
        "name": "Puchezh",
        "latitude": 56.97878,
        "longitude": 43.16761
    },
    {
        "name": "Puchezhskiy Rayon",
        "latitude": 57.0,
        "longitude": 43.0
    },
    {
        "name": "Rodniki",
        "latitude": 57.10513,
        "longitude": 41.73048
    },
    {
        "name": "Rodnikovskiy Rayon",
        "latitude": 57.08333,
        "longitude": 41.75
    },
    {
        "name": "Savino",
        "latitude": 56.59285,
        "longitude": 41.21814
    },
    {
        "name": "Savinskiy Rayon",
        "latitude": 56.58333,
        "longitude": 41.33333
    },
    {
        "name": "Shuya",
        "latitude": 56.84865,
        "longitude": 41.38833
    },
    {
        "name": "Shuyskiy Rayon",
        "latitude": 56.83333,
        "longitude": 41.5
    },
    {
        "name": "Staraya Vichuga",
        "latitude": 57.26833,
        "longitude": 41.87873
    },
    {
        "name": "Talitsy",
        "latitude": 56.52801,
        "longitude": 42.3323
    },
    {
        "name": "Teykovo",
        "latitude": 56.85796,
        "longitude": 40.53692
    },
    {
        "name": "Teykovskiy Rayon",
        "latitude": 56.75,
        "longitude": 40.5
    },
    {
        "name": "Verkhnelandekhovskiy Rayon",
        "latitude": 56.83333,
        "longitude": 42.58333
    },
    {
        "name": "Verkhniy Landekh",
        "latitude": 56.83971,
        "longitude": 42.5973
    },
    {
        "name": "Vichuga",
        "latitude": 57.21276,
        "longitude": 41.93012
    },
    {
        "name": "Vichugskiy Rayon",
        "latitude": 57.25,
        "longitude": 42.0
    },
    {
        "name": "Yur\u2019yevets",
        "latitude": 57.32007,
        "longitude": 43.1041
    },
    {
        "name": "Yur\u2019yevetskiy Rayon",
        "latitude": 57.25,
        "longitude": 42.83333
    },
    {
        "name": "Yuzha",
        "latitude": 56.58306,
        "longitude": 42.01222
    },
    {
        "name": "Yuzhskiy Rayon",
        "latitude": 56.58333,
        "longitude": 42.0
    },
    {
        "name": "Zarechnyy",
        "latitude": 57.46931,
        "longitude": 42.28431
    },
    {
        "name": "Zavolzhsk",
        "latitude": 57.4823,
        "longitude": 42.13779
    },
    {
        "name": "Zavolzhskiy Rayon",
        "latitude": 57.5,
        "longitude": 42.08333
    },
    {
        "name": "Amurzet",
        "latitude": 47.69541,
        "longitude": 131.09493
    },
    {
        "name": "Babstovo",
        "latitude": 48.11853,
        "longitude": 132.47913
    },
    {
        "name": "Bira",
        "latitude": 49.00135,
        "longitude": 132.46826
    },
    {
        "name": "Birakan",
        "latitude": 48.99302,
        "longitude": 131.72026
    },
    {
        "name": "Birobidzhan",
        "latitude": 48.79284,
        "longitude": 132.92386
    },
    {
        "name": "Birobidzhanskiy Rayon",
        "latitude": 48.5,
        "longitude": 132.75
    },
    {
        "name": "Izvestkovyy",
        "latitude": 48.98043,
        "longitude": 131.55274
    },
    {
        "name": "Khingansk",
        "latitude": 49.12821,
        "longitude": 131.19322
    },
    {
        "name": "Kul\u2019dur",
        "latitude": 49.20465,
        "longitude": 131.6384
    },
    {
        "name": "Leninskiy Rayon",
        "latitude": 48.16667,
        "longitude": 132.25
    },
    {
        "name": "Leninskoye",
        "latitude": 47.93501,
        "longitude": 132.62025
    },
    {
        "name": "Londoko",
        "latitude": 49.01805,
        "longitude": 131.99142
    },
    {
        "name": "Obluchenskiy Rayon",
        "latitude": 49.0,
        "longitude": 132.0
    },
    {
        "name": "Oktyabr\u2019skiy Rayon",
        "latitude": 48.16667,
        "longitude": 131.41667
    },
    {
        "name": "Priamurskiy",
        "latitude": 48.52716,
        "longitude": 134.90359
    },
    {
        "name": "Smidovich",
        "latitude": 48.59647,
        "longitude": 133.80866
    },
    {
        "name": "Smidovichskiy Rayon",
        "latitude": 48.5,
        "longitude": 134.0
    },
    {
        "name": "Volochayevka Vtoraya",
        "latitude": 48.56695,
        "longitude": 134.58232
    },
    {
        "name": "Aleksandrovskaya",
        "latitude": 43.48333,
        "longitude": 43.65
    },
    {
        "name": "Altud",
        "latitude": 43.72194,
        "longitude": 43.86583
    },
    {
        "name": "Argudan",
        "latitude": 43.42139,
        "longitude": 43.91583
    },
    {
        "name": "Aushiger",
        "latitude": 43.39611,
        "longitude": 43.73167
    },
    {
        "name": "Babugent",
        "latitude": 43.27942,
        "longitude": 43.5502
    },
    {
        "name": "Baksan",
        "latitude": 43.68806,
        "longitude": 43.53694
    },
    {
        "name": "Baksanenok",
        "latitude": 43.68972,
        "longitude": 43.65472
    },
    {
        "name": "Baksanskiy Rayon",
        "latitude": 43.75,
        "longitude": 43.5
    },
    {
        "name": "Belaya Rechka",
        "latitude": 43.43806,
        "longitude": 43.535
    },
    {
        "name": "Bylym",
        "latitude": 43.465,
        "longitude": 43.03889
    },
    {
        "name": "Chegem",
        "latitude": 43.28333,
        "longitude": 43.13333
    },
    {
        "name": "Chegem Vtoroy",
        "latitude": 43.59583,
        "longitude": 43.59944
    },
    {
        "name": "Cherekskiy Rayon",
        "latitude": 43.25,
        "longitude": 43.5
    },
    {
        "name": "Deyskoye",
        "latitude": 43.47546,
        "longitude": 44.16182
    },
    {
        "name": "Dugulubgey",
        "latitude": 43.6625,
        "longitude": 43.53694
    },
    {
        "name": "El\u2019brus",
        "latitude": 43.25771,
        "longitude": 42.64435
    },
    {
        "name": "El\u2019brusskiy Rayon",
        "latitude": 43.41667,
        "longitude": 42.83333
    },
    {
        "name": "Germenchik",
        "latitude": 43.59389,
        "longitude": 43.76611
    },
    {
        "name": "Gundelen",
        "latitude": 43.5975,
        "longitude": 43.17194
    },
    {
        "name": "Islamey",
        "latitude": 43.67556,
        "longitude": 43.455
    },
    {
        "name": "Kakhun",
        "latitude": 43.54306,
        "longitude": 43.87639
    },
    {
        "name": "Kamenka",
        "latitude": 43.53333,
        "longitude": 43.51667
    },
    {
        "name": "Kamennomostskoye",
        "latitude": 43.73722,
        "longitude": 43.05139
    },
    {
        "name": "Karagach",
        "latitude": 43.80528,
        "longitude": 43.775
    },
    {
        "name": "Kashkhatau",
        "latitude": 43.31848,
        "longitude": 43.60804
    },
    {
        "name": "Kenzhe",
        "latitude": 43.50167,
        "longitude": 43.55722
    },
    {
        "name": "Kishpek",
        "latitude": 43.655,
        "longitude": 43.64083
    },
    {
        "name": "Kotlyarevskaya",
        "latitude": 43.57344,
        "longitude": 44.06134
    },
    {
        "name": "Kuba-Taba",
        "latitude": 43.77611,
        "longitude": 43.44278
    },
    {
        "name": "Kyzburun Pervyy",
        "latitude": 43.65167,
        "longitude": 43.395
    },
    {
        "name": "Lechinkay",
        "latitude": 43.56472,
        "longitude": 43.43278
    },
    {
        "name": "Leskenskiy rayon",
        "latitude": 43.35556,
        "longitude": 43.94139
    },
    {
        "name": "Malka",
        "latitude": 43.80389,
        "longitude": 43.32417
    },
    {
        "name": "Mayskiy Rayon",
        "latitude": 43.66667,
        "longitude": 44.08333
    },
    {
        "name": "Nal\u2019chik",
        "latitude": 43.49806,
        "longitude": 43.61889
    },
    {
        "name": "Nartan",
        "latitude": 43.51083,
        "longitude": 43.69944
    },
    {
        "name": "Nartkala",
        "latitude": 43.5575,
        "longitude": 43.85083
    },
    {
        "name": "Nizhniy Cherek",
        "latitude": 43.51306,
        "longitude": 43.91389
    },
    {
        "name": "Nizhniy Kurkuzhin",
        "latitude": 43.74833,
        "longitude": 43.34972
    },
    {
        "name": "Planovskoye",
        "latitude": 43.39846,
        "longitude": 44.1949
    },
    {
        "name": "Primalkinskoye",
        "latitude": 43.74667,
        "longitude": 44.00833
    },
    {
        "name": "Prokhladnenskiy Rayon",
        "latitude": 43.83333,
        "longitude": 44.0
    },
    {
        "name": "Prokhladnyy",
        "latitude": 43.75741,
        "longitude": 44.0297
    },
    {
        "name": "Psygansu",
        "latitude": 43.41944,
        "longitude": 43.79361
    },
    {
        "name": "Sarmakovo",
        "latitude": 43.74556,
        "longitude": 43.20028
    },
    {
        "name": "Shalushka",
        "latitude": 43.5325,
        "longitude": 43.56611
    },
    {
        "name": "Soldatskaya",
        "latitude": 43.81806,
        "longitude": 43.81583
    },
    {
        "name": "Staryy Cherek",
        "latitude": 43.47139,
        "longitude": 43.84694
    },
    {
        "name": "Staryy Urukh",
        "latitude": 43.34041,
        "longitude": 44.01868
    },
    {
        "name": "Terek",
        "latitude": 43.48333,
        "longitude": 44.13611
    },
    {
        "name": "Terskiy Rayon",
        "latitude": 43.58333,
        "longitude": 44.25
    },
    {
        "name": "Terskol",
        "latitude": 43.2568,
        "longitude": 42.51481
    },
    {
        "name": "Tyrnyauz",
        "latitude": 43.38278,
        "longitude": 42.91833
    },
    {
        "name": "Urukh",
        "latitude": 43.29335,
        "longitude": 44.02647
    },
    {
        "name": "Urvan\u2019",
        "latitude": 43.49222,
        "longitude": 43.76056
    },
    {
        "name": "Urvanskiy Rayon",
        "latitude": 43.41667,
        "longitude": 43.91667
    },
    {
        "name": "Verkhniy Kurkuzhin",
        "latitude": 43.69556,
        "longitude": 43.27472
    },
    {
        "name": "Verkhnyaya Balkariya",
        "latitude": 43.12545,
        "longitude": 43.45687
    },
    {
        "name": "Vol\u2019nyy Aul",
        "latitude": 43.47861,
        "longitude": 43.6275
    },
    {
        "name": "Zalukokoazhe",
        "latitude": 43.90389,
        "longitude": 43.21556
    },
    {
        "name": "Zayukovo",
        "latitude": 43.61611,
        "longitude": 43.33389
    },
    {
        "name": "Zhankhoteko",
        "latitude": 43.56417,
        "longitude": 43.21056
    },
    {
        "name": "Zhemtala",
        "latitude": 43.28408,
        "longitude": 43.65586
    },
    {
        "name": "Zol\u2019skiy Rayon",
        "latitude": 43.75,
        "longitude": 42.91667
    },
    {
        "name": "Bagrationovsk",
        "latitude": 54.38714,
        "longitude": 20.64372
    },
    {
        "name": "Baltiysk",
        "latitude": 54.65455,
        "longitude": 19.90929
    },
    {
        "name": "Bol'shoe Isakovo",
        "latitude": 54.71774,
        "longitude": 20.60284
    },
    {
        "name": "Chernyakhovsk",
        "latitude": 54.63345,
        "longitude": 21.81557
    },
    {
        "name": "Donskoye",
        "latitude": 54.93842,
        "longitude": 19.96821
    },
    {
        "name": "Gur\u2019yevsk",
        "latitude": 54.77323,
        "longitude": 20.60521
    },
    {
        "name": "Gusev",
        "latitude": 54.59222,
        "longitude": 22.19972
    },
    {
        "name": "Gvardeysk",
        "latitude": 54.64772,
        "longitude": 21.06513
    },
    {
        "name": "Kaliningrad",
        "latitude": 54.70649,
        "longitude": 20.51095
    },
    {
        "name": "Khrabrovo",
        "latitude": 54.89709,
        "longitude": 20.58035
    },
    {
        "name": "Krasnoznamensk",
        "latitude": 54.94222,
        "longitude": 22.48972
    },
    {
        "name": "Ladushkin",
        "latitude": 54.57025,
        "longitude": 20.17099
    },
    {
        "name": "Maloye Isakovo",
        "latitude": 54.73269,
        "longitude": 20.58413
    },
    {
        "name": "Mamonovo",
        "latitude": 54.46427,
        "longitude": 19.93801
    },
    {
        "name": "Neman",
        "latitude": 55.03111,
        "longitude": 22.02639
    },
    {
        "name": "Nemanskiy Rayon",
        "latitude": 54.91667,
        "longitude": 22.0
    },
    {
        "name": "Nesterov",
        "latitude": 54.63056,
        "longitude": 22.57139
    },
    {
        "name": "Nesterovskiy Rayon",
        "latitude": 54.58333,
        "longitude": 22.58333
    },
    {
        "name": "Otradnoye",
        "latitude": 54.94114,
        "longitude": 20.11397
    },
    {
        "name": "Oz\u00ebrsk",
        "latitude": 54.41056,
        "longitude": 22.01167
    },
    {
        "name": "Ozerskiy Rayon",
        "latitude": 54.41667,
        "longitude": 22.0
    },
    {
        "name": "Pionerskiy",
        "latitude": 54.95083,
        "longitude": 20.22748
    },
    {
        "name": "Polessk",
        "latitude": 54.86205,
        "longitude": 21.10279
    },
    {
        "name": "Pravdinsk",
        "latitude": 54.44289,
        "longitude": 21.01785
    },
    {
        "name": "Primorsk",
        "latitude": 54.73905,
        "longitude": 20.00553
    },
    {
        "name": "Slavsk",
        "latitude": 55.0425,
        "longitude": 21.67704
    },
    {
        "name": "Slavskiy Rayon",
        "latitude": 55.0,
        "longitude": 21.66667
    },
    {
        "name": "Sovetsk",
        "latitude": 55.08392,
        "longitude": 21.87851
    },
    {
        "name": "Svetlogorsk",
        "latitude": 54.93987,
        "longitude": 20.15479
    },
    {
        "name": "Svetlyy",
        "latitude": 54.67501,
        "longitude": 20.13473
    },
    {
        "name": "Volochayevskoye",
        "latitude": 54.70034,
        "longitude": 20.21966
    },
    {
        "name": "Vzmorye",
        "latitude": 54.69606,
        "longitude": 20.23613
    },
    {
        "name": "Yantarnyy",
        "latitude": 54.87102,
        "longitude": 19.94016
    },
    {
        "name": "Yuzhnyy",
        "latitude": 54.54837,
        "longitude": 20.59843
    },
    {
        "name": "Zelenogradsk",
        "latitude": 54.95893,
        "longitude": 20.47668
    },
    {
        "name": "Zheleznodorozhnyy",
        "latitude": 54.36013,
        "longitude": 21.30597
    },
    {
        "name": "Znamensk",
        "latitude": 54.61403,
        "longitude": 21.22722
    },
    {
        "name": "Babynino",
        "latitude": 54.39385,
        "longitude": 35.77013
    },
    {
        "name": "Babyninskiy Rayon",
        "latitude": 54.41667,
        "longitude": 35.75
    },
    {
        "name": "Balabanovo",
        "latitude": 55.18161,
        "longitude": 36.6606
    },
    {
        "name": "Baryatino",
        "latitude": 54.31206,
        "longitude": 34.52096
    },
    {
        "name": "Baryatinskiy Rayon",
        "latitude": 54.33333,
        "longitude": 34.58333
    },
    {
        "name": "Belousovo",
        "latitude": 55.09499,
        "longitude": 36.6732
    },
    {
        "name": "Betlitsa",
        "latitude": 54.00946,
        "longitude": 33.95875
    },
    {
        "name": "Borovsk",
        "latitude": 55.20639,
        "longitude": 36.48611
    },
    {
        "name": "Borovskiy Rayon",
        "latitude": 55.16667,
        "longitude": 36.5
    },
    {
        "name": "Deshovki",
        "latitude": 54.00333,
        "longitude": 35.78771
    },
    {
        "name": "Detchino",
        "latitude": 54.80923,
        "longitude": 36.3075
    },
    {
        "name": "Duminichi",
        "latitude": 53.93446,
        "longitude": 35.10993
    },
    {
        "name": "Duminichskiy Rayon",
        "latitude": 53.91667,
        "longitude": 35.0
    },
    {
        "name": "Dvortsy",
        "latitude": 54.61677,
        "longitude": 35.9974
    },
    {
        "name": "Dzerzhinskiy Rayon",
        "latitude": 54.75,
        "longitude": 35.75
    },
    {
        "name": "Ferzikovo",
        "latitude": 54.51913,
        "longitude": 36.75671
    },
    {
        "name": "Ferzikovskiy Rayon",
        "latitude": 54.58333,
        "longitude": 36.58333
    },
    {
        "name": "Iznoski",
        "latitude": 54.98806,
        "longitude": 35.31083
    },
    {
        "name": "Iznoskovskiy rayon",
        "latitude": 54.99026,
        "longitude": 35.30961
    },
    {
        "name": "Kaluga",
        "latitude": 54.5293,
        "longitude": 36.27542
    },
    {
        "name": "Khvastovichi",
        "latitude": 53.46942,
        "longitude": 35.09409
    },
    {
        "name": "Khvastovichskiy Rayon",
        "latitude": 53.5,
        "longitude": 35.16667
    },
    {
        "name": "Kirov",
        "latitude": 54.06686,
        "longitude": 34.29955
    },
    {
        "name": "Kirovskiy Rayon",
        "latitude": 54.08333,
        "longitude": 34.41667
    },
    {
        "name": "Kondrovo",
        "latitude": 54.80639,
        "longitude": 35.92778
    },
    {
        "name": "Kozel\u2019sk",
        "latitude": 54.03746,
        "longitude": 35.77159
    },
    {
        "name": "Kozel\u2019skiy Rayon",
        "latitude": 54.0,
        "longitude": 35.83333
    },
    {
        "name": "Kremenki",
        "latitude": 54.88626,
        "longitude": 37.11955
    },
    {
        "name": "Kudinovo",
        "latitude": 54.99939,
        "longitude": 36.25331
    },
    {
        "name": "Kurovskoye",
        "latitude": 54.54299,
        "longitude": 36.00262
    },
    {
        "name": "Kuybyshevskiy Rayon",
        "latitude": 54.08333,
        "longitude": 33.91667
    },
    {
        "name": "Lyudinovo",
        "latitude": 53.86639,
        "longitude": 34.44778
    },
    {
        "name": "Lyudinovskiy Rayon",
        "latitude": 53.91667,
        "longitude": 34.5
    },
    {
        "name": "Maloyaroslavets",
        "latitude": 55.01457,
        "longitude": 36.47185
    },
    {
        "name": "Maloyaroslavetskiy Rayon",
        "latitude": 54.91667,
        "longitude": 36.5
    },
    {
        "name": "Medyn\u2019",
        "latitude": 54.96917,
        "longitude": 35.85861
    },
    {
        "name": "Medynskiy Rayon",
        "latitude": 55.08333,
        "longitude": 35.83333
    },
    {
        "name": "Meshchovsk",
        "latitude": 54.32444,
        "longitude": 35.28083
    },
    {
        "name": "Meshchovskiy Rayon",
        "latitude": 54.33333,
        "longitude": 35.41667
    },
    {
        "name": "Mosal\u2019sk",
        "latitude": 54.48806,
        "longitude": 34.98167
    },
    {
        "name": "Mosal\u2019skiy Rayon",
        "latitude": 54.58333,
        "longitude": 34.83333
    },
    {
        "name": "Mstikhino",
        "latitude": 54.55947,
        "longitude": 36.12777
    },
    {
        "name": "Myatlevo",
        "latitude": 54.89693,
        "longitude": 35.67619
    },
    {
        "name": "Nikola-Lenivets",
        "latitude": 54.74943,
        "longitude": 35.60133
    },
    {
        "name": "Obninsk",
        "latitude": 55.09681,
        "longitude": 36.61006
    },
    {
        "name": "Peremyshl\u2019",
        "latitude": 54.26313,
        "longitude": 36.16063
    },
    {
        "name": "Peremyshl\u2019skiy Rayon",
        "latitude": 54.25,
        "longitude": 36.08333
    },
    {
        "name": "Polotnyanyy Zavod",
        "latitude": 54.72139,
        "longitude": 35.96611
    },
    {
        "name": "Pyatovskiy",
        "latitude": 54.68908,
        "longitude": 36.05634
    },
    {
        "name": "Seredeyskiy",
        "latitude": 54.05071,
        "longitude": 35.23183
    },
    {
        "name": "Sosenskiy",
        "latitude": 54.05899,
        "longitude": 35.96228
    },
    {
        "name": "Spas-Demensk",
        "latitude": 54.41222,
        "longitude": 34.02257
    },
    {
        "name": "Spas-Demenskiy Rayon",
        "latitude": 54.41667,
        "longitude": 34.0
    },
    {
        "name": "Sukhinichi",
        "latitude": 54.09989,
        "longitude": 35.34254
    },
    {
        "name": "Sukhinichskiy Rayon",
        "latitude": 54.08333,
        "longitude": 35.33333
    },
    {
        "name": "Tarusa",
        "latitude": 54.72436,
        "longitude": 37.17272
    },
    {
        "name": "Tarusskiy Rayon",
        "latitude": 54.66667,
        "longitude": 37.0
    },
    {
        "name": "Tovarkovo",
        "latitude": 54.67617,
        "longitude": 35.9386
    },
    {
        "name": "Ul\u2019yanovskiy Rayon",
        "latitude": 53.66667,
        "longitude": 35.66667
    },
    {
        "name": "Vorotynsk",
        "latitude": 54.42828,
        "longitude": 36.04646
    },
    {
        "name": "Vysokinichi",
        "latitude": 54.90928,
        "longitude": 36.93148
    },